~Version Information Block
VERS .                  2.0:  CWLS LOG ASCII STANDARD - VERSION 2.0
WRAP .                  YES:  Multiple lines per depth step
~Well Information Block
#MNEM.UNIT        Data Type   Information
#---------- ----------------  -----------
STRT .M          2686.96440:  START DEPTH
STOP .M          3645.86520:  STOP DEPTH
STEP .M             0.15240:  STEP
NULL .              -999.25:  NULL VALUE
COMP .                     :  COMPANY
WELL .      RAAG-105-07-212:  WELL
FLD  .                     :  FIELD
LOC  .                     :  LOCATION
CTRY .                     :  COUNTRY
STAT .                     :  STATE
CNTY .                     :  COUNTY
SRVC .                     :  SERVICE COMPANY
DATE .                     :  DATE
API  .                     :  API NUMBER
UWI  .                     :  UNIQUE WELL ID
~Curve Information Block
#MNEM.UNIT         API CODE   Curve Description
#---------- ----------------  -----------------
DEPTH.M                    :  
ANGLE_FAIL.DEG                  :  Fail Angle
BRIT_IND.                     :  Brittleness Index
BRIT_PR.                     :  Brittleness Index from Poisson's Ratio
BRIT_YM.                     :  Brittleness Index from Young's Modulus
CS   .M/MIN                 :  Compressive Strength
DTCO .US/F                 :  Compressional slowness
DTSM .US/F                 :  Shear slowness
IP   .RAYL/M2                 :  P Impedence
IS   .RAYL/M2                 :  S Impedance
KBULK.                     :  Bulk Mudulus
LAMBDA.                     :  Lambda
LAMRHO.                     :  
MU   .CP                   :  Mu
MURHO.(GF/C3S)2                 :  Mu*Rho
PR   .                     :  Poisson's ratio
PRESS_FG.PSI                  :  Fracture Gradient Pressure
PRESS_OB.PSI                  :  Over-burden Pressure
PRESS_PP.PSI                  :  Pore Pressure
PRESS_SHMAX.PSI                  :  Horizontal Stress (Max)
PRESS_SHMIN.PSI                  :  Horizontal Stress (Min)
PR_STAT.                     :  Poisson's ratio (Static)
PZS  .PSI                  :  Processed Zone Stress
SHMAX_GRAD.                     :  Horizontal Stress Gradient (Max)
SHMIN_GRAD.                     :  Horizontal Stress Gradient (Min)
STRESS_CUM.PSI                  :  Cumulative stress (SHPZ)
UCS_BF.PSI                  :  Uniaxial Compressive Strength (BF)
UCS_LAL.PSI                  :  Uniaxial Compressive Strength (lal)
VP   .FT/S                 :  Compressional velocity
VPVS .                     :  Vp / Vs ratio
VS   .FT/S                 :  Shear velocity
YM   .                     :  Youngs' Modulus
YM_STAT.                     :  Youngs' Modulus (Static)
~Parameter Information Block
#MNEM.UNIT            Value   Description
#---------- ----------------  -----------
ALPHA.                 0.98:  Biot's Constant
CALIB_SHMINPZS.                 6800:  Calibration Factor for processing zones
EXT_FACT.                1e-06:  Extension Factor
PR_FAC.                  0.9:  Poisson's ratio factor
PR_MAX.                  0.4:  Maximum Poisson's ratio
PR_MIN.                  0.1:  Minimum Poisson's ratio
TECT_FACT.                 1.05:  Techtonic Factor
YM_MAX.                    8:  Maximum Youngs' Modulus
YM_MIN.                    1:  Minimum Youngs' Modulus
PROJECT.          RDG_13Jul21:  
SET  .              GEOMECH:  
~Other Information Block
~Ascii Log Data
# ...
    3576.98040 
       41.2697        67.3318        42.8581        91.8055      1272.8290 
       62.5165       111.6138     13164.4209      7373.5820        23.9111 
       23.9111        64.5626        20.1361    0.000585231       0.271426 
     -999.2500     11983.3438      5348.1855     12211.1514      7427.1851 
      0.244283      2407.3816         2.5255         1.5361     12869.1338 
     3299.8721      5620.9565     15995.7783         1.7853      8959.4658 
        7.4264         4.9823
    3577.13280 
       41.2265        66.1453        41.8598        90.4308      1270.8962 
       62.6419       112.3460     13107.6572      7308.5693        24.1216 
       24.1216        64.9803        19.8285    0.000574956       0.274421 
     -999.2500     11983.9473      5348.2075     12210.1826      7459.2407 
      0.246978      2487.3235         2.5251         1.5426     13093.1289 
     3249.0828      5606.8008     15963.7559         1.7935      8901.0732 
        7.3302         4.8971
    3577.28520 
       41.1948        65.6340        41.7386        89.5294      1269.4753 
       62.7343       112.5743     13024.7520      7258.3057        23.9775 
       23.9775        64.2782        19.6522    0.000567075       0.274784 
     -999.2500     11984.5508      5348.2300     12210.6143      7463.2769 
      0.247306      2317.7090         2.5251         1.5434     12761.9717 
     3215.9521      5596.4063     15940.2441         1.7945      8883.0225 
        7.2671         4.8415
    3577.43760 
       41.1038        65.5570        42.2316        88.8824      1265.4158 
       62.9993       112.7953     12954.8213      7235.6265        23.5726 
       23.5726        63.1188        19.5524    0.000563537       0.273305 
     -999.2500     11985.1553      5348.2524     12212.0322      7447.6104 
      0.245975      2161.1855         2.5253         1.5401     12417.5918 
     3192.2603      5566.7646     15873.1924         1.7904      8865.6172 
        7.2218         4.8017
    3577.59000 
       40.9924        65.5304        42.6814        88.3794      1260.4573 
       63.3250       113.1474     12919.2354      7230.4854        23.2283 
       23.2283        62.3468        19.4777    0.000562736       0.271956 
     -999.2500     11985.7588      5348.2744     12213.3770      7433.3867 
      0.244760      2181.6768         2.5255         1.5371     12430.1270 
     3173.8887      5530.6733     15791.5508         1.7868      8838.0293 
        7.1866         4.7709
    3577.74240 
       40.8684        66.2983        44.2236        88.3730      1254.9572 
       63.6889       113.0179     12862.0264      7248.1289        22.4594 
       22.4594        60.3610        19.5476    0.000565486       0.267329 
     -999.2500     11986.3623      5348.2974     12216.4512      7384.5913 
      0.240596      2124.3235         2.5260         1.5269     12217.8291 
     3173.6580      5490.7856     15701.3232         1.7745      8848.1563 
        7.1861         4.7705
    3577.89480 
       40.9870        66.0650        43.3779        88.7521      1260.2161 
       63.3409       112.8224     12909.7373      7247.8018        22.9612 
       22.9612        61.6001        19.5806    0.000565435       0.269866 
     -999.2500     11986.9658      5348.3193     12215.7324      7411.6372 
      0.242880      2144.5349         2.5257         1.5324     12312.3438 
     3187.4988      5528.9209     15787.5879         1.7812      8863.4873 
        7.2126         4.7937
    3578.04720 
       41.3044        64.7737        40.0916        89.4558      1274.3849 
       62.4158       112.8655     13098.9316      7243.8457        24.8422 
       24.8422        66.6354        19.5624    0.000564818       0.279725 
     -999.2500     11987.5703      5348.3418     12211.0674      7517.6406 
      0.251753      2176.0730         2.5246         1.5543     12587.4268 
     3213.2537      5632.3652     16021.5840         1.8083      8860.1035 
        7.2619         4.8370
    3578.19960 
       41.7842        64.0785        36.5580        91.5991      1296.0674 
       61.0346       112.2880     13421.3760      7295.2437        27.4197 
       27.4197        73.6922        19.8026    0.000572862       0.290326 
     -999.2500     11988.1738      5348.3643     12205.8535      7634.5786 
      0.261294      2157.4766         2.5235         1.5784     12784.1104 
     3292.2261      5792.6460     16384.1484         1.8397      8905.6709 
        7.4119         4.9695
    3578.35200 
       42.2118        64.2440        34.2466        94.2414      1315.6674 
       59.8209       111.3732     13733.8311      7376.7310        29.6003 
       29.6003        79.7858        20.1882    0.000585731       0.297260 
     -999.2500     11988.7773      5348.3862     12202.5713      7712.9111 
      0.267534      2036.1337         2.5227         1.5945     12698.0889 
     3390.6633      5939.5986     16716.5645         1.8618      8978.8213 
        7.5969         5.1347
    3578.50440 
       42.4976        64.5869        33.2163        95.9574      1328.9127 
       59.0189       110.4836     13882.4990      7415.8506        30.7780 
       30.7780        82.7341        20.4587    0.000591960       0.300351 
     -999.2500     11989.3818      5348.4087     12201.4287      7748.4438 
      0.270316      2089.7720         2.5223         1.6018     12876.4316 
     3455.2356      6040.0200     16943.7246         1.8720      9051.1172 
        7.7170         5.2430
    3578.65680 
       42.3559        66.2594        35.9828        96.5359      1322.3329 
       59.4155       109.6283     13736.0703      7444.5693        29.0694 
       29.0694        77.8364        20.6982    0.000596553       0.292051 
     -999.2500     11989.9854      5348.4307     12206.7383      7654.9404 
      0.262846      1909.3634         2.5233         1.5824     12328.6084 
     3477.1157      5990.0215     16830.6250         1.8451      9121.7324 
        7.7575         5.2797
    3578.80920 
       42.0730        67.6457        39.2514        96.0401      1309.2761 
       60.2131       109.3190     13520.0518      7446.8687        26.9125 
       26.9125        71.8801        20.7631    0.000596922       0.282246 
     -999.2500     11990.5889      5348.4531     12212.7822      7546.7305 
      0.254021      1773.8826         2.5244         1.5599     11841.2266 
     3458.3589      5891.4639     16607.6816         1.8155      9147.5410 
        7.7228         5.2483
    3578.96160 
       42.0677        67.6593        38.7569        96.5618      1309.0344 
       60.2280       109.6070     13636.4951      7493.1240        27.3367 
       27.3367        73.6602        20.8372    0.000604360       0.283729 
     -999.2500     11991.1943      5348.4751     12212.5918      7563.2314 
      0.255356      1787.3927         2.5243         1.5633     11901.2490 
     3478.0959      5889.6475     16603.5723         1.8199      9123.5049 
        7.7593         5.2814
    3579.11400 
       41.8740        68.1783        39.8471        96.5095      1300.1627 
       60.7783       110.0318     13646.3242      7537.8247        26.6744 
       26.6744        72.5846        20.8806    0.000611592       0.280459 
     -999.2500     11991.7979      5348.4976     12215.0010      7527.7251 
      0.252413      1932.1610         2.5247         1.5559     12119.7715 
     3476.1169      5823.1895     16453.2402         1.8104      9088.2822 
        7.7557         5.2781
    3579.26640 
       41.6142        69.2388        42.1961        96.2815      1288.3499 
       61.5215       110.1672     13561.4854      7573.2427        25.2827 
       25.2827        69.2059        20.9529    0.000617353       0.273412 
     -999.2500     11992.4014      5348.5195     12219.4258      7451.8999 
      0.246070      1983.6025         2.5255         1.5401     12071.0039 
     3467.4839      5735.3223     16254.4805         1.7907      9077.1123 
        7.7397         5.2636
