~Version Information Block
VERS .                  2.0:  CWLS LOG ASCII STANDARD - VERSION 2.0
WRAP .                  YES:  Multiple lines per depth step
~Well Information Block
#MNEM.UNIT        Data Type   Information
#---------- ----------------  -----------
STRT .M          2888.43720:  START DEPTH
STOP .M          3831.03120:  STOP DEPTH
STEP .M             0.15240:  STEP
NULL .              -999.25:  NULL VALUE
COMP .                     :  COMPANY
WELL .       RAAG-99-02-105:  WELL
FLD  .                     :  FIELD
LOC  .                     :  LOCATION
CTRY .                     :  COUNTRY
STAT .                     :  STATE
CNTY .                     :  COUNTY
SRVC .                     :  SERVICE COMPANY
DATE .                     :  DATE
API  .                     :  API NUMBER
UWI  .                     :  UNIQUE WELL ID
~Curve Information Block
#MNEM.UNIT         API CODE   Curve Description
#---------- ----------------  -----------------
DEPTH.M                    :  
ANGLE_FAIL.DEG                  :  Fail Angle
BRIT_IND.                     :  Brittleness Index
BRIT_PR.                     :  Brittleness Index from Poisson's Ratio
BRIT_YM.                     :  Brittleness Index from Young's Modulus
CS   .M/MIN                 :  Compressive Strength
DTCO .US/F                 :  Compressional slowness
DTSM .US/F                 :  Fast Shear Slowness
IP   .RAYL/M2                 :  P Impedence
IS   .RAYL/M2                 :  S Impedance
KBULK.                     :  Bulk Mudulus
LAMBDA.                     :  Lambda
LAMRHO.                     :  
MU   .CP                   :  Mu
MURHO.(GF/C3S)2                 :  Mu*Rho
PR   .                     :  Poisson's ratio
PRESS_FG.PSI                  :  Fracture Gradient Pressure
PRESS_OB.PSI                  :  Over-burden Pressure
PRESS_PP.PSI                  :  Pore Pressure
PRESS_SHMAX.PSI                  :  Horizontal Stress (Max)
PRESS_SHMIN.PSI                  :  Horizontal Stress (Min)
PR_STAT.                     :  Poisson's ratio (Static)
PZS  .PSI                  :  Processed Zone Stress
SHMAX_GRAD.                     :  Horizontal Stress Gradient (Max)
SHMIN_GRAD.                     :  Horizontal Stress Gradient (Min)
STRESS_CUM.PSI                  :  Cumulative stress (SHPZ)
UCS_BF.PSI                  :  Uniaxial Compressive Strength (BF)
UCS_LAL.PSI                  :  Uniaxial Compressive Strength (lal)
VP   .FT/S                 :  Compressional velocity
VPVS .                     :  Vp / Vs ratio
VS   .FT/S                 :  Shear velocity
YM   .                     :  Youngs' Modulus
YM_STAT.                     :  Youngs' Modulus (Static)
~Parameter Information Block
#MNEM.UNIT            Value   Description
#---------- ----------------  -----------
PROJECT.          RDG_13Jul21:  
SET  .              GEOMECH:  
~Other Information Block
~Ascii Log Data
# ...
    3198.11400 
       45.0653        80.1561        28.3446       131.9676      1453.6893 
       52.1269       100.2980     16993.6250      8831.9316        45.6868 
       45.6868       132.7773        26.8397    0.000839617       0.314966 
     -999.2500      9978.7275      5161.1201     10126.8936      7015.4092 
      0.283469      2767.0620         2.4683         1.7100     12764.9424 
     4926.4590      7030.3691     19183.9531         1.9241      9970.2891 
       10.2377         7.7117
    3198.26640 
       45.1376        79.1867        27.4198       130.9536      1457.3619 
       51.9409       100.4938     16966.6328      8769.3184        46.3686 
       46.3686       134.0647        26.5975    0.000827755       0.317741 
     -999.2500      9979.3105      5161.2085     10126.2939      7039.6445 
      0.285967      2880.2742         2.4681         1.7158     13039.8379 
     4881.9961      7060.7388     19252.6504         1.9348      9950.8623 
       10.1668         7.6371
    3198.41880 
       45.0017        77.4886        27.5509       127.4263      1450.4620 
       52.2911       101.0915     16644.8555      8609.8018        45.1027 
       45.1027       128.7938        25.9593    0.000797915       0.317347 
     -999.2500      9979.8945      5161.2964     10127.0820      7036.1494 
      0.285613      2819.9868         2.4681         1.7148     12912.2725 
     4728.6914      7003.7388     19123.7129         1.9332      9892.0283 
        9.9198         7.3799
    3198.57120 
       44.6785        76.4211        28.4830       124.3592      1434.1924 
       53.1296       102.1438     16397.8242      8529.2480        43.1699 
       43.1699       123.3925        25.4515    0.000783054       0.314551 
     -999.2500      9980.4795      5161.3848     10128.9082      7011.9043 
      0.283096      2602.7634         2.4684         1.7088     12429.3350 
     4597.1235      6870.3145     18821.9004         1.9225      9790.1191 
        9.7051         7.1591
    3198.72360 
       44.3237        75.0203        28.9309       121.1096      1416.5354 
       54.0603       103.6600     16225.0684      8461.6250        41.7185 
       41.7185       120.0547        24.8804    0.000770686       0.313207 
     -999.2500      9981.0625      5161.4731     10130.1016      7000.2817 
      0.281886      2313.7449         2.4686         1.7059     11828.0537 
     4459.4790      6727.0659     18497.8633         1.9175      9646.9219 
        9.4777         6.9281
    3198.87600 
       44.0446        73.0304        28.0731       117.9877      1402.7975 
       54.7997       105.6108     16199.4297      8405.6172        41.5841 
       41.5841       121.1127        24.2592    0.000760518       0.315781 
     -999.2500      9981.6465      5161.5615     10129.6045      7022.4736 
      0.284203      2070.2339         2.4684         1.7112     11385.4150 
     4328.9482      6616.7290     18248.2754         1.9272      9468.7285 
        9.2591         6.7091
    3199.02840 
       43.8947        70.0163        26.5113       113.5214      1395.4694 
       55.1997       107.3913     16010.3691      8229.4150        41.6918 
       41.6918       120.8854        23.3569    0.000728967       0.320466 
     -999.2500      9982.2305      5161.6499     10128.1846      7063.1440 
      0.288420      1996.0410         2.4679         1.7210     11318.3701 
     4145.1035      6558.2720     18116.0410         1.9455      9311.7412 
        8.9465         6.4006
    3199.18080 
       43.8602        66.8801        24.2695       109.4907      1393.7921 
       55.2918       109.0998     15895.1133      8055.6470        42.6117 
       42.6117       122.8677        22.5056    0.000698507       0.327192 
     -999.2500      9982.8145      5161.7378     10125.8301      7122.4912 
      0.294472      2060.0857         2.4672         1.7354     11565.1543 
     3982.1208      6544.9316     18085.8633         1.9732      9165.9189 
        8.6643         6.1271
    3199.33320 
       43.9292        63.6576        22.1178       105.1973      1397.1558 
       55.1073       110.2924     15657.3994      7823.1777        43.3618 
       43.3618       122.7499        21.6198    0.000658774       0.333647 
     -999.2500      9983.3975      5161.8262     10123.5479      7180.4038 
      0.300282      2214.8464         2.4665         1.7494     11990.5010 
     3811.5735      6571.7002     18146.4160         2.0014      9066.8086 
        8.3638         5.8409
    3199.48560 
       44.0999        60.9806        19.5988       102.3624      1405.5106 
       54.6526       111.3182     15612.6582      7665.1646        45.0966 
       45.0966       126.2456        20.9880    0.000632431       0.341204 
     -999.2500      9983.9824      5161.9146     10120.7012      7249.6094 
      0.307083      2371.9517         2.4657         1.7662     12443.1221 
     3700.6926      6638.4424     18297.3906         2.0368      8983.2568 
        8.1654         5.6549
    3199.63800 
       44.4576        59.6213        16.5089       102.7336      1423.1724 
       53.7079       111.9379     16005.1504      7679.2852        49.0111 
       49.0111       138.2220        20.9102    0.000634763       0.350473 
     -999.2500      9984.5654      5162.0024     10116.9600      7336.6821 
      0.315426      2382.5464         2.4646         1.7873     12638.4570 
     3715.1304      6780.7212     18619.2344         2.0842      8933.5254 
        8.1913         5.6791
    3199.79040 
       45.0389        59.4540        12.7743       106.1337      1452.3472 
       52.1951       112.1251     16864.3809      7850.4990        55.8002 
       55.8002       161.1467        21.3407    0.000663383       0.361677 
     -999.2500      9985.1494      5162.0903     10112.1553      7445.0342 
      0.325509      1850.6064         2.4633         1.8136     11791.2813 
     3848.4995      7019.2881     19158.8867         2.1482      8918.6104 
        8.4294         5.9029
    3199.94280 
       45.5179        59.0257        10.1198       107.9316      1476.8356 
       50.9695       112.0813     17412.2227      7918.2905        61.0590 
       61.0590       177.7868        21.5334    0.000674890       0.369640 
     -999.2500      9985.7334      5162.1787     10108.8154      7524.0845 
      0.332676      1419.5371         2.4624         1.8328     11087.2432 
     3919.8230      7222.9473     19619.5762         2.1990      8922.0947 
        8.5552         6.0226
    3200.09520 
       45.6455        59.1258         9.8004       108.4511      1483.4288 
       50.6462       111.6970     17465.1777      7919.1460        61.8896 
       61.8896       179.6067        21.6099    0.000675036       0.370599 
     -999.2500      9986.3174      5162.2666     10108.9316      7534.0386 
      0.333539      1017.8005         2.4623         1.8351     10303.6777 
     3940.5371      7278.3140     19744.8184         2.2054      8952.7920 
        8.5916         6.0574
    3200.24760 
       45.1533        61.6861        14.0451       109.3271      1458.1619 
       51.9005       110.3148     16899.5586      7950.8418        55.3109 
       55.3109       159.1633        21.9682    0.000680450       0.357865 
     -999.2500      9986.9014      5162.3550     10115.7813      7409.3062 
      0.322078       696.9675         2.4638         1.8046      9412.5479 
     3975.5662      7067.3638     19267.6367         2.1255      9064.9668 
        8.6529         6.1161
    3200.40000 
       44.2334        67.2490        23.2085       111.2894      1412.0765 
       54.2988       107.8849     16018.9121      8062.3677        44.3642 
       44.3642       126.6020        22.7781    0.000699673       0.330375 
     -999.2500      9987.4854      5162.4434     10129.1826      7153.5303 
      0.297337       518.1100         2.4670         1.7422      8543.2803 
     4054.5093      6691.1475     18416.6133         1.9869      9269.1377 
        8.7903         6.2486
