~Version Information Block
VERS .                  2.0:  CWLS LOG ASCII STANDARD - VERSION 2.0
WRAP .                  YES:  Multiple lines per depth step
~Well Information Block
#MNEM.UNIT        Data Type   Information
#---------- ----------------  -----------
STRT .M          2656.78920:  START DEPTH
STOP .M          3640.98840:  STOP DEPTH
STEP .M             0.15240:  STEP
NULL .              -999.25:  NULL VALUE
COMP .                     :  COMPANY
WELL .       RAAG-98-07-214:  WELL
FLD  .                     :  FIELD
LOC  .                     :  LOCATION
CTRY .                     :  COUNTRY
STAT .                     :  STATE
CNTY .                     :  COUNTY
SRVC .                     :  SERVICE COMPANY
DATE .                     :  DATE
API  .                     :  API NUMBER
UWI  .                     :  UNIQUE WELL ID
~Curve Information Block
#MNEM.UNIT         API CODE   Curve Description
#---------- ----------------  -----------------
DEPTH.M                    :  
ANGLE_FAIL.DEG                  :  Fail Angle
BRIT_IND.                     :  Brittleness Index
BRIT_PR.                     :  Brittleness Index from Poisson's Ratio
BRIT_YM.                     :  Brittleness Index from Young's Modulus
CS   .M/MIN                 :  Compressive Strength
IP   .RAYL/M2                 :  P Impedence
IS   .RAYL/M2                 :  S Impedance
KBULK.                     :  Bulk Mudulus
LAMBDA.                     :  Lambda
LAMRHO.                     :  
MU   .CP                   :  Mu
MURHO.(GF/C3S)2                 :  Mu*Rho
PR   .                     :  Poisson's ratio
PRESS_FG.PSI                  :  Fracture Gradient Pressure
PRESS_OB.PSI                  :  Over-burden Pressure
PRESS_PP.PSI                  :  Pore Pressure
PRESS_SHMAX.PSI                  :  Horizontal Stress (Max)
PRESS_SHMIN.PSI                  :  Horizontal Stress (Min)
PR_STAT.                     :  Poisson's ratio (Static)
PZS  .PSI                  :  Processed Zone Stress
SHMAX_GRAD.                     :  Horizontal Stress Gradient (Max)
SHMIN_GRAD.                     :  Horizontal Stress Gradient (Min)
STRESS_CUM.PSI                  :  Cumulative stress (SHPZ)
UCS_BF.PSI                  :  Uniaxial Compressive Strength (BF)
UCS_LAL.PSI                  :  Uniaxial Compressive Strength (lal)
VP   .FT/S                 :  Compressional velocity
VPVS .                     :  Vp / Vs ratio
VS   .FT/S                 :  Shear velocity
YM   .                     :  Youngs' Modulus
YM_STAT.                     :  Youngs' Modulus (Static)
~Parameter Information Block
#MNEM.UNIT            Value   Description
#---------- ----------------  -----------
PROJECT.          RDG_13Jul21:  
SET  .              GEOMECH:  
~Other Information Block
~Ascii Log Data
# ...
    3630.93000 
       41.8094        78.6689        54.3694       102.9683      1297.2153 
    13270.3828      7792.1553        20.5967        20.5967        54.6677 
       22.8762    0.000653560       0.236892      -999.2500     12416.4463 
     5359.2456     12677.2354      7200.6689       0.213203      2375.3237 
        2.5404         1.4429     12351.9854      3724.2742      5801.1992 
    16403.4980         1.7030      9631.8701         8.2078         5.6945
    3631.08240 
       41.8883        77.0360        51.8469       102.2253      1300.8146 
    13311.1035      7741.3213        21.6133        21.6133        57.3294 
       22.5930    0.000645060       0.244459      -999.2500     12417.0439 
     5359.2544     12673.8779      7280.3569       0.220013      1948.3138 
        2.5396         1.4588     11657.3418      3695.3613      5828.0586 
    16464.2539         1.7195      9575.0957         8.1558         5.6459
    3631.23480 
       42.0942        75.5561        48.5559       102.5562      1310.2483 
    13465.2559      7728.8691        23.2716        23.2716        61.8423 
       22.4788    0.000642987       0.254332      -999.2500     12417.6406 
     5359.2627     12669.1973      7386.5049       0.228899      1893.0688 
        2.5385         1.4800     11759.1475      3708.2290      5898.7725 
    16624.2148         1.7422      9542.0664         8.1789         5.6675
    3631.38720 
       42.5142        74.7395        44.9354       104.5437      1329.6871 
    13723.0762      7757.4653        25.5981        25.5981        67.9663 
       22.6649    0.000647754       0.265194      -999.2500     12418.2373 
     5359.2710     12663.8359      7506.2788       0.238674      1818.1344 
        2.5374         1.5040     11848.8262      3785.8857      6045.9185 
    16957.0684         1.7690      9585.5957         8.3181         5.7978
    3631.53960 
       42.4401        77.2160        48.1682       106.2639      1326.2393 
    13698.5762      7850.2813        24.2122        24.2122        64.3972 
       23.1706    0.000663347       0.255495      -999.2500     12418.8359 
     5359.2798     12669.7861      7399.8325       0.229946      1808.8795 
        2.5384         1.4826     11617.4238      3853.6472      6019.6782 
    16897.7090         1.7450      9683.6172         8.4385         5.9115
    3631.69200 
       42.8350        76.6005        44.8320       108.3689      1344.7117 
    13959.8438      7887.7578        26.4815        26.4815        70.4438 
       23.3888    0.000669695       0.265504      -999.2500     12419.4326 
     5359.2881     12664.8818      7510.4546       0.238954      1848.1080 
        2.5373         1.5047     11917.1260      3937.2551      6160.9775 
    17217.3359         1.7698      9728.3467         8.5858         6.0518
    3631.84440 
       43.1904        73.8770        39.5082       108.2458      1361.5378 
    14214.0215      7838.7388        29.7211        29.7211        79.1467 
       23.0741    0.000661397       0.281476      -999.2500     12420.0303 
     5359.2959     12656.4258      7692.1084       0.253328      1682.6224 
        2.5355         1.5410     11949.4619      3932.3433      6291.2109 
    17511.9336         1.8133      9657.4688         8.5772         6.0436
    3631.99680 
       43.0069        71.7611        38.3671       105.1552      1352.8251 
    14094.7383      7730.2700        29.7111        29.7111        79.1475 
       22.4322    0.000643220       0.284899      -999.2500     12420.6289 
     5359.3042     12655.0674      7731.8521       0.256409      1653.1973 
        2.5352         1.5489     11970.0986      3809.9177      6223.5933 
    17358.9785         1.8233      9520.5449         8.3609         5.8382
    3632.14920 
       42.5220        71.0948        40.7989       101.3906      1330.0531 
    13726.3721      7616.0913        27.2729        27.2729        72.4036 
       21.8492    0.000624359       0.277603      -999.2500     12421.2256 
     5359.3125     12659.9229      7647.2773       0.249843      1671.3051 
        2.5360         1.5319     11837.1650      3662.9988      6048.7075 
    16963.3770         1.8023      9412.1455         8.0973         5.5916
    3632.30160 
       42.2186        68.5341        40.4732        96.5950      1315.9794 
    13377.8613      7411.4077        26.3299        26.3299        69.1092 
       20.9274    0.000591250       0.278580      -999.2500     12421.8242 
     5359.3203     12660.0000      7658.2988       0.250722      1766.7261 
        2.5359         1.5340     12050.0498      3479.3540      5941.9541 
    16721.8926         1.8050      9264.0195         7.7617         5.2835
    3632.45400 
       41.6788      -999.2500        31.4849      -999.2500      1291.2782 
     -999.2500      -999.2500      -999.2500      -999.2500      -999.2500 
     -999.2500 -999.250000000       0.305545      -999.2500     12422.4209 
     5359.3286      -999.2500      -999.2500       0.274991      1917.6920 
     -999.2500      -999.2500      -999.2500      -999.2500      5757.0381 
    16303.6016         1.8898      8627.2188      -999.2500      -999.2500
    3632.60640 
       40.9470      -999.2500        33.0383      -999.2500      1258.4404 
     -999.2500      -999.2500      -999.2500      -999.2500      -999.2500 
     -999.2500 -999.250000000       0.300885      -999.2500     12423.0186 
     5359.3364      -999.2500      -999.2500       0.270797      1941.3134 
     -999.2500      -999.2500      -999.2500      -999.2500      5516.0288 
    15758.4248         1.8738      8409.8916      -999.2500      -999.2500
    3632.75880 
       40.6527      -999.2500        34.5605      -999.2500      1245.4380 
     -999.2500      -999.2500      -999.2500      -999.2500      -999.2500 
     -999.2500 -999.250000000       0.296318      -999.2500     12423.6152 
     5359.3452      -999.2500      -999.2500       0.266687      2121.3633 
     -999.2500      -999.2500      -999.2500      -999.2500      5422.1147 
    15545.9863         1.8587      8363.8467      -999.2500      -999.2500
    3632.91120 
       40.8536      -999.2500        33.8870      -999.2500      1254.3003 
     -999.2500      -999.2500      -999.2500      -999.2500      -999.2500 
     -999.2500 -999.250000000       0.298339      -999.2500     12424.2129 
     5359.3530      -999.2500      -999.2500       0.268505      2105.7529 
     -999.2500      -999.2500      -999.2500      -999.2500      5486.0327 
    15690.5723         1.8653      8411.7451      -999.2500      -999.2500
    3633.06360 
       41.4221      -999.2500        31.5628      -999.2500      1279.6744 
     -999.2500      -999.2500      -999.2500      -999.2500      -999.2500 
     -999.2500 -999.250000000       0.305312      -999.2500     12424.8105 
     5359.3613      -999.2500      -999.2500       0.274781      1973.2546 
     -999.2500      -999.2500      -999.2500      -999.2500      5671.2456 
    16109.5342         1.8890      8528.2100      -999.2500      -999.2500
    3633.21600 
       41.9709      -999.2500        31.7576      -999.2500      1304.5940 
     -999.2500      -999.2500      -999.2500      -999.2500      -999.2500 
     -999.2500 -999.250000000       0.304727      -999.2500     12425.4082 
     5359.3691      -999.2500      -999.2500       0.274254      1870.8953 
     -999.2500      -999.2500      -999.2500      -999.2500      5856.3335 
    16528.2148         1.8869      8759.2979      -999.2500      -999.2500
    3633.36840 
       42.3592      -999.2500        36.9034      -999.2500      1322.4822 
     -999.2500      -999.2500      -999.2500      -999.2500      -999.2500 
     -999.2500 -999.250000000       0.289290      -999.2500     12426.0049 
     5359.3770      -999.2500      -999.2500       0.260361      1966.5891 
     -999.2500      -999.2500      -999.2500      -999.2500      5991.1538 
    16833.1875         1.8366      9165.6426      -999.2500      -999.2500
