~Version Information Block
VERS .                  2.0:  CWLS LOG ASCII STANDARD - VERSION 2.0
WRAP .                  YES:  Multiple lines per depth step
~Well Information Block
#MNEM.UNIT        Data Type   Information
#---------- ----------------  -----------
STRT .M          2945.58720:  START DEPTH
STOP .M          3894.88680:  STOP DEPTH
STEP .M             0.15240:  STEP
NULL .              -999.25:  NULL VALUE
COMP .                     :  COMPANY
WELL .       RAAG-97-02-106:  WELL
FLD  .                     :  FIELD
LOC  .                     :  LOCATION
CTRY .                     :  COUNTRY
STAT .                     :  STATE
CNTY .                     :  COUNTY
SRVC .                     :  SERVICE COMPANY
DATE .                     :  DATE
API  .                     :  API NUMBER
UWI  .                     :  UNIQUE WELL ID
~Curve Information Block
#MNEM.UNIT         API CODE   Curve Description
#---------- ----------------  -----------------
DEPTH.M                    :  
ANGLE_FAIL.DEG                  :  Fail Angle
BRIT_IND.                     :  Brittleness Index
BRIT_PR.                     :  Brittleness Index from Poisson's Ratio
BRIT_YM.                     :  Brittleness Index from Young's Modulus
CS   .M/MIN                 :  Compressive Strength
DEN  .G/C3                 :  (HDRS-H)                (2in)                   Standard Resolution Formation Density
DTCO .US/F                 :  Compressional slowness
DTSM .US/F                 :  Description
IP   .RAYL/M2                 :  P Impedence
IS   .RAYL/M2                 :  S Impedance
KBULK.                     :  Bulk Mudulus
LAMBDA.                     :  Lambda
LAMRHO.                     :  
MU   .CP                   :  Mu
MURHO.(GF/C3S)2                 :  Mu*Rho
PR   .                     :  Poisson's ratio
PRESS_FG.PSI                  :  Fracture Gradient Pressure
PRESS_OB.PSI                  :  Over-burden Pressure
PRESS_PP.PSI                  :  Pore Pressure
PRESS_SHMAX.PSI                  :  Horizontal Stress (Max)
PRESS_SHMIN.PSI                  :  Horizontal Stress (Min)
PR_STAT.                     :  Poisson's ratio (Static)
PZS  .PSI                  :  Processed Zone Stress
SHMAX_GRAD.                     :  Horizontal Stress Gradient (Max)
SHMIN_GRAD.                     :  Horizontal Stress Gradient (Min)
STRESS_CUM.PSI                  :  Cumulative stress (SHPZ)
UCS_BF.PSI                  :  Uniaxial Compressive Strength (BF)
UCS_LAL.PSI                  :  Uniaxial Compressive Strength (lal)
VP   .FT/S                 :  Compressional velocity
VPVS .                     :  Vp / Vs ratio
VS   .FT/S                 :  Shear velocity
YM   .                     :  Youngs' Modulus
YM_STAT.                     :  Youngs' Modulus (Static)
~Parameter Information Block
#MNEM.UNIT            Value   Description
#---------- ----------------  -----------
PROJECT.          RDG_13Jul21:  
SET  .              GEOMECH:  
~Other Information Block
~Ascii Log Data
# ...
    3516.17280 
       39.4476        51.6142        34.9345        68.2940      1193.3740 
        2.6322        67.9591       126.0703     11805.5977      6363.8882 
       22.1768        22.1768        58.3740        15.3860         0.0004 
      0.295197      -999.2500     11035.7793      5288.2520     11222.3135 
     7305.1006       0.265677      3369.5981         2.4983         1.6262 
    14549.3975      2475.7314      5054.6416     14714.7402         1.8551 
     7932.0815         5.7806         3.5994
    3516.32520 
       39.5983        51.7741        34.7711        68.7771      1199.7860 
        2.6152        67.4971       125.3199     11809.5527      6360.6099 
       22.3887        22.3887        58.5508        15.4701         0.0004 
      0.295687      -999.2500     11036.3730      5288.3057     11222.6826 
     7310.1807       0.266118      2879.8772         2.4982         1.6273 
    13580.1152      2491.7134      5099.1592     14815.4414         1.8567 
     7979.5776         5.8144         3.6262
    3516.47760 
       39.6561        51.8906        34.9164        68.8648      1202.2521 
        2.6012        67.3206       124.8976     11777.2324      6348.0029 
       22.3391        22.3391        58.1089        15.4917         0.0004 
      0.295251      -999.2500     11036.9688      5288.3584     11223.5088 
     7306.1699       0.265726      2811.3831         2.4983         1.6263 
    13435.1055      2494.6187      5116.3359     14854.2959         1.8553 
     8006.5596         5.8205         3.6311
    3516.63000 
       39.7458        51.9512        34.5568        69.3456      1206.0880 
        2.6026        67.0472       124.6238     11831.7051      6365.4150 
       22.6510        22.6510        58.9522        15.5683         0.0004 
      0.296329      -999.2500     11037.5625      5288.4121     11223.5898 
     7317.0186       0.266697      3500.8423         2.4982         1.6286 
    14835.7227      2510.5725      5143.1152     14914.8730         1.8587 
     8024.1479         5.8542         3.6579
    3516.78240 
       39.8916        51.8832        33.6860        70.0804      1212.3427 
        2.6096        66.6045       124.3712     11942.2695      6395.4404 
       23.3041        23.3041        60.8145        15.6735         0.0004 
      0.298942      -999.2500     11038.1572      5288.4648     11222.9131 
     7343.0269       0.269048      3746.4229         2.4979         1.6344 
    15378.8994      2535.0308      5186.9390     15014.0049         1.8673 
     8040.4453         5.9056         3.6989
    3516.93480 
       40.0223        52.2518        33.2409        71.2628      1217.9717 
        2.6246        66.2094       123.9278     12082.7783      6455.3149 
       23.8704        23.8704        62.6513        15.8768         0.0004 
      0.300277      -999.2500     11038.7510      5288.5186     11222.8604 
     7356.5713       0.270250      3746.4226         2.4978         1.6373 
    15405.9873      2574.5784      5226.5479     15103.6016         1.8718 
     8069.2129         5.9884         3.7653
    3517.08720 
       40.2170        52.7722        32.7467        72.7977      1226.4022 
        2.6357        65.6234       123.1588     12241.8906      6522.9175 
       24.5732        24.5732        64.7670        16.1433         0.0005 
      0.301760      -999.2500     11039.3457      5288.5713     11222.7305 
     7371.6528       0.271584      3716.7422         2.4976         1.6406 
    15376.7900      2626.2734      5286.1694     15238.4697         1.8768 
     8119.6016         6.0958         3.8520
    3517.23960 
       40.4416        53.3541        32.2719        74.4362      1236.1842 
        2.6414        64.9520       122.2143     12395.0537      6587.4805 
       25.3081        25.3081        66.8476        16.4290         0.0005 
      0.303184      -999.2500     11039.9404      5288.6250     11222.6260 
     7386.2212       0.272866      3531.0750         2.4975         1.6437 
    15034.5928      2681.9058      5355.7988     15395.9756         1.8816 
     8182.3506         6.2105         3.9454
    3517.39200 
       40.5160        54.0044        32.6606        75.3482      1239.4409 
        2.6415        64.7305       121.5398     12438.1396      6624.3931 
       25.3425        25.3425        66.9421        16.6128         0.0005 
      0.302018      -999.2500     11040.5342      5288.6777     11223.8145 
     7374.9292       0.271816      3334.1326         2.4976         1.6411 
    14618.1230      2713.0674      5379.0884     15448.6563         1.8776 
     8227.7559         6.2744         3.9976
    3517.54440 
       40.4586        54.5607        33.5342        75.5871      1236.9288 
        2.6429        64.9013       121.2889     12412.1553      6641.7061 
       24.9106        24.9106        65.8371        16.6907         0.0005 
      0.299397      -999.2500     11041.1299      5288.7314     11225.7256 
     7349.2109       0.269458      3627.4451         2.4979         1.6353 
    15153.3125      2721.2551      5361.1191     15408.0098         1.8688 
     8244.7783         6.2911         4.0114
    3517.69680 
       40.3422        55.1324        34.5980        75.6668      1231.8452 
        2.6503        65.2487       121.2548     12380.4785      6662.0884 
       24.3405        24.3405        64.5094        16.7466         0.0005 
      0.296206      -999.2500     11041.7236      5288.7847     11227.9082 
     7318.0405       0.266585      3746.4221         2.4983         1.6283 
    15328.9258      2723.9875      5324.8535     15325.9756         1.8583 
     8247.0967         6.2967         4.0160
    3517.84920 
       40.2188        55.7589        35.6574        75.8604      1226.4778 
        2.6634        65.6182       121.2744     12371.6016      6693.9233 
       23.8190        23.8190        63.4393        16.8239         0.0005 
      0.293028      -999.2500     11042.3184      5288.8374     11230.0713 
     7287.2471       0.263725      3353.8066         2.4987         1.6214 
    14482.1084      2730.6331      5286.7061     15239.6826         1.8482 
     8245.7617         6.3102         4.0271
    3518.00160 
       40.1391        56.4239        36.3780        76.4697      1223.0227 
        2.6857        65.8575       121.2710     12430.0322      6750.2593 
       23.5965        23.5965        63.3737        16.9660         0.0005 
      0.290866      -999.2500     11042.9131      5288.8906     11231.7314 
     7266.5513       0.261779      2897.7603         2.4989         1.6167 
    13528.6230      2751.5850      5262.2266     15184.3086         1.8414 
     8245.9980         6.3529         4.0623
    3518.15400 
       40.1478        56.6608        36.3374        76.9843      1223.3988 
        2.6997        65.8314       121.2478     12499.5166      6786.5972 
       23.7518        23.7518        64.1221        17.0606         0.0005 
      0.290988      -999.2500     11043.5078      5288.9434     11232.2822 
     7268.0171       0.261889      2638.6855         2.4989         1.6170 
    13013.4053      2769.3298      5264.8877     15190.3291         1.8418 
     8247.5713         6.3889         4.0921
    3518.30640 
       40.2481        56.4464        35.4673        77.4256      1227.7513 
        2.7065        65.5303       121.2303     12588.5596      6804.6665 
       24.3361        24.3361        65.8649        17.1085         0.0005 
      0.293598      -999.2500     11044.1016      5288.9971     11231.6240 
     7293.6680       0.264238      2519.8850         2.4986         1.6226 
    12827.1055      2784.5850      5295.7441     15260.1279         1.8500 
     8248.7656         6.4198         4.1177
    3518.45880 
       40.3523        56.2025        34.7425        77.6625      1232.2881 
        2.7034        65.2183       121.1070     12634.4238      6803.8701 
       24.7997        24.7997        67.0434        17.1239         0.0005 
      0.295773      -999.2500     11044.6973      5289.0498     11231.1719 
     7315.1934       0.266195      2499.1172         2.4984         1.6273 
    12828.6211      2792.7871      5328.0078     15333.1113         1.8569 
     8257.1631         6.4364         4.1314
