~Version Information Block
VERS .                  2.0:  CWLS LOG ASCII STANDARD - VERSION 2.0
WRAP .                  YES:  Multiple lines per depth step
~Well Information Block
#MNEM.UNIT        Data Type   Information
#---------- ----------------  -----------
STRT .M          2776.00000:  START DEPTH
STOP .M          3750.44560:  STOP DEPTH
STEP .M             0.15240:  STEP
NULL .              -999.25:  NULL VALUE
COMP .                     :  COMPANY
WELL .      RAAG-102-07-105:  WELL
FLD  .                     :  FIELD
LOC  .                     :  LOCATION
CTRY .                     :  COUNTRY
STAT .                     :  STATE
CNTY .                     :  COUNTY
SRVC .                     :  SERVICE COMPANY
DATE .                     :  DATE
API  .                     :  API NUMBER
UWI  .                     :  UNIQUE WELL ID
~Curve Information Block
#MNEM.UNIT         API CODE   Curve Description
#---------- ----------------  -----------------
DEPTH.M                    :  
ANGLE_FAIL.DEG                  :  Fail Angle
BRIT_IND.                     :  Brittleness Index
BRIT_PR.                     :  Brittleness Index from Poisson's Ratio
BRIT_YM.                     :  Brittleness Index from Young's Modulus
CS   .M/MIN                 :  Compressive Strength
DTCO .US/F                 :  Compressional slowness
DTSM .US/F                 :  Fast Shear Slowness
IP   .RAYL/M2                 :  P Impedence
IS   .RAYL/M2                 :  S Impedance
KBULK.                     :  Bulk Mudulus
LAMBDA.                     :  Lambda
LAMRHO.                     :  
MU   .CP                   :  Mu
MURHO.(GF/C3S)2                 :  Mu*Rho
PR   .                     :  Poisson's ratio
PRESS_FG.PSI                  :  Fracture Gradient Pressure
PRESS_OB.PSI                  :  Over-burden Pressure
PRESS_PP.PSI                  :  Pore Pressure
PRESS_SHMAX.PSI                  :  Horizontal Stress (Max)
PRESS_SHMIN.PSI                  :  Horizontal Stress (Min)
PR_STAT.                     :  Poisson's ratio (Static)
PZS  .PSI                  :  Processed Zone Stress
SHMAX_GRAD.                     :  Horizontal Stress Gradient (Max)
SHMIN_GRAD.                     :  Horizontal Stress Gradient (Min)
STRESS_CUM.PSI                  :  Cumulative stress (SHPZ)
UCS_BF.PSI                  :  Uniaxial Compressive Strength (BF)
UCS_LAL.PSI                  :  Uniaxial Compressive Strength (lal)
VP   .FT/S                 :  Compressional velocity
VPVS .                     :  Vp / Vs ratio
VS   .FT/S                 :  Shear velocity
YM   .                     :  Youngs' Modulus
YM_STAT.                     :  Youngs' Modulus (Static)
~Parameter Information Block
#MNEM.UNIT            Value   Description
#---------- ----------------  -----------
PROJECT.          RDG_13Jul21:  
SET  .              GEOMECH:  
~Other Information Block
~Ascii Log Data
# ...
    3685.52320 
       42.9397        69.9693        39.8372       100.1014      1349.6469 
       57.7921       104.6306     13397.4590      7400.0078        27.5452 
       27.5452        69.9717        21.5570    0.000589433       0.280489 
     -999.2500     12209.2393      5355.2090     12439.3945      7606.1416 
      0.252440      -999.2500         2.5303         1.5471      -999.2500 
     3613.2405      6199.0254     17303.4023         1.8105      9557.4336 
        8.0071         5.5081
    3685.67560 
       42.9239        70.7008        40.3566       101.0450      1348.9016 
       57.8356       104.4526     13468.3291      7457.4390        27.4569 
       27.4569        70.1691        21.7613    0.000598618       0.278930 
     -999.2500     12209.8447      5355.2236     12440.8877      7588.9854 
      0.251037      -999.2500         2.5305         1.5436      -999.2500 
     3649.6328      6193.2715     17290.3887         1.8060      9573.7207 
        8.0732         5.5692
    3685.82800 
       42.8619        70.8502        40.8368       100.8636      1345.9794 
       58.0066       104.5260     13441.4902      7459.3413        27.1261 
       27.1261        69.3901        21.7516    0.000598923       0.277490 
     -999.2500     12210.4512      5355.2383     12442.3184      7573.1050 
      0.249741      -999.2500         2.5306         1.5403      -999.2500 
     3642.6238      6170.7388     17239.4180         1.8020      9566.9971 
        8.0605         5.5575
    3685.98040 
       42.7631        71.7060        42.2909       101.1211      1341.3309 
       58.2800       104.3176     13400.6992      7486.6826        26.3348 
       26.3348        67.4779        21.8749    0.000603322       0.273127 
     -999.2500     12211.0576      5355.2539     12445.3613      7524.9873 
      0.245815      -999.2500         2.5311         1.5304      -999.2500 
     3652.5730      6134.9873     17158.5469         1.7899      9586.1104 
        8.0785         5.5741
    3686.13280 
       42.7895        72.2658        42.8661       101.6654      1342.5692 
       58.2070       103.9161     13395.3750      7503.2124        26.1288 
       26.1288        66.8397        22.0079    0.000605989       0.271402 
     -999.2500     12211.6631      5355.2686     12446.9336      7506.2529 
      0.244262      -999.2500         2.5313         1.5266      -999.2500 
     3673.6409      6144.5000     17180.0645         1.7853      9623.1484 
        8.1166         5.6095
    3686.28520 
       42.9980        71.5659        40.7497       102.3821      1352.4031 
       57.6316       103.8925     13538.9453      7510.3691        27.5364 
       27.5364        70.4917        22.0339    0.000607145       0.277751 
     -999.2500     12212.2695      5355.2837     12444.0430      7576.7842 
      0.249976      -999.2500         2.5306         1.5408      -999.2500 
     3701.4573      6220.3281     17351.5918         1.8027      9625.3340 
        8.1667         5.6562
    3686.43760 
       43.4111        70.9202        37.2219       104.6185      1372.0847 
       56.5027       103.6053     13881.4746      7570.4697        30.3390 
       30.3390        78.0713        22.2718    0.000616901       0.288334 
     -999.2500     12212.8760      5355.2993     12438.6826      7696.7363 
      0.259501      -999.2500         2.5294         1.5652      -999.2500 
     3788.8228      6373.5854     17698.2695         1.8336      9652.0156 
        8.3233         5.8028
    3686.59000 
       43.8585        71.3071        34.5382       108.0759      1393.7085 
       55.2964       102.7921     14279.2715      7681.4492        33.1548 
       33.1548        85.8883        22.7771    0.000635121       0.296385 
     -999.2500     12213.4814      5355.3140     12434.6406      7790.2988 
      0.266747      -999.2500         2.5285         1.5841      -999.2500 
     3925.5737      6544.2671     18084.3613         1.8589      9728.3740 
        8.5653         6.0322
    3686.74240 
       43.9658        71.0367        33.6624       108.4109      1398.9395 
       55.0098       102.7332     14347.3965      7682.4961        33.9100 
       33.9100        87.8063        22.7933    0.000635294       0.299013 
     -999.2500     12214.0879      5355.3291     12433.7256      7821.3213 
      0.269111      -999.2500         2.5282         1.5903      -999.2500 
     3938.9326      6585.9185     18178.5801         1.8675      9733.9512 
        8.5888         6.0547
    3686.89480 
       43.5568        69.6640        35.3468       103.9812      1379.0929 
       56.1079       103.8634     13912.8379      7515.8340        31.4677 
       31.4677        80.5915        22.0561    0.000608029       0.293960 
     -999.2500     12214.6934      5355.3438     12437.3203      7762.1616 
      0.264564      -999.2500         2.5288         1.5782      -999.2500 
     3763.8379      6428.6387     17822.8027         1.8511      9628.0303 
        8.2787         5.7608
    3687.04720 
       43.1503        69.3933        38.0733       100.7133      1359.6316 
       57.2135       104.4683     13507.3535      7397.4878        28.7930 
       28.7930        73.0029        21.5831    0.000589032       0.285780 
     -999.2500     12215.2998      5355.3589     12442.6582      7668.1382 
      0.257202      -999.2500         2.5298         1.5591      -999.2500 
     3636.8230      6276.3833     17478.3926         1.8259      9572.2822 
        8.0499         5.5477
    3687.19960 
       43.0064        69.1786        38.8945        99.4628      1352.8024 
       57.6084       104.7699     13371.2275      7352.2549        27.9669 
       27.9669        70.6784        21.3894    0.000581850       0.283316 
     -999.2500     12215.9063      5355.3735     12444.6855      7640.3101 
      0.254985      -999.2500         2.5301         1.5533      -999.2500 
     3588.6995      6223.4175     17358.5801         1.8187      9544.7266 
        7.9624         5.4670
    3687.35200 
       42.9179        69.1928        39.3108        99.0749      1348.6191 
       57.8521       105.0026     13341.4873      7350.6089        27.6166 
       27.6166        69.9324        21.3372    0.000581590       0.282068 
     -999.2500     12216.5117      5355.3887     12446.0176      7626.3945 
      0.253861      -999.2500         2.5303         1.5504      -999.2500 
     3573.8264      6191.0918     17285.4570         1.8150      9523.5732 
        7.9352         5.4420
    3687.50440 
       42.9799        68.9813        38.6280        99.3346      1351.5468 
       57.6814       105.0381     13399.2910      7358.1860        28.1005 
       28.1005        71.2552        21.3520    0.000582789       0.284116 
     -999.2500     12217.1182      5355.4033     12445.4854      7649.7837 
      0.255704      -999.2500         2.5300         1.5551      -999.2500 
     3583.7822      6213.7056     17336.6113         1.8210      9520.3555 
        7.9534         5.4587
    3687.65680 
       43.0812        68.6549        37.6829        99.6270      1356.3448 
       57.4031       105.0160     13463.4932      7359.3188        28.7691 
       28.7691        72.9465        21.3598    0.000582969       0.286951 
     -999.2500     12217.7246      5355.4185     12444.4971      7682.2656 
      0.258256      -999.2500         2.5297         1.5617      -999.2500 
     3595.0027      6250.8623     17420.6621         1.8294      9522.3584 
        7.9739         5.4775
    3687.80920 
       43.0666        68.8419        38.0011        99.6826      1355.6533 
       57.4431       104.9247     13447.2705      7361.9741        28.5806 
       28.5806        72.4318        21.3861    0.000583390       0.285997 
     -999.2500     12218.3301      5355.4331     12445.6660      7671.6108 
      0.257397      -999.2500         2.5299         1.5594      -999.2500 
     3597.1406      6245.4995     17408.5313         1.8266      9530.6445 
        7.9778         5.4811
