~Version Information Block
VERS .                  2.0:  CWLS LOG ASCII STANDARD - VERSION 2.0
WRAP .                  YES:  Multiple lines per depth step
~Well Information Block
#MNEM.UNIT        Data Type   Information
#---------- ----------------  -----------
STRT .M          2945.58720:  START DEPTH
STOP .M          3894.88680:  STOP DEPTH
STEP .M             0.15240:  STEP
NULL .              -999.25:  NULL VALUE
COMP .                     :  COMPANY
WELL .       RAAG-97-02-106:  WELL
FLD  .                     :  FIELD
LOC  .                     :  LOCATION
CTRY .                     :  COUNTRY
STAT .                     :  STATE
CNTY .                     :  COUNTY
SRVC .                     :  SERVICE COMPANY
DATE .                     :  DATE
API  .                     :  API NUMBER
UWI  .                     :  UNIQUE WELL ID
~Curve Information Block
#MNEM.UNIT         API CODE   Curve Description
#---------- ----------------  -----------------
DEPTH.M                    :  
ANGLE_FAIL.DEG                  :  Fail Angle
BRIT_IND.                     :  Brittleness Index
BRIT_PR.                     :  Brittleness Index from Poisson's Ratio
BRIT_YM.                     :  Brittleness Index from Young's Modulus
CS   .M/MIN                 :  Compressive Strength
DEN  .G/C3                 :  (HDRS-H)                (2in)                   Standard Resolution Formation Density
DTCO .US/F                 :  Compressional slowness
DTSM .US/F                 :  Description
IP   .RAYL/M2                 :  P Impedence
IS   .RAYL/M2                 :  S Impedance
KBULK.                     :  Bulk Mudulus
LAMBDA.                     :  Lambda
LAMRHO.                     :  
MU   .CP                   :  Mu
MURHO.(GF/C3S)2                 :  Mu*Rho
PR   .                     :  Poisson's ratio
PRESS_FG.PSI                  :  Fracture Gradient Pressure
PRESS_OB.PSI                  :  Over-burden Pressure
PRESS_PP.PSI                  :  Pore Pressure
PRESS_SHMAX.PSI                  :  Horizontal Stress (Max)
PRESS_SHMIN.PSI                  :  Horizontal Stress (Min)
PR_STAT.                     :  Poisson's ratio (Static)
PZS  .PSI                  :  Processed Zone Stress
SHMAX_GRAD.                     :  Horizontal Stress Gradient (Max)
SHMIN_GRAD.                     :  Horizontal Stress Gradient (Min)
STRESS_CUM.PSI                  :  Cumulative stress (SHPZ)
UCS_BF.PSI                  :  Uniaxial Compressive Strength (BF)
UCS_LAL.PSI                  :  Uniaxial Compressive Strength (lal)
VP   .FT/S                 :  Compressional velocity
VPVS .                     :  Vp / Vs ratio
VS   .FT/S                 :  Shear velocity
YM   .                     :  Youngs' Modulus
YM_STAT.                     :  Youngs' Modulus (Static)
~Parameter Information Block
#MNEM.UNIT            Value   Description
#---------- ----------------  -----------
PROJECT.          RDG_13Jul21:  
SET  .              GEOMECH:  
~Other Information Block
~Ascii Log Data
# ...
    3750.25920 
       43.1375        72.6225        42.1310       103.1139      1359.0229 
        2.5178        57.2485       102.5460     13405.2979      7483.7998 
       26.8833        26.8833        67.6875        22.2443         0.0006 
      0.273607      -999.2500     11955.8359      5347.1416     12181.5410 
     7441.7197       0.246246      1304.8873         2.5245         1.5422 
    10693.2139      3729.9502      6271.6533     17467.6934         1.7912 
     9751.7197         8.2180         5.7040
    3750.41160 
       43.2050        72.0421        41.2983       102.7859      1362.2317 
        2.5089        57.0641       102.6074     13400.8232      7452.7383 
       27.3012        27.3012        68.4954        22.1387         0.0006 
      0.276105      -999.2500     11956.4404      5347.1650     12180.8330 
     7468.5835       0.248495      1330.5944         2.5242         1.5477 
    10798.3555      3717.1672      6296.6128     17524.1504         1.7981 
     9745.8877         8.1950         5.6825
    3750.56400 
       43.1235        71.7105        41.7976       101.6234      1358.3562 
        2.4948        57.2870       102.7715     13274.0244      7399.2202 
       26.7363        26.7363        66.7028        21.9446         0.0006 
      0.274607      -999.2500     11957.0430      5347.1890     12182.2617 
     7452.6816       0.247147      1335.0425         2.5244         1.5444 
    10775.4482      3672.0125      6266.4731     17455.9746         1.7940 
     9730.3271         8.1136         5.6068
    3750.71640 
       43.0905        71.5297        41.9246       101.1347      1356.7883 
        2.4900        57.3775       102.8739     13227.4932      7377.5762 
       26.5496        26.5496        66.1093        21.8587         0.0006 
      0.274226      -999.2500     11957.6465      5347.2119     12183.0898 
     7448.7856       0.246804      1289.0605         2.5245         1.5435 
    10675.6934      3653.0999      6254.3022     17428.4434         1.7929 
     9720.6367         8.0794         5.5750
    3750.86880 
       43.2360        70.9795        40.4736       101.4855      1363.7102 
        2.4879        56.9794       102.8497     13308.6201      7373.0620 
       27.4910        27.4910        68.3953        21.8504         0.0006 
      0.278579      -999.2500     11958.2510      5347.2354     12181.3779 
     7495.7046       0.250721      1234.7992         2.5240         1.5531 
    10661.0068      3666.6697      6308.1309     17550.2070         1.8050 
     9722.9287         8.1040         5.5978
    3751.02120 
       43.5272        70.4599        38.0544       102.8654      1377.6650 
        2.4915        56.1880       102.6054     13515.4141      7401.2153 
       29.3441        29.3441        73.1104        21.9861         0.0006 
      0.285837      -999.2500     11958.8545      5347.2583     12178.0488 
     7574.9624       0.257253      1216.0503         2.5232         1.5695 
    10782.0254      3720.2656      6417.4009     17797.3828         1.8261 
     9746.0762         8.2006         5.6877
    3751.17360 
       43.5704        71.0270        38.2791       103.7749      1379.7458 
        2.4962        56.0713       102.2797     13569.2939      7438.8945 
       29.4251        29.4251        73.4514        22.1684         0.0006 
      0.285163      -999.2500     11959.4570      5347.2817     12179.0361 
     7567.8784       0.256647      1247.8883         2.5233         1.5679 
    10831.5332      3755.7649      6433.7808     17834.4336         1.8241 
     9777.1094         8.2642         5.7473
    3751.32600 
       43.6078        71.0218        37.9479       104.0957      1381.5515 
        2.5002        55.9703       102.2612     13615.2686      7452.0000 
       29.7224        29.7224        74.3109        22.2115         0.0006 
      0.286156      -999.2500     11960.0615      5347.3047     12179.1133 
     7579.0264       0.257541      1311.3767         2.5232         1.5702 
    10980.8057      3768.3237      6448.0117     17866.6250         1.8271 
     9778.8809         8.2867         5.7684
    3751.47840 
       43.5987        70.3642        37.3751       103.3532      1381.1138 
        2.4974        55.9947       102.5957     13594.4277      7419.5732 
       29.9141        29.9141        74.7083        22.0427         0.0006 
      0.287875      -999.2500     11960.6650      5347.3281     12178.7939 
     7598.0947       0.259087      1343.9860         2.5230         1.5741 
    11084.1611      3739.2888      6444.5601     17858.8184         1.8322 
     9746.9941         8.2347         5.7197
    3751.63080 
       43.4467        70.5712        38.2407       102.9017      1373.7969 
        2.5081        56.4059       102.9094     13553.1826      7428.6680 
       29.2323        29.2323        73.3185        22.0024         0.0006 
      0.285278      -999.2500     11961.2686      5347.3511     12180.8447 
     7569.7334       0.256750      1362.7625         2.5233         1.5681 
    11064.9922      3721.6790      6387.0122     17728.6406         1.8244 
     9717.2891         8.2031         5.6901
    3751.78320 
       43.2486        71.3735        40.0479       102.6990      1364.3138 
        2.5185        56.9448       102.9938     13480.5449      7453.3408 
       28.0404        28.0404        70.6205        22.0574         0.0006 
      0.279856      -999.2500     11961.8721      5347.3740     12184.4199 
     7510.9053       0.251871      1393.6794         2.5240         1.5559 
    11009.1699      3713.7847      6312.8364     17560.8516         1.8087 
     9709.3271         8.1889         5.6769
    3751.93560 
       43.1804        71.8392        40.8455       102.8329      1361.0598 
        2.5237        57.1314       102.9447     13464.2715      7472.2881 
       27.5848        27.5848        69.6164        22.1241         0.0006 
      0.277463      -999.2500     11962.4756      5347.3970     12186.3340 
     7485.3232       0.249717      1435.4980         2.5242         1.5505 
    11041.6426      3718.9998      6287.4912     17503.5176         1.8019 
     9713.9561         8.1983         5.6856
    3752.08800 
       43.1886        71.8641        41.0658       102.6624      1361.4536 
        2.5142        57.1088       102.7984     13418.7471      7454.6655 
       27.4118        27.4118        68.9187        22.1033         0.0006 
      0.276803      -999.2500     11963.0791      5347.4204     12187.3125 
     7478.4204       0.249122      1475.9320         2.5243         1.5490 
    11108.7051      3712.3601      6290.5557     17510.4512         1.8000 
     9727.7754         8.1864         5.6745
    3752.24040 
       43.1740        72.2654        41.7719       102.7588      1360.7552 
        2.5076        57.1489       102.5358     13374.0830      7454.1162 
       27.0133        27.0133        67.7384        22.1583         0.0006 
      0.274684      -999.2500     11963.6826      5347.4438     12189.0693 
     7455.9507       0.247216      1496.1648         2.5246         1.5443 
    11104.2305      3716.1133      6285.1216     17498.1582         1.7942 
     9752.6914         8.1931         5.6808
    3752.39280 
       43.2089        72.7295        42.0181       103.4409      1362.4198 
        2.5096        57.0533       102.2490     13407.0439      7480.9180 
       27.0248        27.0248        67.8205        22.3003         0.0006 
      0.273946      -999.2500     11964.2871      5347.4663     12190.0850 
     7448.3354       0.246551      1484.8574         2.5247         1.5426 
    11066.3857      3742.7117      6298.0771     17527.4648         1.7922 
     9780.0479         8.2409         5.7254
    3752.54520 
       43.3651        72.7729        40.9892       104.5567      1369.8826 
        2.5134        56.6275       101.9685     13528.3955      7512.9033 
       27.9026        27.9026        70.1301        22.4573         0.0006 
      0.277032      -999.2500     11964.8906      5347.4897     12189.0498 
     7481.7021       0.249329      1525.8540         2.5243         1.5495 
    11215.1123      3786.3962      6356.3384     17659.2559         1.8007 
     9806.9482         8.3190         5.7987
