~Version Information Block
VERS .                  2.0:  CWLS LOG ASCII STANDARD - VERSION 2.0
WRAP .                   NO:  One line per depth step
~Well Information Block
#MNEM.UNIT        Data Type   Information
#---------- ----------------  -----------
STRT .M                0.00:  START DEPTH
STOP .M             3613.00:  STOP DEPTH
STEP .M                0.50:  STEP
NULL .              -999.25:  NULL VALUE
COMP .                     :  COMPANY
WELL .      RAAG-100-07-213:  WELL
FLD  .                     :  FIELD
LOC  .                     :  LOCATION
CTRY .                     :  COUNTRY
STAT .                     :  STATE
CNTY .                     :  COUNTY
SRVC .                     :  SERVICE COMPANY
DATE .                     :  DATE
API  .                     :  API NUMBER
UWI  .                     :  UNIQUE WELL ID
~Curve Information Block
#MNEM.UNIT         API CODE   Curve Description
#---------- ----------------  -----------------
DEPTH.M                    :  
OBG  .G/CC                 :  2.174+0.00008962*TVDSS
PP   .G/CC                 :  2.1087-0.00029524*TVDSS
~Parameter Information Block
#MNEM.UNIT            Value   Description
#---------- ----------------  -----------
PROJECT.          RDG_13Jul21:  
SET  .              GEOMECH:  
~Other Information Block
# 
~A       DEPTH            OBG             PP 
# ...
        979.00         2.2544         1.8440
        979.50         2.2544         1.8438
        980.00         2.2544         1.8437
        980.50         2.2545         1.8436
        981.00         2.2545         1.8434
        981.50         2.2546         1.8433
        982.00         2.2546         1.8431
        982.50         2.2547         1.8430
        983.00         2.2547         1.8428
        983.50         2.2547         1.8427
        984.00         2.2548         1.8425
        984.50         2.2548         1.8424
        985.00         2.2549         1.8422
        985.50         2.2549         1.8421
        986.00         2.2550         1.8420
        986.50         2.2550         1.8418
        987.00         2.2551         1.8417
        987.50         2.2551         1.8415
        988.00         2.2551         1.8414
        988.50         2.2552         1.8412
        989.00         2.2552         1.8411
        989.50         2.2553         1.8409
        990.00         2.2553         1.8408
        990.50         2.2554         1.8407
        991.00         2.2554         1.8405
        991.50         2.2555         1.8404
        992.00         2.2555         1.8402
        992.50         2.2555         1.8401
        993.00         2.2556         1.8399
        993.50         2.2556         1.8398
        994.00         2.2557         1.8396
        994.50         2.2557         1.8395
        995.00         2.2558         1.8394
        995.50         2.2558         1.8392
        996.00         2.2558         1.8391
        996.50         2.2559         1.8389
        997.00         2.2559         1.8388
        997.50         2.2560         1.8386
        998.00         2.2560         1.8385
        998.50         2.2561         1.8383
        999.00         2.2561         1.8382
        999.50         2.2562         1.8380
       1000.00         2.2562         1.8379
       1000.50         2.2562         1.8378
       1001.00         2.2563         1.8376
       1001.50         2.2563         1.8375
       1002.00         2.2564         1.8373
       1002.50         2.2564         1.8372
       1003.00         2.2565         1.8370
       1003.50         2.2565         1.8369
       1004.00         2.2566         1.8367
       1004.50         2.2566         1.8366
       1005.00         2.2566         1.8365
       1005.50         2.2567         1.8363
       1006.00         2.2567         1.8362
       1006.50         2.2568         1.8360
       1007.00         2.2568         1.8359
       1007.50         2.2569         1.8357
       1008.00         2.2569         1.8356
       1008.50         2.2569         1.8354
       1009.00         2.2570         1.8353
       1009.50         2.2570         1.8352
       1010.00         2.2571         1.8350
       1010.50         2.2571         1.8349
       1011.00         2.2572         1.8347
       1011.50         2.2572         1.8346
       1012.00         2.2573         1.8344
       1012.50         2.2573         1.8343
       1013.00         2.2573         1.8341
       1013.50         2.2574         1.8340
       1014.00         2.2574         1.8338
       1014.50         2.2575         1.8337
       1015.00         2.2575         1.8336
       1015.50         2.2576         1.8334
       1016.00         2.2576         1.8333
       1016.50         2.2577         1.8331
       1017.00         2.2577         1.8330
       1017.50         2.2577         1.8328
       1018.00         2.2578         1.8327
       1018.50         2.2578         1.8325
       1019.00         2.2579         1.8324
       1019.50         2.2579         1.8323
       1020.00         2.2580         1.8321
       1020.50         2.2580         1.8320
       1021.00         2.2580         1.8318
       1021.50         2.2581         1.8317
       1022.00         2.2581         1.8315
       1022.50         2.2582         1.8314
       1023.00         2.2582         1.8312
       1023.50         2.2583         1.8311
       1024.00         2.2583         1.8310
       1024.50         2.2584         1.8308
       1025.00         2.2584         1.8307
       1025.50         2.2584         1.8305
       1026.00         2.2585         1.8304
       1026.50         2.2585         1.8302
       1027.00         2.2586         1.8301
       1027.50         2.2586         1.8299
       1028.00         2.2587         1.8298
       1028.50         2.2587         1.8296
       1029.00         2.2588         1.8295
       1029.50         2.2588         1.8294
       1030.00         2.2588         1.8292
       1030.50         2.2589         1.8291
       1031.00         2.2589         1.8289
       1031.50         2.2590         1.8288
       1032.00         2.2590         1.8286
       1032.50         2.2591         1.8285
       1033.00         2.2591         1.8283
       1033.50         2.2591         1.8282
       1034.00         2.2592         1.8281
       1034.50         2.2592         1.8279
       1035.00         2.2593         1.8278
       1035.50         2.2593         1.8276
       1036.00         2.2594         1.8275
       1036.50         2.2594         1.8273
       1037.00         2.2595         1.8272
       1037.50         2.2595         1.8270
       1038.00         2.2595         1.8269
       1038.50         2.2596         1.8267
       1039.00         2.2596         1.8266
       1039.50         2.2597         1.8265
       1040.00         2.2597         1.8263
       1040.50         2.2598         1.8262
       1041.00         2.2598         1.8260
       1041.50         2.2599         1.8259
       1042.00         2.2599         1.8257
       1042.50         2.2599         1.8256
       1043.00         2.2600         1.8254
       1043.50         2.2600         1.8253
       1044.00         2.2601         1.8252
       1044.50         2.2601         1.8250
       1045.00         2.2602         1.8249
       1045.50         2.2602         1.8247
       1046.00         2.2602         1.8246
       1046.50         2.2603         1.8244
       1047.00         2.2603         1.8243
       1047.50         2.2604         1.8241
       1048.00         2.2604         1.8240
       1048.50         2.2605         1.8238
       1049.00         2.2605         1.8237
       1049.50         2.2606         1.8236
       1050.00         2.2606         1.8234
       1050.50         2.2606         1.8233
       1051.00         2.2607         1.8231
       1051.50         2.2607         1.8230
       1052.00         2.2608         1.8228
       1052.50         2.2608         1.8227
       1053.00         2.2609         1.8225
       1053.50         2.2609         1.8224
       1054.00         2.2610         1.8223
       1054.50         2.2610         1.8221
       1055.00         2.2610         1.8220
       1055.50         2.2611         1.8218
       1056.00         2.2611         1.8217
       1056.50         2.2612         1.8215
       1057.00         2.2612         1.8214
       1057.50         2.2613         1.8212
       1058.00         2.2613         1.8211
       1058.50         2.2613         1.8209
       1059.00         2.2614         1.8208
       1059.50         2.2614         1.8207
       1060.00         2.2615         1.8205
       1060.50         2.2615         1.8204
       1061.00         2.2616         1.8202
       1061.50         2.2616         1.8201
       1062.00         2.2617         1.8199
       1062.50         2.2617         1.8198
       1063.00         2.2617         1.8196
       1063.50         2.2618         1.8195
       1064.00         2.2618         1.8194
       1064.50         2.2619         1.8192
       1065.00         2.2619         1.8191
       1065.50         2.2620         1.8189
       1066.00         2.2620         1.8188
       1066.50         2.2621         1.8186
       1067.00         2.2621         1.8185
       1067.50         2.2621         1.8183
