~Version Information Block
VERS .                  2.0:  CWLS LOG ASCII STANDARD - VERSION 2.0
WRAP .                  YES:  Multiple lines per depth step
~Well Information Block
#MNEM.UNIT        Data Type   Information
#---------- ----------------  -----------
STRT .M          2682.11640:  START DEPTH
STOP .M          3633.09240:  STOP DEPTH
STEP .M             0.15240:  STEP
NULL .              -999.25:  NULL VALUE
COMP .                     :  COMPANY
WELL .       RAAG-94-07-216:  WELL
FLD  .                     :  FIELD
LOC  .                     :  LOCATION
CTRY .                     :  COUNTRY
STAT .                     :  STATE
CNTY .                     :  COUNTY
SRVC .                     :  SERVICE COMPANY
DATE .                     :  DATE
API  .                     :  API NUMBER
UWI  .                     :  UNIQUE WELL ID
~Curve Information Block
#MNEM.UNIT         API CODE   Curve Description
#---------- ----------------  -----------------
DEPTH.M                    :  
ANGLE_FAIL.DEG                  :  Fail Angle
BRIT_IND.                     :  Brittleness Index
BRIT_PR.                     :  Brittleness Index from Poisson's Ratio
BRIT_YM.                     :  Brittleness Index from Young's Modulus
CS   .M/MIN                 :  Compressive Strength
IP   .RAYL/M2                 :  P Impedence
IS   .RAYL/M2                 :  S Impedance
KBULK.                     :  Bulk Mudulus
LAMBDA.                     :  Lambda
LAMRHO.                     :  
MU   .CP                   :  Mu
MURHO.(GF/C3S)2                 :  Mu*Rho
PR   .                     :  Poisson's ratio
PRESS_FG.PSI                  :  Fracture Gradient Pressure
PRESS_OB.PSI                  :  Over-burden Pressure
PRESS_PP.PSI                  :  Pore Pressure
PRESS_SHMAX.PSI                  :  Horizontal Stress (Max)
PRESS_SHMIN.PSI                  :  Horizontal Stress (Min)
PR_STAT.                     :  Poisson's ratio (Static)
PZS  .PSI                  :  Processed Zone Stress
SHMAX_GRAD.                     :  Horizontal Stress Gradient (Max)
SHMIN_GRAD.                     :  Horizontal Stress Gradient (Min)
STRESS_CUM.PSI                  :  Cumulative stress (SHPZ)
UCS_BF.PSI                  :  Uniaxial Compressive Strength (BF)
UCS_LAL.PSI                  :  Uniaxial Compressive Strength (lal)
VP   .FT/S                 :  Compressional velocity
VPVS .                     :  Vp / Vs ratio
VS   .FT/S                 :  Shear velocity
YM   .                     :  Youngs' Modulus
YM_STAT.                     :  Youngs' Modulus (Static)
~Parameter Information Block
#MNEM.UNIT            Value   Description
#---------- ----------------  -----------
PROJECT.          RDG_13Jul21:  
SET  .              GEOMECH:  
~Other Information Block
~Ascii Log Data
# ...
    2871.24480 
       40.6666        71.3955        57.5681        85.2228      1246.0530 
    11692.4893      6946.1841        16.3079        16.3079        40.2154 
       19.5658         0.0005       0.227296      -999.2500      9504.8398 
     5083.4526      9672.5439      6150.7598       0.204566      2986.7178 
        2.4629         1.5661     11474.9551      3059.5972      5426.5381 
    15555.9922         1.6833      9241.3838         6.9656         4.5791
    2871.39720 
       40.3846        68.8189        55.6027        82.0351      1233.6953 
    11573.8301      6827.0537        16.4737        16.4737        40.7362 
       18.8485         0.0005       0.233192      -999.2500      9505.4092 
     5083.5557      9671.2314      6188.9712       0.209873      2839.4734 
        2.4624         1.5758     11256.8896      2945.9084      5338.0371 
    15355.7969         1.6953      9057.9219         6.7425         4.3884
    2871.54960 
       40.0611        68.6203        57.1257        80.1150      1219.6511 
    11428.0400      6778.3647        15.6203        15.6203        38.7076 
       18.5414         0.0005       0.228623      -999.2500      9505.9795 
     5083.6582      9673.3086      6159.3818       0.205761      2529.1799 
        2.4628         1.5682     10577.1240      2878.2642      5238.3965 
    15130.4033         1.6860      8974.3652         6.6080         4.2749
    2871.70200 
       39.6565        71.7233        63.7446        79.7021      1202.2660 
    11259.1611      6830.8457        13.4504        13.4504        33.4478 
       18.7636         0.0005       0.208766      -999.2500      9506.5488 
     5083.7607      9680.1719      6034.0981       0.187890      2820.6235 
        2.4644         1.5362     10909.4434      2863.8018      5116.4326 
    14854.5137         1.6483      9012.1191         6.5791         4.2506
    2871.85440 
       39.3686        76.2714        72.2055        80.3374      1190.0223 
    11135.9336      6934.0073        11.1760        11.1760        27.8481 
       19.2956         0.0005       0.183384      -999.2500      9507.1182 
     5083.8628      9688.3867      5881.7627       0.165045      2810.1438 
        2.4664         1.4973     10583.8135      2886.0662      5031.4531 
    14662.2861         1.6060      9129.7607         6.6236         4.2879
    2872.00680 
       39.5542        79.6580        75.9546        83.3615      1197.9041 
    11263.5039      7088.2788        10.5547        10.5547        26.3791 
       20.1034         0.0005       0.172136      -999.2500      9507.6895 
     5083.9653      9692.2148      5817.1855       0.154923      2842.9548 
        2.4672         1.4808     10520.2813      2993.0017      5086.0713 
    14785.8359         1.5890      9304.9307         6.8353         4.4674
    2872.15920 
       40.2195        81.7429        73.9683        89.5174      1226.5106 
    11687.0615      7314.0581        11.7636        11.7636        29.5965 
       21.2626         0.0006       0.178095      -999.2500      9508.2588 
     5084.0684      9691.0693      5852.0542       0.160285      2849.7439 
        2.4668         1.4896     10603.5957      3215.5142      5286.9385 
    15240.2090         1.5979      9537.7080         7.2662         4.8408
    2872.31160 
       41.0364        79.7478        64.6240        94.8716      1262.4128 
    12232.4990      7442.5044        15.3188        15.3188        38.8523 
       21.8397         0.0006       0.206128      -999.2500      9508.8291 
     5084.1704      9683.2803      6019.8042       0.185515      2703.5039 
        2.4647         1.5322     10646.6162      3414.3171      5544.8921 
    15823.7148         1.6436      9627.4746         7.6410         5.1744
    2872.46400 
       41.4617        76.7352        57.2967        96.1737      1281.4564 
    12526.1240      7434.2251        18.2097        18.2097        46.3684 
       21.7046         0.0006       0.228110      -999.2500      9509.3984 
     5084.2729      9676.9365      6158.6338       0.205299      2315.7183 
        2.4629         1.5675     10148.7041      3463.4084      5684.3760 
    16139.2363         1.6849      9578.5996         7.7322         5.2567
    2872.61640 
       40.9510        77.5448        62.3032        92.7865      1258.6158 
    12160.2754      7342.6611        15.8194        15.8194        40.0430 
       21.2996         0.0006       0.213090      -999.2500      9509.9678 
     5084.3750      9682.3066      6063.2021       0.191781      2191.8054 
        2.4642         1.5431      9710.0146      3336.3140      5517.3022 
    15761.3057         1.6561      9517.0479         7.4951         5.0435
    2872.76880 
       40.2651        77.4962        67.7870        87.2055      1228.4915 
    11643.7285      7155.1138        13.2667        13.2667        33.1851 
       20.4669         0.0006       0.196639      -999.2500      9510.5381 
     5084.4780      9687.9600      5962.1011       0.176975      2181.3708 
        2.4655         1.5173      9486.9434      3131.1865      5301.0005 
    15272.0186         1.6273      9384.7100         7.1044         4.6993
    2872.92120 
       39.5629        76.1236        71.5203        80.7269      1198.2751 
    11109.0156      6903.4497        11.4021        11.4021        28.0950 
       19.3414         0.0005       0.185439      -999.2500      9511.1084 
     5084.5801      9691.9043      5895.1978       0.166895      2128.3606 
        2.4663         1.5002      9247.1172      2899.7515      5088.6509 
    14791.6719         1.6092      9191.9541         6.6509         4.3109
    2873.07360 
       39.1570        72.5607        69.7087        75.4126      1181.0862 
    10747.6387      6643.1304        11.2232        11.2232        27.2494 
       18.1763         0.0005       0.190874      -999.2500      9511.6787 
     5084.6826      9690.9043      5927.1523       0.171787      1926.0305 
        2.4660         1.5082      8906.3662      2715.2737      4969.9058 
    14523.0625         1.6179      8976.7246         6.2789         4.0014
    2873.22600 
       38.5746        71.0537        71.7992        70.3083      1156.7695 
    10330.7178      6425.0273        10.0863        10.0863        24.1618 
       17.2327         0.0004       0.184602      -999.2500      9512.2480 
     5084.7852      9693.3623      5889.9536       0.166142      1606.7194 
        2.4664         1.4987      8193.3467      2542.6338      4804.4556 
    14148.8027         1.6079      8799.6260         5.9216         3.7117
    2873.37840 
       38.2132        70.0307        72.9976        67.0638      1141.8749 
    10056.4609      6276.1816         9.4320         9.4320        22.3515 
       16.6222         0.0004       0.181007      -999.2500      9512.8174 
     5084.8877      9695.0127      5868.9185       0.162907      1281.2781 
        2.4667         1.4932      7500.3936      2435.2146      4704.5742 
    13922.8672         1.6023      8689.1846         5.6945         3.5314
    2873.53080 
       38.2564        68.0696        70.2751        65.8642      1143.6469 
     9978.8008      6178.3550         9.8990         9.8990        23.2323 
       16.2646         0.0004       0.189175      -999.2500      9513.3877 
     5084.9897      9693.2061      5917.0103       0.170257      1027.0149 
        2.4661         1.5054      7088.0508      2395.9546      4716.3989 
    13949.6143         1.6151      8636.8770         5.6105         3.4655
    2873.68320 
       38.7515        64.5146        62.5094        66.5197      1164.1122 
    10133.8252      6123.2300        11.8844        11.8844        27.7065 
       16.0826         0.0004       0.212472      -999.2500      9513.9580 
     5085.0918      9686.7109      6058.9146       0.191225       843.9847 
        2.4644         1.5414      7005.7983      2417.3772      4854.1030 
    14261.1094         1.6550      8617.0869         5.6564         3.5015
