~Version Information Block
VERS .                  2.0:  CWLS LOG ASCII STANDARD - VERSION 2.0
WRAP .                  YES:  Multiple lines per depth step
~Well Information Block
#MNEM.UNIT        Data Type   Information
#---------- ----------------  -----------
STRT .M          2784.04320:  START DEPTH
STOP .M          3715.96920:  STOP DEPTH
STEP .M             0.15240:  STEP
NULL .              -999.25:  NULL VALUE
COMP .                     :  COMPANY
WELL .      RAAG-101-02-104:  WELL
FLD  .                     :  FIELD
LOC  .                     :  LOCATION
CTRY .                     :  COUNTRY
STAT .                     :  STATE
CNTY .                     :  COUNTY
SRVC .                     :  SERVICE COMPANY
DATE .                     :  DATE
API  .                     :  API NUMBER
UWI  .                     :  UNIQUE WELL ID
~Curve Information Block
#MNEM.UNIT         API CODE   Curve Description
#---------- ----------------  -----------------
DEPTH.M                    :  
ANGLE_FAIL.DEG                  :  Fail Angle
BRIT_IND.                     :  Brittleness Index
BRIT_PR.                     :  Brittleness Index from Poisson's Ratio
BRIT_YM.                     :  Brittleness Index from Young's Modulus
CS   .M/MIN                 :  Compressive Strength
DTCO .US/F                 :  Compressional slowness
DTSM .US/F                 :  Fast Shear slowness
IP   .RAYL/M2                 :  P Impedence
IS   .RAYL/M2                 :  S Impedance
KBULK.                     :  Bulk Mudulus
LAMBDA.                     :  Lambda
LAMRHO.                     :  
MU   .CP                   :  Mu
MURHO.(GF/C3S)2                 :  Mu*Rho
PR   .                     :  Poisson's ratio
PRESS_FG.PSI                  :  Fracture Gradient Pressure
PRESS_OB.PSI                  :  Over-burden Pressure
PRESS_PP.PSI                  :  Pore Pressure
PRESS_SHMAX.PSI                  :  Horizontal Stress (Max)
PRESS_SHMIN.PSI                  :  Horizontal Stress (Min)
PR_STAT.                     :  Poisson's ratio (Static)
PZS  .PSI                  :  Processed Zone Stress
SHMAX_GRAD.                     :  Horizontal Stress Gradient (Max)
SHMIN_GRAD.                     :  Horizontal Stress Gradient (Min)
STRESS_CUM.PSI                  :  Cumulative stress (SHPZ)
UCS_BF.PSI                  :  Uniaxial Compressive Strength (BF)
UCS_LAL.PSI                  :  Uniaxial Compressive Strength (lal)
VP   .FT/S                 :  Compressional velocity
VPVS .                     :  Vp / Vs ratio
VS   .FT/S                 :  Shear velocity
YM   .                     :  Youngs' Modulus
YM_STAT.                     :  Youngs' Modulus (Static)
~Parameter Information Block
#MNEM.UNIT            Value   Description
#---------- ----------------  -----------
PROJECT.          RDG_13Jul21:  
SET  .              GEOMECH:  
~Other Information Block
~Ascii Log Data
# ...
    3415.58880 
       40.9688        74.3204        53.6919        94.9490      1259.4081 
       63.3942       108.2381     12900.2686      7555.5854        19.4714 
       19.4714        52.2432        21.2766         0.0006       0.238924 
     -999.2500     11827.0645      5341.7109     12066.0518      7047.3179 
      0.215032      2249.9622         2.5248         1.4746     11794.5605 
     3417.2273      5523.0527     15774.3135         1.7074      9238.8906 
        7.6464         5.1792
    3415.74120 
       41.1483        72.5802        50.4139        94.7466      1267.3983 
       62.8697       108.7140     12995.0625      7515.0923        20.8617 
       20.8617        55.9184        21.0700         0.0006       0.248758 
     -999.2500     11827.6680      5341.7383     12061.8838      7143.3408 
      0.223883      2151.1541         2.5238         1.4947     11788.9902 
     3409.6204      5581.2295     15905.9121         1.7292      9198.4473 
        7.6323         5.1665
    3415.89360 
       41.1000        71.7659        49.7520        93.7798      1265.2432 
       63.0106       109.2461     12956.5391      7473.0293        20.9745 
       20.9745        56.1796        20.8500         0.0006       0.250744 
     -999.2500     11828.2695      5341.7656     12061.5293      7163.0767 
      0.225670      1990.8185         2.5236         1.4987     11507.7900 
     3373.3801      5565.5059     15870.3457         1.7338      9153.6455 
        7.5646         5.1057
    3416.04600 
       40.9194        70.8422        49.6607        92.0237      1257.2147 
       63.5392       110.2030     12859.5459      7414.3643        20.6744 
       20.6744        55.4223        20.5067         0.0006       0.251018 
     -999.2500     11828.8711      5341.7930     12062.0225      7165.8433 
      0.225916      1989.9481         2.5236         1.4992     11511.5830 
     3307.9646      5507.1392     15738.3154         1.7344      9074.1631 
        7.4417         4.9959
    3416.19840 
       40.7917        69.7053        48.6361        90.7746      1251.5637 
       63.9148       111.3160     12858.6445      7383.1045        20.8888 
       20.8888        56.3243        20.2161         0.0006       0.254092 
     -999.2500     11829.4746      5341.8208     12061.1221      7196.5161 
      0.228683      2276.6665         2.5233         1.5056     12146.3652 
     3261.7520      5466.2529     15645.8291         1.7416      8983.4346 
        7.3542         4.9183
    3416.35080 
       40.5922        69.8382        49.7431        89.9332      1242.7813 
       64.5044       111.8400     12792.2266      7377.9951        20.2318 
       20.2318        54.7714        20.1074         0.0006       0.250771 
     -999.2500     11830.0762      5341.8477     12063.3994      7163.6147 
      0.225694      2079.4543         2.5237         1.4986     11686.1377 
     3230.7778      5403.0313     15502.8174         1.7338      8941.3447 
        7.2953         4.8664
    3416.50320 
       40.4601        71.0578        51.8694        90.2463      1236.9921 
       64.8970       111.5798     12758.8271      7420.7842        19.3817 
       19.3817        52.6516        20.2712         0.0006       0.244392 
     -999.2500     11830.6787      5341.8755     12067.1572      7101.0967 
      0.219953      2272.5583         2.5244         1.4855     11947.3105 
     3242.2878      5361.5708     15409.0313         1.7193      8962.1953 
        7.3172         4.8857
    3416.65560 
       40.8204        71.0942        49.4392        92.7493      1252.8341 
       63.8301       110.8064     13022.9033      7501.8525        20.9153 
       20.9153        57.0404        20.6357         0.0006       0.251683 
     -999.2500     11831.2813      5341.9033     12064.1816      7173.2759 
      0.226514      2739.2495         2.5236         1.5005     13025.0508 
     3334.9277      5475.4307     15666.5908         1.7360      9024.7500 
        7.4924         5.0411
    3416.80800 
       41.6252        68.4781        41.1835        95.7726      1288.8451 
       61.4901       110.6246     13585.9346      7551.6694        25.7304 
       25.7304        70.5222        20.8068         0.0006       0.276449 
     -999.2500     11831.8838      5341.9302     12052.1289      7426.9873 
      0.248804      2253.2234         2.5210         1.5535     12560.4219 
     3448.2542      5738.9917     16262.7803         1.7991      9039.5811 
        7.7041         5.2313
    3416.96040 
       42.3715        62.7350        30.5945        94.8756      1323.0533 
       59.3719       112.7614     14148.2021      7449.4077        32.3609 
       32.3609        89.1843        20.1361         0.0006       0.308217 
     -999.2500     11832.4854      5341.9575     12035.3652      7774.8882 
      0.277395      2863.4202         2.5174         1.6262     14476.6172 
     3414.4692      5995.4858     16842.9844         1.8992      8868.2832 
        7.6413         5.1746
    3417.11280 
       41.9037        57.6271        27.4870        87.7671      1301.5164 
       60.6939       117.3813     13921.5186      7198.3462        32.5294 
       32.5294        90.1763        18.6917         0.0006       0.317539 
     -999.2500     11833.0879      5341.9849     12030.6484      7881.8652 
      0.285785      2915.3911         2.5163         1.6485     14794.5127 
     3151.5879      5833.3037     16476.1191         1.9340      8519.2451 
        7.1437         4.7335
    3417.26520 
       40.4108        55.7399        32.6462        78.8336      1234.8407 
       65.0437       122.1374     12985.9111      6915.5864        26.3366 
       26.3366        72.9832        17.2582         0.0005       0.302061 
     -999.2500     11833.6904      5342.0122     12040.1494      7704.5195 
      0.271855      2976.0674         2.5181         1.6114     14561.1738 
     2833.4744      5346.2075     15374.2783         1.8778      8187.5000 
        6.5184         4.1997
    3417.41760 
       39.3108        55.6170        38.0490        73.1851      1187.5768 
       68.3803       124.8731     12281.4854      6725.3208        21.9124 
       21.9124        60.3750        16.4157         0.0005       0.285853 
     -999.2500     11834.2930      5342.0391     12049.6973      7526.2104 
      0.257268      3196.6721         2.5200         1.5740     14645.7646 
     2639.3867      5014.5698     14624.0938         1.8262      8008.1299 
        6.1230         3.8740
    3417.57000 
       39.3017        54.3272        36.9531        71.7014      1187.1918 
       68.4084       125.6044     12178.8232      6632.9985        22.0717 
       22.0717        60.3304        16.0961         0.0005       0.289141 
     -999.2500     11834.8945      5342.0669     12048.5459      7561.8833 
      0.260227      2930.1028         2.5197         1.5814     14183.9717 
     2589.3081      5011.9141     14618.0879         1.8361      7961.5044 
        6.0191         3.7900
    3417.72240 
       40.5768        51.5445        27.9538        75.1353      1242.1064 
       64.5500       124.4902     12914.6904      6696.4575        28.1911 
       28.1911        77.1041        16.3955         0.0005       0.316139 
     -999.2500     11835.4980      5342.0938     12033.9951      7865.5596 
      0.284525      2940.6631         2.5165         1.6448     14812.4443 
     2705.7791      5398.1899     15491.8662         1.9286      8032.7607 
        6.2595         3.9854
    3417.87480 
       42.1829        51.0242        20.1831        81.8652      1314.3314 
       59.9026       121.5050     14006.8896      6905.4697        36.6254 
       36.6254       100.8219        17.3226         0.0005       0.339451 
     -999.2500     11836.1006      5342.1211     12020.6416      8145.2617 
      0.305506      2486.2295         2.5136         1.7032     14462.9824 
     2939.8979      5929.5200     16693.7656         2.0284      8230.1143 
        6.7306         4.3783
