~Version Information Block
VERS .                  2.0:  CWLS LOG ASCII STANDARD - VERSION 2.0
WRAP .                  YES:  Multiple lines per depth step
~Well Information Block
#MNEM.UNIT        Data Type   Information
#---------- ----------------  -----------
STRT .M          2676.97280:  START DEPTH
STOP .M          3838.10840:  STOP DEPTH
STEP .M             0.15240:  STEP
NULL .              -999.25:  NULL VALUE
COMP .                     :  COMPANY
WELL .      RAAG-107-07-210:  WELL
FLD  .                     :  FIELD
LOC  .                     :  LOCATION
CTRY .                     :  COUNTRY
STAT .                     :  STATE
CNTY .                     :  COUNTY
SRVC .                     :  SERVICE COMPANY
DATE .                     :  DATE
API  .                     :  API NUMBER
UWI  .                     :  UNIQUE WELL ID
~Curve Information Block
#MNEM.UNIT         API CODE   Curve Description
#---------- ----------------  -----------------
DEPTH.M                    :  
ANGLE_FAIL.DEG                  :  Fail Angle
BRIT_IND.                     :  Brittleness Index
BRIT_PR.                     :  Brittleness Index from Poisson's Ratio
BRIT_YM.                     :  Brittleness Index from Young's Modulus
CS   .M/MIN                 :  Compressive Strength
DTCO .US/F                 :  Compressional slowness
DTSM .US/F                 :  Fast Shear Slowness
IP   .RAYL/M2                 :  P Impedence
IS   .RAYL/M2                 :  S Impedance
KBULK.                     :  Bulk Mudulus
LAMBDA.                     :  Lambda
LAMRHO.                     :  
MU   .CP                   :  Mu
MURHO.(GF/C3S)2                 :  Mu*Rho
PR   .                     :  Poisson's ratio
PRESS_FG.PSI                  :  Fracture Gradient Pressure
PRESS_OB.PSI                  :  Over-burden Pressure
PRESS_PP.PSI                  :  Pore Pressure
PRESS_SHMAX.PSI                  :  Horizontal Stress (Max)
PRESS_SHMIN.PSI                  :  Horizontal Stress (Min)
PR_STAT.                     :  Poisson's ratio (Static)
PZS  .PSI                  :  Processed Zone Stress
SHMAX_GRAD.                     :  Horizontal Stress Gradient (Max)
SHMIN_GRAD.                     :  Horizontal Stress Gradient (Min)
STRESS_CUM.PSI                  :  Cumulative stress (SHPZ)
UCS_BF.PSI                  :  Uniaxial Compressive Strength (BF)
UCS_LAL.PSI                  :  Uniaxial Compressive Strength (lal)
VP   .FT/S                 :  Compressional velocity
VPVS .                     :  Vp / Vs ratio
VS   .FT/S                 :  Shear velocity
YM   .                     :  Youngs' Modulus
YM_STAT.                     :  Youngs' Modulus (Static)
~Parameter Information Block
#MNEM.UNIT            Value   Description
#---------- ----------------  -----------
PROJECT.          RDG_13Jul21:  
SET  .              GEOMECH:  
~Other Information Block
~Ascii Log Data
# ...
    3591.37280 
       39.3976        59.4714        46.7514        72.1914      1191.2528 
       68.1128       119.5594     11405.8877      6497.9160        17.9095 
       17.9095        45.6484        16.5655    0.000454484       0.259746 
     -999.2500     11442.4912      5320.0806     11658.6641      7119.0308 
      0.233771      1427.6227         2.5126         1.5343     10293.3066 
     2605.8054      5039.9595     14681.5283         1.7553      8364.0430 
        6.0534         3.8177
    3591.52520 
       39.0799        59.5167        49.5739        69.4594      1177.8434 
       69.0953       119.8814     11021.3076      6352.2827        16.3168 
       16.3168        40.7662        16.1508    0.000434340       0.251278 
     -999.2500     11443.0820      5320.1201     11663.2891      7038.9268 
      0.226150      1212.2761         2.5135         1.5169      9702.4053 
     2514.3557      4947.6704     14472.7656         1.7350      8341.5781 
        5.8622         3.6642
    3591.67760 
       38.8422        59.2773        51.8038        66.7507      1167.8934 
       69.8364       120.1029     10647.6016      6191.2764        15.0466 
       15.0466        36.7076        15.7124    0.000412601       0.244589 
     -999.2500     11443.6729      5320.1602     11667.0195      6976.7476 
      0.220130      1064.4063         2.5142         1.5035      9282.3076 
     2424.9446      4879.7744     14319.1797         1.7198      8326.1943 
        5.6726         3.5142
    3591.83000 
       38.7143        59.0423        52.9580        65.1267      1162.5646 
       70.2376       120.2570     10430.2793      6091.9346        14.3819 
       14.3819        34.5674        15.4404    0.000399467       0.241126 
     -999.2500     11444.2646      5320.1992     11669.2275      6945.0151 
      0.217014       977.7640         2.5146         1.4966      9045.5576 
     2371.9412      4843.6162     14237.3877         1.7121      8315.5244 
        5.5589         3.4252
    3591.98240 
       38.7324        58.4491        52.2721        64.6261      1163.3180 
       70.1807       120.4763     10393.5605      6054.5298        14.5046 
       14.5046        34.7114        15.3177    0.000394576       0.243184 
     -999.2500     11444.8555      5320.2388     11668.8955      6964.0474 
      0.218865       943.7200         2.5144         1.5006      9015.5342 
     2355.6917      4848.7192     14248.9316         1.7167      8300.3867 
        5.5238         3.3980
    3592.13480 
       38.8361        57.5452        50.3343        64.7562      1167.6375 
       69.8556       120.8322     10472.0635      6054.1167        15.1495 
       15.1495        36.3594        15.2715    0.000394522       0.248997 
     -999.2500     11445.4473      5320.2783     11666.8154      7018.0742 
      0.224097       952.1660         2.5138         1.5122      9140.4805 
     2359.9104      4878.0352     14315.2451         1.7297      8275.9395 
        5.5329         3.4050
    3592.28720 
       38.7969        57.3637        50.0104        64.7170      1166.0028 
       69.9784       121.2011     10504.2344      6064.8750        15.2483 
       15.2483        36.7735        15.2521    0.000395926       0.249969 
     -999.2500     11446.0391      5320.3179     11666.9736      7027.3384 
      0.224972       983.9810         2.5137         1.5141      9222.6387 
     2358.6409      4866.9292     14290.1240         1.7320      8250.7500 
        5.5302         3.4029
    3592.43960 
       38.5558        58.5199        52.5422        64.4975      1155.9897 
       70.7368       121.3047     10443.9199      6090.1968        14.3967 
       14.3967        34.8945        15.3027    0.000399239       0.242373 
     -999.2500     11446.6309      5320.3574     11671.1035      6957.1729 
      0.218136      1034.1416         2.5145         1.4989      9182.6289 
     2351.5249      4799.1987     14136.9131         1.7149      8243.7041 
        5.5148         3.3910
    3592.59200 
       38.2988        60.4597        56.3903        64.5291      1145.3904 
       71.5514       120.9527     10365.6201      6131.9395        13.2513 
       13.2513        32.2447        15.4524    0.000404730       0.230829 
     -999.2500     11447.2207      5320.3965     11676.9443      6852.7612 
      0.207746      1103.2960         2.5157         1.4763      9112.1143 
     2352.5496      4728.0488     13975.9678         1.6904      8267.6953 
        5.5170         3.3927
    3592.74440 
       38.1642        62.5664        59.7888        65.3440      1139.8678 
       71.9807       120.2264     10371.5928      6209.5718        12.4330 
       12.4330        30.4524        15.7426    0.000415043       0.220634 
     -999.2500     11447.8115      5320.4360     11682.0586      6762.8613 
      0.198570      1181.2748         2.5166         1.4569      9088.2725 
     2379.0049      4691.2002     13892.6143         1.6703      8317.6406 
        5.5741         3.4371
    3592.89680 
       38.2016        64.1697        61.0422        67.2972      1141.4020 
       71.8611       119.5142     10550.4492      6343.7388        12.3927 
       12.3927        30.8259        16.1786    0.000433172       0.216873 
     -999.2500     11448.4033      5320.4751     11684.3018      6730.4409 
      0.195186      1218.9156         2.5170         1.4499      9098.7129 
     2442.8809      4701.4214     13915.7354         1.6631      8367.2070 
        5.7108         3.5443
    3593.04920 
       38.3679        65.1067        60.1325        70.0808      1148.2308 
       71.3319       119.0021     10873.0049      6517.4658        13.0738 
       13.0738        33.2675        16.6932    0.000457223       0.219602 
     -999.2500     11448.9941      5320.5151     11683.7168      6754.5342 
      0.197642      1254.7922         2.5168         1.4550      9218.6533 
     2535.0439      4747.0605     14018.9727         1.6683      8403.2129 
        5.9057         3.6989
    3593.20160 
       38.5142        65.9845        59.3624        72.6066      1154.2705 
       70.8681       118.5426     11163.7822      6674.0229        13.6940 
       13.6940        35.5449        17.1604    0.000479452       0.221913 
     -999.2500     11449.5850      5320.5542     11683.3105      6775.0913 
      0.199722      1275.4086         2.5166         1.4593      9301.0000 
     2619.8157      4787.6196     14110.7207         1.6727      8435.7861 
        6.0825         3.8412
    3593.35400 
       38.6515        66.6360        59.0556        74.2164      1159.9587 
       70.4349       117.9436     11316.6943      6758.2319        14.0415 
       14.0415        36.7202        17.4652    0.000491628       0.222833 
     -999.2500     11450.1768      5320.5933     11683.5127      6783.4609 
      0.200550      1264.8506         2.5165         1.4611      9296.6230 
     2674.4158      4825.9863     14197.5078         1.6745      8478.6279 
        6.1951         3.9328
    3593.50640 
       38.9902        65.9388        56.3073        75.5704      1174.0839 
       69.3741       117.3074     11462.7158      6778.9033        15.1350 
       15.1350        39.4868        17.6136    0.000494640       0.231078 
     -999.2500     11450.7676      5320.6323     11680.4629      6856.8696 
      0.207970      1258.9319         2.5157         1.4768      9431.6035 
     2720.6804      4921.9580     14414.6006         1.6909      8524.6113 
        6.2899         4.0104
    3593.65880 
       39.5379        63.8547        50.6616        77.0477      1197.2104 
       67.6822       116.9208     11702.8369      6774.4468        17.3820 
       17.3820        45.1701        17.6603    0.000493990       0.248015 
     -999.2500     11451.3594      5320.6724     11673.3379      7011.7949 
      0.223214      1269.4783         2.5141         1.5101      9762.5459 
     2771.5195      5081.2520     14774.9336         1.7275      8552.7979 
        6.3933         4.0957
