~Version Information Block
VERS .                  2.0:  CWLS LOG ASCII STANDARD - VERSION 2.0
WRAP .                  YES:  Multiple lines per depth step
~Well Information Block
#MNEM.UNIT        Data Type   Information
#---------- ----------------  -----------
STRT .M          2556.50000:  START DEPTH
STOP .M          3600.74480:  STOP DEPTH
STEP .M             0.15240:  STEP
NULL .              -999.25:  NULL VALUE
COMP .                     :  COMPANY
WELL .      RAAG-100-07-213:  WELL
FLD  .                     :  FIELD
LOC  .                     :  LOCATION
CTRY .                     :  COUNTRY
STAT .                     :  STATE
CNTY .                     :  COUNTY
SRVC .                     :  SERVICE COMPANY
DATE .                     :  DATE
API  .                     :  API NUMBER
UWI  .                     :  UNIQUE WELL ID
~Curve Information Block
#MNEM.UNIT         API CODE   Curve Description
#---------- ----------------  -----------------
DEPTH.M                    :  
ANGLE_FAIL.DEG                  :  Fail Angle
BRIT_IND.                     :  Brittleness Index
BRIT_PR.                     :  Brittleness Index from Poisson's Ratio
BRIT_YM.                     :  Brittleness Index from Young's Modulus
CS   .M/MIN                 :  Compressive Strength
DTCO .US/F                 :  Compressional slowness
DTSM .US/F                 :  Description
IP   .RAYL/M2                 :  P Impedence
IS   .RAYL/M2                 :  S Impedance
KBULK.                     :  Bulk Mudulus
LAMBDA.                     :  Lambda
LAMRHO.                     :  
MU   .CP                   :  Mu
MURHO.(GF/C3S)2                 :  Mu*Rho
PR   .                     :  Poisson's ratio
PRESS_FG.PSI                  :  Fracture Gradient Pressure
PRESS_OB.PSI                  :  Over-burden Pressure
PRESS_PP.PSI                  :  Pore Pressure
PRESS_SHMAX.PSI                  :  Horizontal Stress (Max)
PRESS_SHMIN.PSI                  :  Horizontal Stress (Min)
PR_STAT.                     :  Poisson's ratio (Static)
PZS  .PSI                  :  Processed Zone Stress
SHMAX_GRAD.                     :  Horizontal Stress Gradient (Max)
SHMIN_GRAD.                     :  Horizontal Stress Gradient (Min)
STRESS_CUM.PSI                  :  Cumulative stress (SHPZ)
UCS_BF.PSI                  :  Uniaxial Compressive Strength (BF)
UCS_LAL.PSI                  :  Uniaxial Compressive Strength (lal)
VP   .FT/S                 :  Compressional velocity
VPVS .                     :  Vp / Vs ratio
VS   .FT/S                 :  Shear velocity
YM   .                     :  Youngs' Modulus
YM_STAT.                     :  Youngs' Modulus (Static)
~Parameter Information Block
#MNEM.UNIT            Value   Description
#---------- ----------------  -----------
PROJECT.          RDG_13Jul21:  
SET  .              GEOMECH:  
~Other Information Block
~Ascii Log Data
# ...
    3066.12560 
       44.3439        85.7068        38.0627       133.3510      1417.5354 
       54.0070        98.6186     16370.2920      8964.9473        36.9734 
       36.9734       107.2459        27.7079    0.000865099       0.285812 
     -999.2500     10348.6582      5213.0430     10519.3945      6933.9404 
      0.257231      3076.3132         2.4811         1.6355     13220.5068 
     4987.4028      6735.1362     18516.1191         1.8260     10140.0771 
       10.3346         7.8140
    3066.27800 
       44.3112        85.7911        38.0785       133.5037      1415.9187 
       54.0932        98.7683     16411.4395      8988.1797        36.9986 
       36.9986       107.7606        27.7376    0.000869588       0.285764 
     -999.2500     10349.2471      5213.1196     10520.0186      6933.8013 
      0.257188      3034.1206         2.4812         1.6353     13135.8438 
     4994.1514      6722.0923     18486.6113         1.8259     10124.7051 
       10.3453         7.8253
    3066.43040 
       44.3715        85.7197        37.3749       134.0645      1418.8999 
       53.9344        98.8208     16512.6699      9012.2822        37.7238 
       37.7238       110.2258        27.7972    0.000874258       0.287875 
     -999.2500     10349.8340      5213.1953     10519.7139      6952.2285 
      0.259088      2977.1323         2.4810         1.6396     13058.7217 
     5018.9644      6746.1548     18541.0430         1.8322     10119.3281 
       10.3845         7.8670
    3066.58280 
       44.4728        85.6598        36.5112       134.8084      1423.9313 
       53.6678        98.7583     16623.3711      9033.5703        38.6494 
       38.6494       113.1256        27.8805    0.000878393       0.290466 
     -999.2500     10350.4209      5213.2715     10519.1963      6974.9263 
      0.261420      2983.1875         2.4807         1.6449     13116.2275 
     5051.9644      6786.8716     18633.1465         1.8402     10125.7344 
       10.4366         7.9223
    3066.73520 
       44.4856        86.1955        36.7789       135.6121      1424.5679 
       53.6342        98.5636     16667.9492      9070.0049        38.6264 
       38.6264       113.2906        28.0483    0.000885493       0.289663 
     -999.2500     10351.0088      5213.3472     10520.1436      6968.3149 
      0.260697      3039.6458         2.4808         1.6432     13215.9209 
     5087.7207      6792.0317     18644.8184         1.8377     10145.7344 
       10.4928         7.9823
    3066.88760 
       44.4144        86.8858        37.6416       136.1300      1421.0265 
       53.8215        98.4837     16673.8066      9112.2588        38.0229 
       38.0229       111.9493        28.2018    0.000893763       0.287075 
     -999.2500     10351.5967      5213.4233     10521.8604      6946.3159 
      0.258368      3059.6057         2.4811         1.6380     13211.8438 
     5110.8242      6763.3481     18579.9355         1.8298     10153.9619 
       10.5291         8.0211
    3067.04000 
       44.2986        86.6600        38.1858       135.1341      1415.2950 
       54.1265        98.7772     16589.4141      9090.4277        37.3179 
       37.3179       109.9369        28.0506    0.000889485       0.285443 
     -999.2500     10352.1846      5213.4990     10523.1699      6932.4688 
      0.256898      2951.8501         2.4813         1.6346     12968.6367 
     5066.4399      6717.0645     18475.2402         1.8249     10123.7949 
       10.4594         7.9466
    3067.19240 
       44.3259        85.9074        37.3315       134.4834      1416.6422 
       54.0546        99.0624     16601.6797      9058.9102        37.8668 
       37.8668       111.4881        27.8729    0.000883328       0.288006 
     -999.2500     10352.7715      5213.5752     10522.6768      6954.6606 
      0.259205      2896.0945         2.4810         1.6398     12901.5107 
     5037.5356      6727.9282     18499.8145         1.8326     10094.6494 
       10.4138         7.8981
    3067.34480 
       44.4034        85.8524        36.8168       134.8880      1420.4834 
       53.8503        98.9419     16649.4043      9061.6377        38.4074 
       38.4074       112.9761        27.9152    0.000883860       0.289550 
     -999.2500     10353.3594      5213.6509     10522.6133      6968.2798 
      0.260595      2851.4561         2.4809         1.6429     12839.4717 
     5055.5024      6758.9556     18570.0000         1.8374     10106.9434 
       10.4422         7.9283
    3067.49720 
       44.3726        86.6717        37.7681       135.5753      1418.9543 
       53.9315        98.6234     16630.3926      9094.2090        37.7765 
       37.7765       111.1607        28.1061    0.000890225       0.286696 
     -999.2500     10353.9473      5213.7266     10524.4434      6944.0127 
      0.258026      2791.6560         2.4812         1.6371     12671.3369 
     5086.0801      6746.5952     18542.0391         1.8287     10139.5791 
       10.4903         7.9796
    3067.64960 
       44.3731        88.8939        39.6863       138.1014      1418.9825 
       53.9300        97.7085     16673.4414      9202.8740        36.8180 
       36.8180       108.6178        28.7082    0.000911627       0.280941 
     -999.2500     10354.5342      5213.8027     10527.4893      6895.4438 
      0.252847      2706.1809         2.4818         1.6255     12403.2490 
     5199.1772      6746.8232     18542.5566         1.8118     10234.5283 
       10.6671         8.1694
    3067.80200 
       44.4275        89.0748        39.4743       138.6753      1421.6794 
       53.7869        97.5478     16717.3242      9217.7666        37.1298 
       37.1298       109.5345        28.8020    0.000914580       0.281577 
     -999.2500     10355.1230      5213.8784     10527.8213      6901.1421 
      0.253419      2861.6047         2.4817         1.6268     12725.4932 
     5225.0225      6768.6318     18591.8887         1.8136     10251.3828 
       10.7073         8.2127
    3067.95440 
       44.4729        88.3605        38.1752       138.5458      1423.9352 
       53.6676        97.9448     16825.6719      9219.4102        38.1790 
       38.1790       113.1082        28.6904    0.000914906       0.285474 
     -999.2500     10355.7100      5213.9546     10526.7656      6934.5972 
      0.256927      2988.1047         2.4813         1.6346     13045.4043 
     5219.1851      6786.9023     18633.2168         1.8250     10209.8301 
       10.6982         8.2029
    3068.10680 
       44.4360        86.9105        37.1413       136.6797      1422.0986 
       53.7647        98.6244     16780.7441      9147.9551        38.5888 
       38.5888       114.2232        28.2719    0.000900779       0.288576 
     -999.2500     10356.2969      5214.0298     10526.0459      6961.3262 
      0.259719      3059.3655         2.4811         1.6408     13241.3838 
     5135.3921      6772.0254     18599.5645         1.8344     10139.4766 
       10.5676         8.0623
    3068.25920 
       44.4326        86.7800        37.2168       136.3432      1421.9325 
       53.7735        98.6035     16736.4277      9127.2275        38.4381 
       38.4381       113.4954        28.2138    0.000896701       0.288350 
     -999.2500     10356.8848      5214.1060     10526.7490      6959.5928 
      0.259515      3079.2876         2.4811         1.6403     13277.7607 
     5120.3452      6770.6802     18596.5215         1.8337     10141.6318 
       10.5440         8.0371
    3068.41160 
       44.3786        86.5967        37.7597       135.4338      1419.2554 
       53.9155        98.5983     16610.8242      9083.1299        37.7479 
       37.7479       110.9130        28.0790    0.000888058       0.286721 
     -999.2500     10357.4727      5214.1816     10528.0596      6945.7329 
      0.258049      3079.2878         2.4813         1.6370     13250.0420 
     5079.7798      6749.0278     18547.5410         1.8288     10142.1650 
       10.4804         7.9690
