~Version Information Block
VERS .                  2.0:  CWLS LOG ASCII STANDARD - VERSION 2.0
WRAP .                  YES:  Multiple lines per depth step
~Well Information Block
#MNEM.UNIT        Data Type   Information
#---------- ----------------  -----------
STRT .M          2776.00000:  START DEPTH
STOP .M          3750.44560:  STOP DEPTH
STEP .M             0.15240:  STEP
NULL .              -999.25:  NULL VALUE
COMP .                     :  COMPANY
WELL .      RAAG-102-07-105:  WELL
FLD  .                     :  FIELD
LOC  .                     :  LOCATION
CTRY .                     :  COUNTRY
STAT .                     :  STATE
CNTY .                     :  COUNTY
SRVC .                     :  SERVICE COMPANY
DATE .                     :  DATE
API  .                     :  API NUMBER
UWI  .                     :  UNIQUE WELL ID
~Curve Information Block
#MNEM.UNIT         API CODE   Curve Description
#---------- ----------------  -----------------
DEPTH.M                    :  
ANGLE_FAIL.DEG                  :  Fail Angle
BRIT_IND.                     :  Brittleness Index
BRIT_PR.                     :  Brittleness Index from Poisson's Ratio
BRIT_YM.                     :  Brittleness Index from Young's Modulus
CS   .M/MIN                 :  Compressive Strength
DTCO .US/F                 :  Compressional slowness
DTSM .US/F                 :  Fast Shear Slowness
IP   .RAYL/M2                 :  P Impedence
IS   .RAYL/M2                 :  S Impedance
KBULK.                     :  Bulk Mudulus
LAMBDA.                     :  Lambda
LAMRHO.                     :  
MU   .CP                   :  Mu
MURHO.(GF/C3S)2                 :  Mu*Rho
PR   .                     :  Poisson's ratio
PRESS_FG.PSI                  :  Fracture Gradient Pressure
PRESS_OB.PSI                  :  Over-burden Pressure
PRESS_PP.PSI                  :  Pore Pressure
PRESS_SHMAX.PSI                  :  Horizontal Stress (Max)
PRESS_SHMIN.PSI                  :  Horizontal Stress (Min)
PR_STAT.                     :  Poisson's ratio (Static)
PZS  .PSI                  :  Processed Zone Stress
SHMAX_GRAD.                     :  Horizontal Stress Gradient (Max)
SHMIN_GRAD.                     :  Horizontal Stress Gradient (Min)
STRESS_CUM.PSI                  :  Cumulative stress (SHPZ)
UCS_BF.PSI                  :  Uniaxial Compressive Strength (BF)
UCS_LAL.PSI                  :  Uniaxial Compressive Strength (lal)
VP   .FT/S                 :  Compressional velocity
VPVS .                     :  Vp / Vs ratio
VS   .FT/S                 :  Shear velocity
YM   .                     :  Youngs' Modulus
YM_STAT.                     :  Youngs' Modulus (Static)
~Parameter Information Block
#MNEM.UNIT            Value   Description
#---------- ----------------  -----------
PROJECT.          RDG_13Jul21:  
SET  .              GEOMECH:  
~Other Information Block
~Ascii Log Data
# ...
    3624.56320 
       41.8521        62.5255        34.8308        90.2202      1299.1603 
       60.8409       112.9263     13386.5156      7212.2056        28.1306 
       28.1306        75.1670        19.4665    0.000559895       0.295507 
     -999.2500     11967.3047      5347.5820     12181.4463      7684.4761 
      0.265957      2094.2161         2.5223         1.5912     12757.3838 
     3241.3276      5815.7056     16436.3105         1.8561      8855.3330 
        7.3154         4.8841
    3624.71560 
       41.3066        62.3559        37.4931        87.2187      1274.4854 
       62.4093       114.2818     13061.9404      7133.1270        25.7436 
       25.7436        68.8513        19.0247    0.000547684       0.287521 
     -999.2500     11967.9082      5347.6045     12186.5283      7595.5205 
      0.258769      2231.5459         2.5233         1.5727     12854.1328 
     3131.6653      5633.1025     16023.2520         1.8312      8750.2998 
        7.1053         4.7001
    3624.86800 
       40.5024        64.5311        44.4411        84.6212      1238.8450 
       64.7710       114.8284     12584.9307      7098.7544        21.5365 
       21.5365        57.5959        18.8429    0.000542418       0.266677 
     -999.2500     11968.5117      5347.6279     12198.3701      7371.3379 
      0.240009      2255.3809         2.5256         1.5262     12453.4375 
     3038.0054      5374.8223     15439.0078         1.7728      8708.6465 
        6.9235         4.5429
    3625.02040 
       40.0316        65.4478        48.3652        82.5304      1218.3762 
       66.1811       115.3911     12289.0859      7048.2495        19.3627 
       19.3627        51.6660        18.6176    0.000534728       0.254905 
     -999.2500     11969.1162      5347.6504     12205.0938      7249.5737 
      0.229414      2259.8853         2.5269         1.5009     12218.9180 
     2963.4563      5229.4004     15110.0537         1.7436      8666.1797 
        6.7771         4.4178
    3625.17280 
       39.9665        64.1541        47.3105        80.9978      1215.5668 
       66.3778       116.2408     12206.1865      6970.1846        19.4959 
       19.4959        51.8240        18.2768    0.000522948       0.258069 
     -999.2500     11969.7197      5347.6733     12204.1025      7282.0610 
      0.232262      2263.6875         2.5266         1.5076     12291.4971 
     2909.2866      5209.6060     15065.2773         1.7512      8602.8320 
        6.6698         4.3269
    3625.32520 
       40.0969        61.5411        43.5361        79.5461      1221.1953 
       65.9845       117.4483     12234.2793      6873.4307        20.8378 
       20.8378        55.1895        17.8378    0.000508531       0.269392 
     -999.2500     11970.3232      5347.6968     12198.8320      7400.1392 
      0.242453      2265.3010         2.5254         1.5319     12530.8799 
     2858.3464      5249.3027     15155.0762         1.7799      8514.3838 
        6.5682         4.2414
    3625.47760 
       40.6545        59.8306        38.8155        80.8456      1245.5195 
       64.3198       117.0203     12492.7861      6866.6162        23.4304 
       23.4304        61.7689        17.8853    0.000507523       0.283553 
     -999.2500     11970.9277      5347.7192     12191.8447      7552.5771 
      0.255198      2255.1445         2.5238         1.5634     12815.4434 
     2903.9272      5422.7007     15547.3125         1.8194      8545.5254 
        6.6592         4.3179
    3625.63000 
       41.0371        60.8103        38.2783        83.3423      1262.4445 
       63.1942       115.2730     12646.3711      6932.9097        24.3329 
       24.3329        63.8002        18.3317    0.000517370       0.285165 
     -999.2500     11971.5313      5347.7422     12191.5752      7570.6431 
      0.256649      2293.3274         2.5236         1.5671     12927.9404 
     2992.3193      5545.1230     15824.2373         1.8241      8675.0586 
        6.8340         4.4662
    3625.78240 
       41.0870        61.6695        39.8533        83.4857      1264.6660 
       63.0484       114.1382     12491.4463      6900.1064        23.5357 
       23.5357        60.8133        18.4264    0.000512486       0.280440 
     -999.2500     11972.1338      5347.7646     12194.7744      7519.3350 
      0.252396      2420.4243         2.5242         1.5564     13079.5186 
     2997.4268      5561.2998     15860.8311         1.8103      8761.3096 
        6.8440         4.4748
    3625.93480 
       40.8867        63.4432        44.1744        82.7120      1255.7692 
       63.6350       112.9467     12146.3164      6843.3232        21.2436 
       21.2436        53.8708        18.4675    0.000504086       0.267477 
     -999.2500     11972.7373      5347.7876     12202.3223      7381.0352 
      0.240729      2503.6196         2.5256         1.5277     12969.3096 
     2969.9019      5496.6650     15714.6221         1.7749      8853.7334 
        6.7898         4.4286
    3626.08720 
       41.1382        62.7330        42.8171        82.6489      1266.9465 
       62.8992       112.3178     12105.1465      6779.0146        21.8669 
       21.8669        54.6245        18.3964    0.000494656       0.271549 
     -999.2500     11973.3418      5347.8101     12200.7959      7424.2715 
      0.244394      2644.0374         2.5252         1.5366     13336.6182 
     2967.6624      5577.9316     15898.4531         1.7857      8903.3076 
        6.7854         4.4249
    3626.23960 
       41.6800        61.5836        38.7115        84.4557      1291.3295 
       61.3329       111.6423     12374.1621      6797.9902        24.3756 
       24.3756        60.6946        18.5595    0.000497429       0.283866 
     -999.2500     11973.9453      5347.8335     12194.7734      7557.3867 
      0.255479      2802.3901         2.5238         1.5641     13919.5537 
     3032.0769      5757.4185     16304.4619         1.8203      8957.1787 
        6.9119         4.5329
    3626.39200 
       41.8853        62.7185        38.5623        86.8746      1300.6757 
       60.7463       110.6546     12569.8701      6900.5093        25.0553 
       25.0553        62.7676        19.0076    0.000512545       0.284313 
     -999.2500     11974.5488      5347.8555     12195.1406      7562.7041 
      0.255882      2879.1252         2.5238         1.5651     14083.6582 
     3119.1938      5827.0210     16461.9082         1.8216      9037.1299 
        7.0812         4.6791
    3626.54440 
       41.7309        64.6951        41.3925        87.9978      1293.6414 
       61.1871       109.9731     12545.8672      6980.2998        23.8035 
       23.8035        59.9496        19.3465    0.000524467       0.275823 
     -999.2500     11975.1533      5347.8784     12200.3633      7470.9634 
      0.248240      2829.0093         2.5248         1.5461     13799.9463 
     3159.9836      5774.5938     16343.3145         1.7973      9093.1328 
        7.1598         4.7476
    3626.69680 
       41.6115        65.2024        42.4035        88.0014      1288.2238 
       61.5295       110.0777     12530.0146      7003.8301        23.2836 
       23.2836        58.8940        19.3933    0.000528009       0.272790 
     -999.2500     11975.7568      5347.9014     12202.6074      7438.7432 
      0.245511      2721.0127         2.5251         1.5393     13519.5117 
     3160.1121      5734.3882     16252.3682         1.7890      9084.4932 
        7.1601         4.7478
    3626.84920 
       41.6115        65.1651        42.1587        88.1714      1288.2238 
       61.5295       110.2003     12571.5664      7019.2383        23.4474 
       23.4474        59.5049        19.4143    0.000530335       0.273524 
     -999.2500     11976.3604      5347.9238     12202.8379      7446.7983 
      0.246171      2627.8533         2.5250         1.5409     13349.3027 
     3166.3064      5734.3882     16252.3682         1.7910      9074.3848 
        7.1720         4.7582
