~Version Information Block
VERS .                  2.0:  CWLS LOG ASCII STANDARD - VERSION 2.0
WRAP .                  YES:  Multiple lines per depth step
~Well Information Block
#MNEM.UNIT        Data Type   Information
#---------- ----------------  -----------
STRT .M          2656.78920:  START DEPTH
STOP .M          3640.98840:  STOP DEPTH
STEP .M             0.15240:  STEP
NULL .              -999.25:  NULL VALUE
COMP .                     :  COMPANY
WELL .       RAAG-98-07-214:  WELL
FLD  .                     :  FIELD
LOC  .                     :  LOCATION
CTRY .                     :  COUNTRY
STAT .                     :  STATE
CNTY .                     :  COUNTY
SRVC .                     :  SERVICE COMPANY
DATE .                     :  DATE
API  .                     :  API NUMBER
UWI  .                     :  UNIQUE WELL ID
~Curve Information Block
#MNEM.UNIT         API CODE   Curve Description
#---------- ----------------  -----------------
DEPTH.M                    :  
ANGLE_FAIL.DEG                  :  Fail Angle
BRIT_IND.                     :  Brittleness Index
BRIT_PR.                     :  Brittleness Index from Poisson's Ratio
BRIT_YM.                     :  Brittleness Index from Young's Modulus
CS   .M/MIN                 :  Compressive Strength
IP   .RAYL/M2                 :  P Impedence
IS   .RAYL/M2                 :  S Impedance
KBULK.                     :  Bulk Mudulus
LAMBDA.                     :  Lambda
LAMRHO.                     :  
MU   .CP                   :  Mu
MURHO.(GF/C3S)2                 :  Mu*Rho
PR   .                     :  Poisson's ratio
PRESS_FG.PSI                  :  Fracture Gradient Pressure
PRESS_OB.PSI                  :  Over-burden Pressure
PRESS_PP.PSI                  :  Pore Pressure
PRESS_SHMAX.PSI                  :  Horizontal Stress (Max)
PRESS_SHMIN.PSI                  :  Horizontal Stress (Min)
PR_STAT.                     :  Poisson's ratio (Static)
PZS  .PSI                  :  Processed Zone Stress
SHMAX_GRAD.                     :  Horizontal Stress Gradient (Max)
SHMIN_GRAD.                     :  Horizontal Stress Gradient (Min)
STRESS_CUM.PSI                  :  Cumulative stress (SHPZ)
UCS_BF.PSI                  :  Uniaxial Compressive Strength (BF)
UCS_LAL.PSI                  :  Uniaxial Compressive Strength (lal)
VP   .FT/S                 :  Compressional velocity
VPVS .                     :  Vp / Vs ratio
VS   .FT/S                 :  Shear velocity
YM   .                     :  Youngs' Modulus
YM_STAT.                     :  Youngs' Modulus (Static)
~Parameter Information Block
#MNEM.UNIT            Value   Description
#---------- ----------------  -----------
PROJECT.          RDG_13Jul21:  
SET  .              GEOMECH:  
~Other Information Block
~Ascii Log Data
# ...
    3566.16000 
       44.3283        77.8855        32.4548       123.3161      1416.7625 
    15971.4902      8496.6943        39.0876        39.0876       110.7009 
       25.4911    0.000777088       0.302636      -999.2500     12163.1514 
     5353.9985     12379.0293      7845.5991       0.272372      2389.4822 
        2.5265         1.6012     13670.1631      4552.7422      6728.8979 
    18502.0059         1.8797      9842.9072         9.6321         7.0846
    3566.31240 
       43.7942        75.4193        33.0897       117.7488      1390.5822 
    15643.1543      8350.6846        36.9680        36.9680       105.2404 
       24.4956    0.000750610       0.300731      -999.2500     12163.7461 
     5354.0151     12380.7871      7822.9302       0.270658      3026.2744 
        2.5267         1.5965     14898.4092      4319.0288      6519.4404 
    18028.2012         1.8733      9623.8789         9.2424         6.6925
    3566.46480 
       42.9365        72.8153        35.7783       109.8522      1349.4985 
    14992.5889      8117.0903        32.7117        32.7117        93.0034 
       23.1742    0.000709203       0.292665      -999.2500     12164.3418 
     5354.0313     12386.1152      7728.8647       0.263398      2778.0989 
        2.5277         1.5773     14213.9277      3996.6243      6197.8794 
    17300.8105         1.8470      9366.7783         8.6897         6.1515
    3566.61720 
       42.4115        70.5403        36.9754       104.1052      1324.9122 
    14523.3066      7910.7666        30.3743        30.3743        85.7660 
       22.1630    0.000673608       0.289074      -999.2500     12164.9375 
     5354.0479     12388.8086      7687.5049       0.260166      2624.6284 
        2.5281         1.5688     13824.2666      3768.6953      6009.5947 
    16874.9004         1.8359      9191.6670         8.2874         5.7690
    3566.76960 
       42.4581        66.7120        33.7161        99.7078      1327.0779 
    14321.4785      7670.8096        31.4664        31.4664        87.4221 
       21.1791    0.000633363       0.298852      -999.2500     12165.5332 
     5354.0640     12383.8105      7799.9985       0.268966      2585.7495 
        2.5270         1.5916     13971.4971      3598.1094      6026.0552 
    16912.1348         1.8670      9058.4063         7.9795         5.4828
    3566.92200 
       42.7289        61.4846        28.2805        94.6887      1339.7252 
    14188.4463      7371.2231        34.0928        34.0928        92.6422 
       19.9956    0.000584856       0.315158      -999.2500     12166.1289 
     5354.0801     12374.7432      7993.8442       0.283643      2644.5752 
        2.5250         1.6311     14476.8398      3407.4460      6122.6631 
    17130.6680         1.9248      8899.7744         7.6282         5.1628
    3567.07440 
       43.0361        57.4059        24.2873        90.5246      1354.2094 
    14000.9297      7096.4873        36.0668        36.0668        95.3058 
       19.0579    0.000542072       0.327138      -999.2500     12166.7256 
     5354.0967     12367.9893      8141.4380       0.294424      2836.8706 
        2.5236         1.6612     15156.6172      3252.5381      6234.3101 
    17383.2188         1.9729      8810.8291         7.3367         4.9029
    3567.22680 
       43.3602        61.7096        27.0081        96.4112      1369.6487 
    14158.7910      7299.8384        35.6867        35.6867        93.8961 
       20.2528    0.000573583       0.318976      -999.2500     12167.3203 
     5354.1128     12373.6328      8041.0762       0.287078      2776.6924 
        2.5246         1.6406     14835.5371      3472.3936      6354.5083 
    17655.1152         1.9396      9102.4355         7.7488         5.2718
    3567.37920 
       43.7613        69.9500        31.4858       108.4142      1388.9819 
    14763.3848      7812.2373        35.6359        35.6359        95.8954 
       22.6799    0.000656933       0.305543      -999.2500     12167.9160 
     5354.1289     12382.2910      7880.4009       0.274988      2709.5847 
        2.5262         1.6078     14379.9707      3939.0625      6506.7534 
    17999.5039         1.8898      9524.6719         8.5890         6.0549
    3567.53160 
       44.0206        72.2508        30.0322       114.4695      1401.6201 
    15499.5293      8134.8701        38.6692        38.6692       107.8832 
       23.7199    0.000712314       0.309904      -999.2500     12168.5117 
     5354.1450     12380.2773      7933.2148       0.278913      2660.3914 
        2.5257         1.6185     14387.2119      4183.8438      6607.3188 
    18226.9883         1.9053      9566.3662         9.0129         6.4656
    3567.68400 
       43.8184        71.9342        29.3047       114.5638      1391.7555 
    15769.1484      8241.7744        39.3571        39.3571       112.8123 
       23.6978    0.000731159       0.312086      -999.2500     12169.1074 
     5354.1611     12379.5771      7959.7085       0.280877      2642.4292 
        2.5255         1.6238     14404.2754      4187.7070      6528.7520 
    18049.2656         1.9133      9433.4814         9.0195         6.4721
    3567.83640 
       43.2623        70.0210        30.7611       109.2809      1364.9675 
    15327.4971      8077.9297        36.4909        36.4909       104.4263 
       22.8021    0.000702377       0.307717      -999.2500     12169.7021 
     5354.1777     12382.8350      7907.0513       0.276945      2691.7493 
        2.5260         1.6130     14397.6016      3973.7126      6317.9346 
    17572.3828         1.8975      9261.0342         8.6497         6.1130
    3567.98880 
       42.6731        67.3010        32.6351       101.9669      1337.1093 
    14589.7783      7769.2495        32.8877        32.8877        92.1392 
       21.5450    0.000649723       0.302095      -999.2500     12170.2988 
     5354.1934     12386.8125      7840.0293       0.271885      2403.5488 
        2.5267         1.5993     13687.1563      3685.3318      6102.6133 
    17085.3125         1.8779      9098.1543         8.1377         5.6291
    3568.14120 
       42.2514        65.2265        34.1312        96.3217      1317.4956 
    13984.2520      7506.6724        30.2464        30.2464        82.8590 
       20.5697    0.000606548       0.297606      -999.2500     12170.8945 
     5354.2095     12390.0762      7787.2554       0.267846      2141.6682 
        2.5273         1.5884     13057.8477      3469.0059      5953.4063 
    16747.7988         1.8629      8990.1289         7.7425         5.2661
    3568.29360 
       41.9467        63.6601        34.7447        92.5755      1303.4828 
    13637.1426      7343.9370        28.8204        28.8204        78.1048 
       19.9013    0.000580534       0.295766      -999.2500     12171.4902 
     5354.2256     12391.7754      7765.7998       0.266189      1966.5891 
        2.5275         1.5840     12664.7773      3328.4612      5848.0132 
    16509.3926         1.8569      8890.7148         7.4803         5.0303
    3568.44600 
       41.6326        62.7787        35.7091        89.8483      1289.1809 
    13382.1025      7242.5947        27.4831        27.4831        74.1703 
       19.4368    0.000564623       0.292873      -999.2500     12172.0859 
     5354.2422     12394.0703      7732.4038       0.263585      1847.3990 
        2.5279         1.5771     12359.6055      3227.6587      5741.4810 
    16268.4111         1.8477      8804.7080         7.2894         4.8611
    3568.59840 
       41.6663        61.6126        34.8298        88.3954      1290.7115 
    13267.6904      7148.1475        27.6401        27.6401        73.8396 
       19.1266    0.000549993       0.295511      -999.2500     12172.6807 
     5354.2578     12393.1680      7762.9429       0.265960      1638.1569 
        2.5276         1.5833     12002.1992      3174.4736      5752.8325 
    16294.0898         1.8561      8778.6602         7.1877         4.7719
