~Version Information Block
VERS .                  2.0:  CWLS LOG ASCII STANDARD - VERSION 2.0
WRAP .                  YES:  Multiple lines per depth step
~Well Information Block
#MNEM.UNIT        Data Type   Information
#---------- ----------------  -----------
STRT .M          2784.04320:  START DEPTH
STOP .M          3715.96920:  STOP DEPTH
STEP .M             0.15240:  STEP
NULL .              -999.25:  NULL VALUE
COMP .                     :  COMPANY
WELL .      RAAG-101-02-104:  WELL
FLD  .                     :  FIELD
LOC  .                     :  LOCATION
CTRY .                     :  COUNTRY
STAT .                     :  STATE
CNTY .                     :  COUNTY
SRVC .                     :  SERVICE COMPANY
DATE .                     :  DATE
API  .                     :  API NUMBER
UWI  .                     :  UNIQUE WELL ID
~Curve Information Block
#MNEM.UNIT         API CODE   Curve Description
#---------- ----------------  -----------------
DEPTH.M                    :  
ANGLE_FAIL.DEG                  :  Fail Angle
BRIT_IND.                     :  Brittleness Index
BRIT_PR.                     :  Brittleness Index from Poisson's Ratio
BRIT_YM.                     :  Brittleness Index from Young's Modulus
CS   .M/MIN                 :  Compressive Strength
DTCO .US/F                 :  Compressional slowness
DTSM .US/F                 :  Fast Shear slowness
IP   .RAYL/M2                 :  P Impedence
IS   .RAYL/M2                 :  S Impedance
KBULK.                     :  Bulk Mudulus
LAMBDA.                     :  Lambda
LAMRHO.                     :  
MU   .CP                   :  Mu
MURHO.(GF/C3S)2                 :  Mu*Rho
PR   .                     :  Poisson's ratio
PRESS_FG.PSI                  :  Fracture Gradient Pressure
PRESS_OB.PSI                  :  Over-burden Pressure
PRESS_PP.PSI                  :  Pore Pressure
PRESS_SHMAX.PSI                  :  Horizontal Stress (Max)
PRESS_SHMIN.PSI                  :  Horizontal Stress (Min)
PR_STAT.                     :  Poisson's ratio (Static)
PZS  .PSI                  :  Processed Zone Stress
SHMAX_GRAD.                     :  Horizontal Stress Gradient (Max)
SHMIN_GRAD.                     :  Horizontal Stress Gradient (Min)
STRESS_CUM.PSI                  :  Cumulative stress (SHPZ)
UCS_BF.PSI                  :  Uniaxial Compressive Strength (BF)
UCS_LAL.PSI                  :  Uniaxial Compressive Strength (lal)
VP   .FT/S                 :  Compressional velocity
VPVS .                     :  Vp / Vs ratio
VS   .FT/S                 :  Shear velocity
YM   .                     :  Youngs' Modulus
YM_STAT.                     :  Youngs' Modulus (Static)
~Parameter Information Block
#MNEM.UNIT            Value   Description
#---------- ----------------  -----------
PROJECT.          RDG_13Jul21:  
SET  .              GEOMECH:  
~Other Information Block
~Ascii Log Data
# ...
    3705.75840 
       43.9555    -25119.3008        41.7050    -50280.3047      1398.4396 
       55.0371        98.7772  -5533929.0000  -3083418.0000    -11618.1475 
   -11618.1475  11609433.0000     -9514.6025       102.3375       0.274885 
     -999.2500     12984.5576      5358.7026    -10749.8916    487673.5313 
      0.247396      -999.2500        -2.0704        93.9253      -999.2500 
215231696.0000      6581.9321     18169.5625         1.7947     10123.7939 
    -3518.6213    361159.4063
    3705.91080 
       43.4392    -24248.3750        43.9043    -48540.6523      1373.4323 
       56.4265       100.2717  -5397666.0000  -3037461.2500    -10690.4756 
   -10690.4756  10682458.0000     -9233.0957        99.3097       0.268287 
     -999.2500     12985.1709      5358.6929     -8934.5967    451380.5313 
      0.241458      -999.2500        -1.7207        86.9316      -999.2500 
200559888.0000      6384.1514     17722.1699         1.7770      9972.9033 
    -3396.8457    336540.0625
    3706.06320 
       42.8817    -23002.5254        44.0029    -46049.0547      1346.9128 
       57.9519       102.9375  -5255589.5000  -2958799.2500    -10119.8242 
   -10119.8242  10112235.0000     -8761.0635        94.2326       0.267991 
     -999.2500     12985.7852      5358.6831     -6702.2939    406747.3750 
      0.241192      -999.2500        -1.2907        78.3324      -999.2500 
180448352.0000      6177.9321     17255.6895         1.7763      9714.6328 
    -3222.4338    302792.7813
    3706.21560 
       42.2658    -21540.5410        42.8955    -43123.9766      1318.1611 
       59.6688       106.5117  -5104366.0000  -2859511.0000     -9708.2266 
    -9708.2266   9700945.0000     -8182.9409        88.0144       0.271313 
     -999.2500     12986.3984      5358.6733     -4312.1875    358958.1250 
      0.244182      -999.2500        -0.8304        69.1262      -999.2500 
158193536.0000      5958.4365     16759.1777         1.7850      9388.6396 
    -3017.6782    265449.0938
    3706.36800 
       41.7241    -20354.0371        42.0390    -40750.1133      1293.3318 
       61.2066       109.6819  -4976120.0000  -2776861.0000     -9346.8672 
    -9346.8672   9339857.0000     -7716.7451        83.0001       0.273883 
     -999.2500     12987.0117      5358.6636     -2475.8257    322243.7500 
      0.246495      -999.2500        -0.4768        62.0533      -999.2500 
141208784.0000      5772.2920     16338.1064         1.7920      9117.2744 
    -2851.5081    236948.5938
    3706.52040 
       41.3443    -19643.5273        42.0256    -39329.0820      1276.1765 
       62.3001       111.6483  -4888779.0000  -2727953.7500     -9023.4619 
    -9023.4619   9016695.0000     -7447.3174        80.1021       0.273923 
     -999.2500     12987.6260      5358.6533     -1395.1931    300644.0313 
      0.246531      -999.2500        -0.2687        57.8915      -999.2500 
131502824.0000      5645.5186     16051.3398         1.7921      8956.6973 
    -2752.0356    220661.9063
    3706.67280 
       41.2136    -19281.3867        41.0817    -38603.8555      1270.3176 
       62.6795       112.8177  -4859187.0000  -2699677.2500     -9041.9619 
    -9041.9619   9035180.0000     -7293.7280        78.4502       0.276755 
     -999.2500     12988.2393      5358.6440      -907.4264    290901.5625 
      0.249079      -999.2500        -0.1747        56.0132      -999.2500 
126682560.0000      5602.5669     15954.1797         1.7999      8863.8574 
    -2701.2700    212573.4844
    3706.82520 
       41.1978      -999.2500        41.1352      -999.2500      1269.6121 
       62.7254       112.8723      -999.2500      -999.2500      -999.2500 
     -999.2500      -999.2500      -999.2500      -999.2500       0.276594 
     -999.2500     12988.8525      5358.6343      -999.2500      -999.2500 
      0.248935      -999.2500      -999.2500      -999.2500      -999.2500 
     -999.2500      5597.4063     15942.5049         1.7995      8859.5693 
     -999.2500      -999.2500
    3706.97760 
       41.1967      -999.2500        41.7557      -999.2500      1269.5598 
       62.7288       112.5556      -999.2500      -999.2500      -999.2500 
     -999.2500      -999.2500      -999.2500      -999.2500       0.274733 
     -999.2500     12989.4678      5358.6240      -999.2500      -999.2500 
      0.247260      -999.2500      -999.2500      -999.2500      -999.2500 
     -999.2500      5597.0239     15941.6406         1.7943      8884.4980 
     -999.2500      -999.2500
    3707.13000 
       41.1982      -999.2500        42.1422      -999.2500      1269.6290 
       62.7243       112.3487      -999.2500      -999.2500      -999.2500 
     -999.2500      -999.2500      -999.2500      -999.2500       0.273574 
     -999.2500     12990.0811      5358.6147      -999.2500      -999.2500 
      0.246216      -999.2500      -999.2500      -999.2500      -999.2500 
     -999.2500      5597.5293     15942.7852         1.7912      8900.8594 
     -999.2500      -999.2500
    3707.28240 
       41.1977      -999.2500        42.2886      -999.2500      1269.6074 
       62.7257       112.2763      -999.2500      -999.2500      -999.2500 
     -999.2500      -999.2500      -999.2500      -999.2500       0.273134 
     -999.2500     12990.6943      5358.6050      -999.2500      -999.2500 
      0.245821      -999.2500      -999.2500      -999.2500      -999.2500 
     -999.2500      5597.3721     15942.4297         1.7900      8906.5996 
     -999.2500      -999.2500
    3707.43480 
       41.1981      -999.2500        42.3297      -999.2500      1269.6260 
       62.7245       112.2532      -999.2500      -999.2500      -999.2500 
     -999.2500      -999.2500      -999.2500      -999.2500       0.273011 
     -999.2500     12991.3076      5358.5947      -999.2500      -999.2500 
      0.245710      -999.2500      -999.2500      -999.2500      -999.2500 
     -999.2500      5597.5073     15942.7334         1.7896      8908.4316 
     -999.2500      -999.2500
    3707.58720 
       41.1964      -999.2500        42.3028      -999.2500      1269.5507 
       62.7294       112.2757      -999.2500      -999.2500      -999.2500 
     -999.2500      -999.2500      -999.2500      -999.2500       0.273092 
     -999.2500     12991.9219      5358.5854      -999.2500      -999.2500 
      0.245783      -999.2500      -999.2500      -999.2500      -999.2500 
     -999.2500      5596.9565     15941.4893         1.7898      8906.6465 
     -999.2500      -999.2500
    3707.73960 
       41.1947      -999.2500        42.0287      -999.2500      1269.4723 
       62.7345       112.4252      -999.2500      -999.2500      -999.2500 
     -999.2500      -999.2500      -999.2500      -999.2500       0.273914 
     -999.2500     12992.5352      5358.5752      -999.2500      -999.2500 
      0.246523      -999.2500      -999.2500      -999.2500      -999.2500 
     -999.2500      5596.3838     15940.1934         1.7921      8894.8027 
     -999.2500      -999.2500
    3707.89200 
       41.1979      -999.2500        41.7543      -999.2500      1269.6167 
       62.7251       112.5497      -999.2500      -999.2500      -999.2500 
     -999.2500      -999.2500      -999.2500      -999.2500       0.274737 
     -999.2500     12993.1484      5358.5654      -999.2500      -999.2500 
      0.247263      -999.2500      -999.2500      -999.2500      -999.2500 
     -999.2500      5597.4395     15942.5811         1.7943      8884.9639 
     -999.2500      -999.2500
    3708.04440 
       41.1979      -999.2500        41.1689      -999.2500      1269.6151 
       62.7252       112.8543      -999.2500      -999.2500      -999.2500 
     -999.2500      -999.2500      -999.2500      -999.2500       0.276493 
     -999.2500     12993.7627      5358.5552      -999.2500      -999.2500 
      0.248844      -999.2500      -999.2500      -999.2500      -999.2500 
     -999.2500      5597.4282     15942.5557         1.7992      8860.9824 
     -999.2500      -999.2500
