~Version Information Block
VERS .                  2.0:  CWLS LOG ASCII STANDARD - VERSION 2.0
WRAP .                  YES:  Multiple lines per depth step
~Well Information Block
#MNEM.UNIT        Data Type   Information
#---------- ----------------  -----------
STRT .M          2784.04320:  START DEPTH
STOP .M          3715.96920:  STOP DEPTH
STEP .M             0.15240:  STEP
NULL .              -999.25:  NULL VALUE
COMP .                     :  COMPANY
WELL .      RAAG-101-02-104:  WELL
FLD  .                     :  FIELD
LOC  .                     :  LOCATION
CTRY .                     :  COUNTRY
STAT .                     :  STATE
CNTY .                     :  COUNTY
SRVC .                     :  SERVICE COMPANY
DATE .                     :  DATE
API  .                     :  API NUMBER
UWI  .                     :  UNIQUE WELL ID
~Curve Information Block
#MNEM.UNIT         API CODE   Curve Description
#---------- ----------------  -----------------
DEPTH.M                    :  
ANGLE_FAIL.DEG                  :  Fail Angle
BRIT_IND.                     :  Brittleness Index
BRIT_PR.                     :  Brittleness Index from Poisson's Ratio
BRIT_YM.                     :  Brittleness Index from Young's Modulus
CS   .M/MIN                 :  Compressive Strength
DTCO .US/F                 :  Compressional slowness
DTSM .US/F                 :  Fast Shear slowness
IP   .RAYL/M2                 :  P Impedence
IS   .RAYL/M2                 :  S Impedance
KBULK.                     :  Bulk Mudulus
LAMBDA.                     :  Lambda
LAMRHO.                     :  
MU   .CP                   :  Mu
MURHO.(GF/C3S)2                 :  Mu*Rho
PR   .                     :  Poisson's ratio
PRESS_FG.PSI                  :  Fracture Gradient Pressure
PRESS_OB.PSI                  :  Over-burden Pressure
PRESS_PP.PSI                  :  Pore Pressure
PRESS_SHMAX.PSI                  :  Horizontal Stress (Max)
PRESS_SHMIN.PSI                  :  Horizontal Stress (Min)
PR_STAT.                     :  Poisson's ratio (Static)
PZS  .PSI                  :  Processed Zone Stress
SHMAX_GRAD.                     :  Horizontal Stress Gradient (Max)
SHMIN_GRAD.                     :  Horizontal Stress Gradient (Min)
STRESS_CUM.PSI                  :  Cumulative stress (SHPZ)
UCS_BF.PSI                  :  Uniaxial Compressive Strength (BF)
UCS_LAL.PSI                  :  Uniaxial Compressive Strength (lal)
VP   .FT/S                 :  Compressional velocity
VPVS .                     :  Vp / Vs ratio
VS   .FT/S                 :  Shear velocity
YM   .                     :  Youngs' Modulus
YM_STAT.                     :  Youngs' Modulus (Static)
~Parameter Information Block
#MNEM.UNIT            Value   Description
#---------- ----------------  -----------
PROJECT.          RDG_13Jul21:  
SET  .              GEOMECH:  
~Other Information Block
~Ascii Log Data
# ...
    3532.63200 
       34.0880        50.8915        59.5316        42.2514       981.5369 
       85.8526       143.5234      8793.0195      5259.7939         8.8772 
        8.8772        21.9863        11.1702         0.0003       0.221405 
     -999.2500     12291.3672      5357.0825     12555.6836      7005.0288 
      0.199265      1958.7952         2.5387         1.4164     11127.6475 
     1673.2875      3698.8555     11647.8711         1.6717      6967.5044 
        3.9576         2.2529
    3532.78440 
       33.7024        46.5790        54.1506        39.0075       967.3709 
       87.2560       148.7225      8642.5068      5070.5884         9.4059 
        9.4059        23.2712        10.3919         0.0003       0.237548 
     -999.2500     12291.9736      5357.0952     12548.1943      7167.5610 
      0.213793      1686.2578         2.5371         1.4492     10907.6377 
     1581.4613      3616.0369     11460.5303         1.7044      6723.9326 
        3.7305         2.0988
    3532.93680 
       33.4507        42.4472        48.6519        36.2425       958.1911 
       88.1811       153.5690      8531.4824      4898.8760        10.0429 
       10.0429        24.7882         9.7232         0.0003       0.254044 
     -999.2500     12292.5801      5357.1074     12540.2080      7340.0293 
      0.228640      1718.6241         2.5354         1.4840     11317.3066 
     1504.6139      3562.8855     11340.2988         1.7415      6511.7305 
        3.5370         1.9699
    3533.08920 
       33.6309        39.8394        43.9250        35.7537       964.7575 
       87.5181       155.5082      8631.7070      4857.8184        11.0188 
       11.0188        27.3096         9.5214         0.0003       0.268225 
     -999.2500     12293.1875      5357.1201     12533.1543      7493.8486 
      0.241402      1580.1744         2.5338         1.5150     11348.0459 
     1491.1655      3600.8640     11426.2080         1.7769      6430.5293 
        3.5028         1.9473
    3533.24160 
       35.1016        37.4392        35.5433        39.3352      1019.4041 
       82.2406       152.0848      9231.4336      4991.9434        14.2044 
       14.2044        35.3804        10.0046         0.0003       0.293370 
     -999.2500     12293.7939      5357.1328     12519.4902      7779.8765 
      0.264033      1771.5378         2.5310         1.5728     12302.8291 
     1590.6580      3925.0093     12159.4443         1.8493      6575.2793 
        3.7535         2.1142
    3533.39400 
       37.4858        36.7809        26.5886        46.9733      1112.3423 
       74.1714       144.2323     10303.3750      5298.5063        19.9465 
       19.9465        50.0112        11.1971         0.0003       0.320234 
     -999.2500     12294.4004      5357.1450     12503.8291      8105.8384 
      0.288211      2690.1289         2.5277         1.6386     14791.9336 
     1810.1675      4509.8042     13482.2852         1.9446      6933.2598 
        4.2881         2.4826
    3533.54640 
       39.0142        39.0076        23.7274        54.2878      1175.0865 
       69.2996       137.2213     11101.3359      5606.4048        23.9207 
       23.9207        60.3761        12.4531         0.0003       0.328818 
     -999.2500     12295.0068      5357.1572     12498.9951      8215.2520 
      0.295936      2032.9597         2.5266         1.6607     13696.4238 
     2029.7372      4928.8086     14430.0986         1.9801      7287.4985 
        4.8001         2.8510
    3533.69880 
       39.3457        44.0529        28.0429        60.0629      1189.0519 
       68.2728       131.6000     11347.3848      5886.9121        23.3903 
       23.3903        59.4517        13.6347         0.0004       0.315871 
     -999.2500     12295.6152      5357.1694     12507.7480      8052.9580 
      0.284284      2078.8186         2.5283         1.6278     13463.5537 
     2209.5657      5024.7495     14647.1221         1.9276      7598.7842 
        5.2044         3.1528
    3533.85120 
       39.1938        50.0275        35.5034        64.5516      1182.6377 
       68.7419       127.1481     11348.5195      6135.5122        20.9029 
       20.9029        53.4999        14.7081         0.0004       0.293490 
     -999.2500     12296.2217      5357.1821     12521.8369      7783.9165 
      0.264141      2209.5112         2.5310         1.5733     13186.8555 
     2353.2776      4980.5630     14547.1689         1.8496      7864.8442 
        5.5186         3.3939
    3534.00360 
       39.0071        54.8036        41.9270        67.6802      1174.7915 
       69.3215       124.2874     11348.7373      6329.7769        18.8533 
       18.8533        48.6617        15.5230         0.0004       0.274219 
     -999.2500     12296.8281      5357.1943     12533.4814      7563.7563 
      0.246797      2175.5586         2.5332         1.5288     12678.6299 
     2455.4834      4926.7930     14425.5391         1.7929      8045.8682 
        5.7376         3.5654
    3534.15600 
       39.0986        56.3087        42.9350        69.6824      1178.6306 
       69.0371       123.2127     11500.1309      6443.6191        18.8932 
       18.8932        49.2126        15.9400         0.0004       0.271195 
     -999.2500     12297.4355      5357.2065     12535.7871      7530.4067 
      0.244076      2256.6550         2.5336         1.5220     12774.1230 
     2521.7712      4953.0640     14484.9639         1.7847      8116.0464 
        5.8778         3.6767
    3534.30840 
       39.6801        55.5344        38.6728        72.3961      1203.2742 
       67.2476       122.4316     11913.8359      6543.8726        21.4169 
       21.4169        56.2949        16.2913         0.0005       0.283982 
     -999.2500     12298.0420      5357.2188     12529.1934      7675.0254 
      0.255583      2302.5676         2.5322         1.5511     13155.1865 
     2612.7090      5123.4639     14870.4199         1.8206      8167.8257 
        6.0677         3.8292
    3534.46080 
       40.7096        55.8032        33.5937        78.0128      1247.9430 
       64.1570       119.8599     12594.7100      6741.5269        25.5485 
       25.5485        67.7303        17.1435         0.0005       0.299219 
     -999.2500     12298.6494      5357.2314     12520.9072      7853.4834 
      0.269297      2248.5959         2.5304         1.5871     13404.1582 
     2804.9314      5440.1421     15586.7637         1.8682      8343.0742 
        6.4609         4.1518
    3534.61320 
       41.7225        58.8327        31.5781        86.0873      1293.2635 
       61.2109       115.6157     13295.2080      7038.9375        29.0898 
       29.0898        77.6693        18.5569         0.0005       0.305266 
     -999.2500     12299.2568      5357.2437     12517.8789      7926.8047 
      0.274739      2732.8813         2.5296         1.6019     14519.3721 
     3090.7288      5771.7847     16336.9600         1.8888      8649.3438 
        7.0261         4.6314
    3534.76560 
       42.4132        63.6055        33.0482        94.1628      1324.9885 
       59.2550       111.0259     13730.6309      7328.0967        30.3928 
       30.3928        81.1282        20.1179         0.0006       0.300855 
     -999.2500     12299.8633      5357.2559     12521.1172      7874.7842 
      0.270770      2072.3887         2.5302         1.5913     13094.3457 
     3387.7202      6010.1748     16876.2129         1.8737      9006.9072 
        7.5914         5.1297
    3534.91800 
       42.7927        70.4226        38.1097       102.7355      1342.7220 
       58.1980       106.2470     13977.5918      7656.3848        29.2757 
       29.2757        78.1326        21.9645         0.0006       0.285671 
     -999.2500     12300.4697      5357.2681     12530.6045      7697.7734 
      0.257104      2383.9404         2.5320         1.5555     13363.4287 
     3715.2068      6145.6743     17182.7188         1.8256      9412.0303 
        8.1915         5.6792
