~Version Information Block
VERS .                  2.0:  CWLS LOG ASCII STANDARD - VERSION 2.0
WRAP .                  YES:  Multiple lines per depth step
~Well Information Block
#MNEM.UNIT        Data Type   Information
#---------- ----------------  -----------
STRT .M          2676.97280:  START DEPTH
STOP .M          3838.10840:  STOP DEPTH
STEP .M             0.15240:  STEP
NULL .              -999.25:  NULL VALUE
COMP .                     :  COMPANY
WELL .      RAAG-107-07-210:  WELL
FLD  .                     :  FIELD
LOC  .                     :  LOCATION
CTRY .                     :  COUNTRY
STAT .                     :  STATE
CNTY .                     :  COUNTY
SRVC .                     :  SERVICE COMPANY
DATE .                     :  DATE
API  .                     :  API NUMBER
UWI  .                     :  UNIQUE WELL ID
~Curve Information Block
#MNEM.UNIT         API CODE   Curve Description
#---------- ----------------  -----------------
DEPTH.M                    :  
ANGLE_FAIL.DEG                  :  Fail Angle
BRIT_IND.                     :  Brittleness Index
BRIT_PR.                     :  Brittleness Index from Poisson's Ratio
BRIT_YM.                     :  Brittleness Index from Young's Modulus
CS   .M/MIN                 :  Compressive Strength
DTCO .US/F                 :  Compressional slowness
DTSM .US/F                 :  Fast Shear Slowness
IP   .RAYL/M2                 :  P Impedence
IS   .RAYL/M2                 :  S Impedance
KBULK.                     :  Bulk Mudulus
LAMBDA.                     :  Lambda
LAMRHO.                     :  
MU   .CP                   :  Mu
MURHO.(GF/C3S)2                 :  Mu*Rho
PR   .                     :  Poisson's ratio
PRESS_FG.PSI                  :  Fracture Gradient Pressure
PRESS_OB.PSI                  :  Over-burden Pressure
PRESS_PP.PSI                  :  Pore Pressure
PRESS_SHMAX.PSI                  :  Horizontal Stress (Max)
PRESS_SHMIN.PSI                  :  Horizontal Stress (Min)
PR_STAT.                     :  Poisson's ratio (Static)
PZS  .PSI                  :  Processed Zone Stress
SHMAX_GRAD.                     :  Horizontal Stress Gradient (Max)
SHMIN_GRAD.                     :  Horizontal Stress Gradient (Min)
STRESS_CUM.PSI                  :  Cumulative stress (SHPZ)
UCS_BF.PSI                  :  Uniaxial Compressive Strength (BF)
UCS_LAL.PSI                  :  Uniaxial Compressive Strength (lal)
VP   .FT/S                 :  Compressional velocity
VPVS .                     :  Vp / Vs ratio
VS   .FT/S                 :  Shear velocity
YM   .                     :  Youngs' Modulus
YM_STAT.                     :  Youngs' Modulus (Static)
~Parameter Information Block
#MNEM.UNIT            Value   Description
#---------- ----------------  -----------
PROJECT.          RDG_13Jul21:  
SET  .              GEOMECH:  
~Other Information Block
~Ascii Log Data
# ...
    3230.48960 
       37.7205        48.3355        39.4981        57.1729      1121.8073 
       73.4084       133.1182     10657.0088      5876.8369        17.3368 
       17.3368        44.4974        13.4562    0.000371756       0.281506 
     -999.2500     10061.9580      5173.5112     10226.6582      6767.9414 
      0.253355      2294.5398         2.4740         1.6373     11324.9619 
     2118.8623      4571.7539     13622.4189         1.8134      7512.1211 
        5.0021         3.0006
    3230.64200 
       37.5896        48.6942        40.5873        56.8011      1116.5208 
       73.8333       133.2005     10580.5664      5864.8286        16.8382 
       16.8382        43.1560        13.4204    0.000370238       0.278238 
     -999.2500     10062.5352      5173.5957     10228.5664      6741.9180 
      0.250414      2199.8591         2.4744         1.6309     11083.5547 
     2107.2971      4537.0977     13544.0244         1.8041      7507.4795 
        4.9761         2.9812
    3230.79440 
       37.7810        49.7297        41.1033        58.3562      1124.2568 
       73.2126       131.7632     10682.5898      5935.6494        17.0128 
       17.0128        43.6539        13.7306    0.000379233       0.276690 
     -999.2500     10063.1123      5173.6802     10229.7725      6729.9097 
      0.249021      2189.1409         2.4745         1.6279     11038.1006 
     2155.8286      4587.8594     13658.8506         1.7997      7589.3726 
        5.0849         3.0626
    3230.94680 
       38.0834        51.2873        41.6456        60.9290      1136.5632 
       72.2392       129.6859     10873.1611      6056.6987        17.4073 
       17.4073        44.8584        14.2350    0.000394859       0.275063 
     -999.2500     10063.6885      5173.7651     10231.0039      6717.3901 
      0.247557      2248.0068         2.4747         1.6248     11130.7939 
     2237.0264      4669.2231     13842.9004         1.7952      7710.9390 
        5.2650         3.1988
    3231.09920 
       38.2196        53.4010        43.5551        63.2469      1142.1395 
       71.8037       127.7953     10999.2549      6180.0962        17.2110 
       17.2110        44.5964        14.7399    0.000411112       0.269335 
     -999.2500     10064.2666      5173.8491     10233.8496      6672.6040 
      0.242401      2378.4050         2.4753         1.6139     11302.0176 
     2311.1497      4706.3389     13926.8574         1.7798      7825.0137 
        5.4273         3.3232
    3231.25160 
       38.0938        54.8262        45.9185        63.7339      1136.9880 
       72.2059       127.1931     10964.4531      6224.3804        16.4522 
       16.4522        42.7334        14.9158    0.000417025       0.262244 
     -999.2500     10064.8438      5173.9341     10237.1973      6617.7793 
      0.236020      2526.7607         2.4759         1.6006     11489.0801 
     2326.8416      4672.0449     13849.2842         1.7615      7862.0620 
        5.4614         3.3496
    3231.40400 
       37.7400        54.6737        47.4635        61.8838      1122.5970 
       73.3452       128.3601     10771.9922      6155.1362        15.5335 
       15.5335        40.2644        14.6158    0.000407798       0.257609 
     -999.2500     10065.4209      5174.0181     10239.5732      6582.3564 
      0.231849      2625.9375         2.4764         1.5919     11616.5879 
     2267.4487      4576.9434     13634.1582         1.7501      7790.5825 
        5.3319         3.2499
    3231.55640 
       37.3484        53.0809        47.3402        58.8217      1106.8304 
       74.6205       130.6592     10526.4492      6011.7383        14.9489 
       14.9489        38.5241        14.0241    0.000389018       0.257979 
     -999.2500     10065.9980      5174.1021     10240.0381      6585.1987 
      0.232181      2628.8489         2.4764         1.5925     11628.0947 
     2170.4353      4473.9336     13401.1436         1.7510      7653.4985 
        5.1175         3.0871
    3231.70880 
       37.1054        50.6758        45.4542        55.8973      1097.1255 
       75.4199       133.1197     10331.9131      5853.6177        14.9494 
       14.9494        38.2188        13.4028    0.000368824       0.263637 
     -999.2500     10066.5752      5174.1870     10238.4688      6628.6958 
      0.237274      2623.6328         2.4759         1.6029     11704.6572 
     2079.2832      4411.1396     13259.1006         1.7650      7512.0356 
        4.9128         2.9342
    3231.86120 
       36.9839        48.9176        43.8765        53.9586      1092.2991 
       75.8216       134.7540     10201.9453      5740.2964        15.0435 
       15.0435        38.1777        12.9840    0.000354682       0.268371 
     -999.2500     10067.1523      5174.2710     10237.2295      6665.6143 
      0.241534      2615.8208         2.4754         1.6118     11762.8701 
     2019.6602      4380.0854     13188.8535         1.7773      7420.9297 
        4.7771         2.8341
    3232.01360 
       36.9337        48.9960        44.4676        53.5245      1090.3073 
       75.9882       134.6990     10120.7148      5709.4326        14.7568 
       14.7568        37.2336        12.9194    0.000350878       0.266597 
     -999.2500     10067.7295      5174.3555     10238.5166      6651.9829 
      0.239937      2540.9155         2.4756         1.6084     11585.7979 
     2006.3964      4367.3027     13159.9385         1.7726      7423.9600 
        4.7467         2.8119
    3232.16600 
       37.0246        51.0792        47.2225        54.9359      1093.9163 
       75.6867       132.5913     10116.4766      5774.7583        14.1904 
       14.1904        35.6474        13.2750    0.000358953       0.258332 
     -999.2500     10068.3066      5174.4395     10242.2939      6588.5591 
      0.232499      2366.3147         2.4764         1.5930     11109.7471 
     2049.6362      4390.4775     13212.3613         1.7518      7541.9731 
        4.8455         2.8844
    3232.31840 
       37.4578        54.1476        49.8228        58.4724      1111.2183 
       74.2627       128.7181     10277.0234      5929.2329        14.1000 
       14.1000        35.3056        14.0402    0.000378414       0.250532 
     -999.2500     10068.8838      5174.5239     10245.8291      6529.9673 
      0.225478      2108.4019         2.4771         1.5787     10476.7383 
     2159.4702      4502.4766     13465.7090         1.7333      7768.9160 
        5.0931         3.0687
    3232.47080 
       38.2280        56.4562        49.5793        63.3332      1142.4816 
       71.7771       124.5317     10611.2246      6116.0562        15.1214 
       15.1214        37.7858        14.9695    0.000402636       0.251262 
     -999.2500     10069.4609      5174.6079     10246.1328      6536.0161 
      0.226136      1857.8467         2.4771         1.5801      9987.7256 
     2313.9292      4708.6211     13932.0205         1.7350      8030.0840 
        5.4333         3.3279
    3232.62320 
       38.8835        57.5411        47.9885        67.0938      1169.6167 
       69.7073       121.7280     10904.0664      6244.1919        16.4086 
       16.4086        40.9188        15.6351    0.000419684       0.256035 
     -999.2500     10070.0391      5174.6924     10244.9111      6572.5864 
      0.230431      1694.1965         2.4766         1.5889      9733.5654 
     2436.2002      4891.4985     14345.7002         1.7463      8215.0371 
        5.6966         3.5331
    3232.77560 
       39.1794        58.2778        47.6935        68.8621      1182.0321 
       68.7864       120.2667     11012.9482      6298.8428        16.8724 
       16.8724        41.9342        15.9636    0.000427063       0.256919 
     -999.2500     10070.6152      5174.7764     10245.1621      6579.6782 
      0.231227      1650.8840         2.4766         1.5905      9661.1240 
     2494.5291      4976.4023     14537.7568         1.7484      8314.8535 
        5.8203         3.6309
