~Version Information Block
VERS .                  2.0:  CWLS LOG ASCII STANDARD - VERSION 2.0
WRAP .                  YES:  Multiple lines per depth step
~Well Information Block
#MNEM.UNIT        Data Type   Information
#---------- ----------------  -----------
STRT .M          2776.00000:  START DEPTH
STOP .M          3750.44560:  STOP DEPTH
STEP .M             0.15240:  STEP
NULL .              -999.25:  NULL VALUE
COMP .                     :  COMPANY
WELL .      RAAG-102-07-105:  WELL
FLD  .                     :  FIELD
LOC  .                     :  LOCATION
CTRY .                     :  COUNTRY
STAT .                     :  STATE
CNTY .                     :  COUNTY
SRVC .                     :  SERVICE COMPANY
DATE .                     :  DATE
API  .                     :  API NUMBER
UWI  .                     :  UNIQUE WELL ID
~Curve Information Block
#MNEM.UNIT         API CODE   Curve Description
#---------- ----------------  -----------------
DEPTH.M                    :  
ANGLE_FAIL.DEG                  :  Fail Angle
BRIT_IND.                     :  Brittleness Index
BRIT_PR.                     :  Brittleness Index from Poisson's Ratio
BRIT_YM.                     :  Brittleness Index from Young's Modulus
CS   .M/MIN                 :  Compressive Strength
DTCO .US/F                 :  Compressional slowness
DTSM .US/F                 :  Fast Shear Slowness
IP   .RAYL/M2                 :  P Impedence
IS   .RAYL/M2                 :  S Impedance
KBULK.                     :  Bulk Mudulus
LAMBDA.                     :  Lambda
LAMRHO.                     :  
MU   .CP                   :  Mu
MURHO.(GF/C3S)2                 :  Mu*Rho
PR   .                     :  Poisson's ratio
PRESS_FG.PSI                  :  Fracture Gradient Pressure
PRESS_OB.PSI                  :  Over-burden Pressure
PRESS_PP.PSI                  :  Pore Pressure
PRESS_SHMAX.PSI                  :  Horizontal Stress (Max)
PRESS_SHMIN.PSI                  :  Horizontal Stress (Min)
PR_STAT.                     :  Poisson's ratio (Static)
PZS  .PSI                  :  Processed Zone Stress
SHMAX_GRAD.                     :  Horizontal Stress Gradient (Max)
SHMIN_GRAD.                     :  Horizontal Stress Gradient (Min)
STRESS_CUM.PSI                  :  Cumulative stress (SHPZ)
UCS_BF.PSI                  :  Uniaxial Compressive Strength (BF)
UCS_LAL.PSI                  :  Uniaxial Compressive Strength (lal)
VP   .FT/S                 :  Compressional velocity
VPVS .                     :  Vp / Vs ratio
VS   .FT/S                 :  Shear velocity
YM   .                     :  Youngs' Modulus
YM_STAT.                     :  Youngs' Modulus (Static)
~Parameter Information Block
#MNEM.UNIT            Value   Description
#---------- ----------------  -----------
PROJECT.          RDG_13Jul21:  
SET  .              GEOMECH:  
~Other Information Block
~Ascii Log Data
# ...
    2934.49600 
       28.9813        13.6543        15.2727        12.0360       803.3397 
      105.8365       222.7332      7213.4487      3427.6265        11.3930 
       11.3930        28.5366         4.6905    0.000126461       0.354182 
     -999.2500      9294.7070      5043.3901      9410.4238      6980.3667 
      0.318764      2885.4670         2.4462         1.8145     12931.6680 
      887.7059      2726.5845      9448.5361         2.1045      4489.6763 
        1.8425         0.9347
    2934.64840 
       29.1382        14.5694        16.2779        12.8609       808.5374 
      105.1755       219.5992      7293.3281      3493.0884        11.4395 
       11.4395        28.7893         4.8483    0.000131338       0.351166 
     -999.2500      9295.2842      5043.5015      9412.2793      6955.3833 
      0.316050      2916.6050         2.4466         1.8079     12943.9766 
      907.0793      2752.8357      9507.9180         2.0879      4553.7505 
        1.9003         0.9672
    2934.80080 
       29.2738        15.4685        17.2555        13.6816       813.0427 
      104.6067       216.7792      7377.9092      3560.2063        11.4860 
       11.4860        29.0834         5.0058    0.000136433       0.348234 
     -999.2500      9295.8604      5043.6128      9414.0898      6931.2817 
      0.313410      2930.0613         2.4469         1.8016     12922.6865 
      926.4686      2775.6907      9559.6182         2.0723      4612.9888 
        1.9577         0.9997
    2934.95320 
       29.7937        17.2858        18.8137        15.7578       830.4269 
      102.4475       209.8572      7610.4980      3715.2720        11.8504 
       11.8504        30.3132         5.3961    0.000148577       0.343559 
     -999.2500      9296.4375      5043.7241      9416.6045      6893.0977 
      0.309203      2921.7439         2.4474         1.7915     12829.6836 
      976.0358      2864.7598      9761.0967         2.0484      4765.1450 
        2.1030         1.0829
    2935.10560 
       31.4809        20.1165        19.3780        20.8551       888.1260 
       95.6694       195.1721      8255.3848      4046.6221        13.6622 
       13.6622        35.4011         6.3196    0.000176261       0.341866 
     -999.2500      9297.0146      5043.8354      9417.8730      6879.8452 
      0.307680      2934.3657         2.4476         1.7880     12828.4219 
     1100.8533      3170.4839     10452.6631         2.0401      5123.6831 
        2.4599         1.2923
    2935.25800 
       34.2741        24.1321        18.3195        29.9446       988.4182 
       85.1813       175.1231      9373.4482      4559.3213        17.6696 
       17.6696        46.2867         7.9355    0.000223754       0.345041 
     -999.2500      9297.5918      5043.9463      9417.1309      6906.8091 
      0.310537      2960.3591         2.4473         1.7949     12934.3369 
     1334.4624      3739.4360     11739.6660         2.0559      5710.2690 
        3.0961         1.6843
    2935.41040 
       35.4868        30.1266        22.8915        37.3616      1034.0409 
       80.8969       161.0699      9849.9160      4947.0918        18.3889 
       18.3889        48.0734         9.3616    0.000263433       0.331325 
     -999.2500      9298.1680      5044.0581      9423.2529      6796.4619 
      0.298193      2927.6387         2.4487         1.7661     12648.2012 
     1535.5601      4014.2949     12361.4131         1.9911      6208.4844 
        3.6153         2.0218
    2935.56280 
       34.5591        29.4336        24.9148        33.9524       999.0217 
       84.1600       165.3765      9364.9404      4765.8130        16.3493 
       16.3493        42.2762         8.7837    0.000244480       0.325256 
     -999.2500      9298.7451      5044.1694      9426.2529      6748.5923 
      0.292730      2865.5469         2.4494         1.7536     12428.2783 
     1441.9581      3802.4150     11882.1289         1.9650      6046.8086 
        3.3767         1.8647
    2935.71520 
       32.8662        27.0119        26.3023        27.7215       937.0792 
       90.3566       176.0157      8631.8818      4431.1245        13.7715 
       13.7715        35.2397         7.6732    0.000211348       0.321093 
     -999.2500      9299.3223      5044.2803      9428.4863      6716.0386 
      0.288984      2791.2593         2.4498         1.7450     12214.5957 
     1276.0195      3442.1821     11067.2607         1.9480      5681.3115 
        2.9405         1.5863
    2935.86760 
       32.4512        24.6322        23.9793        25.2851       922.2568 
       91.9249       181.7238      8474.6025      4286.8735        13.7192 
       13.7192        35.0643         7.1902    0.000197811       0.328062 
     -999.2500      9299.8984      5044.3916      9426.3564      6770.7363 
      0.295256      2743.7664         2.4491         1.7591     12229.0049 
     1212.9421      3358.7119     10878.4453         1.9769      5502.8564 
        2.7700         1.4804
    2936.02000 
       32.3663        23.2534        22.0857        24.4212       919.2419 
       92.2481       184.6666      8493.9150      4243.0386        14.0584 
       14.0584        36.1398         7.0033    0.000193787       0.333743 
     -999.2500      9300.4766      5044.5029      9424.6914      6816.1831 
      0.300369      2733.0981         2.4485         1.7709     12298.5615 
     1190.8199      3341.8625     10840.3320         2.0018      5415.1646 
        2.7095         1.4433
    2936.17240 
       32.3731        23.5669        22.4202        24.7136       919.4830 
       92.2222       184.1986      8523.5723      4267.4731        14.0478 
       14.0478        36.2286         7.0615    0.000196025       0.332739 
     -999.2500      9301.0527      5044.6143      9425.6816      6808.4771 
      0.299465      2769.1663         2.4487         1.7687     12355.2871 
     1198.2944      3343.2085     10843.3760         1.9973      5428.9229 
        2.7300         1.4559
    2936.32480 
       32.0755        23.0690        22.4515        23.6865       908.9550 
       93.3618       186.4356      8398.6934      4205.8340        13.6673 
       13.6673        35.1600         6.8760    0.000190403       0.332646 
     -999.2500      9301.6299      5044.7251      9426.3125      6807.9731 
      0.299381      2896.4226         2.4487         1.7685     12608.7920 
     1172.1062      3284.6965     10711.0186         1.9969      5363.7827 
        2.6581         1.4119
    2936.47720 
       31.5393        21.4065        21.3651        21.4479       890.1601 
       95.4409       192.0002      8179.7974      4066.0752        13.2132 
       13.2132        33.8431         6.4549    0.000177959       0.335905 
     -999.2500      9302.2061      5044.8359      9425.6016      6834.3081 
      0.302314      2997.3965         2.4484         1.7753     12863.4092 
     1115.6577      3181.5469     10477.6885         2.0117      5208.3281 
        2.5014         1.3172
    2936.62960 
       31.0300        19.8546        20.3027        19.4064       872.5076 
       97.4471       197.4924      7973.0151      3934.0613        12.7951 
       12.7951        32.6153         6.0716    0.000166591       0.339092 
     -999.2500      9302.7842      5044.9473      9424.9082      6860.2964 
      0.305183      3032.2954         2.4480         1.7819     12985.1836 
     1064.9275      3086.1870     10261.9785         2.0267      5063.4858 
        2.3585         1.2321
    2936.78200 
       30.4933        17.9286        18.6209        17.2364       854.1087 
       99.5949       204.3020      7781.3062      3793.2983        12.4954 
       12.4954        31.7705         5.6593    0.000154883       0.344137 
     -999.2500      9303.3604      5045.0586      9423.4404      6901.7666 
      0.309724      2988.6262         2.4475         1.7926     12980.7861 
     1011.7846      2988.3542     10040.6748         2.0513      4894.7148 
        2.2066         1.1429
