~Version Information Block
VERS .                  2.0:  CWLS LOG ASCII STANDARD - VERSION 2.0
WRAP .                  YES:  Multiple lines per depth step
~Well Information Block
#MNEM.UNIT        Data Type   Information
#---------- ----------------  -----------
STRT .M          2686.96440:  START DEPTH
STOP .M          3645.86520:  STOP DEPTH
STEP .M             0.15240:  STEP
NULL .              -999.25:  NULL VALUE
COMP .                     :  COMPANY
WELL .      RAAG-105-07-212:  WELL
FLD  .                     :  FIELD
LOC  .                     :  LOCATION
CTRY .                     :  COUNTRY
STAT .                     :  STATE
CNTY .                     :  COUNTY
SRVC .                     :  SERVICE COMPANY
DATE .                     :  DATE
API  .                     :  API NUMBER
UWI  .                     :  UNIQUE WELL ID
~Curve Information Block
#MNEM.UNIT         API CODE   Curve Description
#---------- ----------------  -----------------
DEPTH.M                    :  
ANGLE_FAIL.DEG                  :  Fail Angle
BRIT_IND.                     :  Brittleness Index
BRIT_PR.                     :  Brittleness Index from Poisson's Ratio
BRIT_YM.                     :  Brittleness Index from Young's Modulus
CS   .M/MIN                 :  Compressive Strength
DTCO .US/F                 :  Compressional slowness
DTSM .US/F                 :  Shear slowness
IP   .RAYL/M2                 :  P Impedence
IS   .RAYL/M2                 :  S Impedance
KBULK.                     :  Bulk Mudulus
LAMBDA.                     :  Lambda
LAMRHO.                     :  
MU   .CP                   :  Mu
MURHO.(GF/C3S)2                 :  Mu*Rho
PR   .                     :  Poisson's ratio
PRESS_FG.PSI                  :  Fracture Gradient Pressure
PRESS_OB.PSI                  :  Over-burden Pressure
PRESS_PP.PSI                  :  Pore Pressure
PRESS_SHMAX.PSI                  :  Horizontal Stress (Max)
PRESS_SHMIN.PSI                  :  Horizontal Stress (Min)
PR_STAT.                     :  Poisson's ratio (Static)
PZS  .PSI                  :  Processed Zone Stress
SHMAX_GRAD.                     :  Horizontal Stress Gradient (Max)
SHMIN_GRAD.                     :  Horizontal Stress Gradient (Min)
STRESS_CUM.PSI                  :  Cumulative stress (SHPZ)
UCS_BF.PSI                  :  Uniaxial Compressive Strength (BF)
UCS_LAL.PSI                  :  Uniaxial Compressive Strength (lal)
VP   .FT/S                 :  Compressional velocity
VPVS .                     :  Vp / Vs ratio
VS   .FT/S                 :  Shear velocity
YM   .                     :  Youngs' Modulus
YM_STAT.                     :  Youngs' Modulus (Static)
~Parameter Information Block
#MNEM.UNIT            Value   Description
#---------- ----------------  -----------
ALPHA.                 0.98:  Biot's Constant
CALIB_SHMINPZS.                 6800:  Calibration Factor for processing zones
EXT_FACT.                1e-06:  Extension Factor
PR_FAC.                  0.9:  Poisson's ratio factor
PR_MAX.                  0.4:  Maximum Poisson's ratio
PR_MIN.                  0.1:  Minimum Poisson's ratio
TECT_FACT.                 1.05:  Techtonic Factor
YM_MAX.                    8:  Maximum Youngs' Modulus
YM_MIN.                    1:  Minimum Youngs' Modulus
PROJECT.          RDG_13Jul21:  
SET  .              GEOMECH:  
~Other Information Block
~Ascii Log Data
    2686.96440 
       28.9968        26.8058        36.3280        17.2836       803.8521 
      105.7711       194.8178      6946.9868      3771.6804         8.2172 
        8.2172        19.8095         5.9009    0.000153123       0.291016 
     -999.2500      8558.1475      4884.0762      8679.7354      6126.3755 
      0.261914      -999.2500         2.4327         1.7170      -999.2500 
     1012.9319      2729.1670      9454.3779         1.8419      5133.0015 
        2.2099         1.1448
    2687.11680 
       29.0776        26.4629        35.5743        17.3516       806.5258 
      105.4307       194.9384      6980.8364      3775.5232         8.3750 
        8.3750        20.2229         5.9033    0.000153435       0.293277 
     -999.2500      8558.7158      4884.2129      8679.6123      6140.8027 
      0.263949      1888.8634         2.4325         1.7210      9259.3320 
     1014.5839      2742.6614      9484.9033         1.8490      5129.8257 
        2.2146         1.1476
    2687.26920 
       28.9591        26.6344        36.1028        17.1660       802.6038 
      105.9305       195.3344      6943.7563      3765.6223         8.2279 
        8.2279        19.8559         5.8759    0.000152631       0.291691 
     -999.2500      8559.2852      4884.3491      8680.6914      6131.1611 
      0.262522      1868.9529         2.4326         1.7182      9200.2275 
     1010.0737      2722.8782      9440.1523         1.8440      5119.4263 
        2.2016         1.1400
    2687.42160 
       28.7531        25.2816        34.4199        16.1434       795.8049 
      106.8039       198.6641      6865.3120      3690.8638         8.2670 
        8.2670        19.8876         5.6627    0.000146631       0.296740 
     -999.2500      8559.8545      4884.4858      8679.6914      6163.1216 
      0.267066      1898.0457         2.4322         1.7270      9322.3350 
      985.3219      2688.7507      9362.9541         1.8601      5033.6221 
        2.1300         1.0985
    2687.57400 
       28.7040        22.8204        30.4927        15.1482       794.1913 
      107.0125       203.3594      6882.2925      3621.6240         8.7462 
        8.7462        21.1336         5.4282    0.000141181       0.308522 
     -999.2500      8560.4238      4884.6226      8676.4971      6238.9580 
      0.277670      1955.6041         2.4312         1.7482      9589.1250 
      961.4050      2680.6824      9344.7031         1.9003      4917.4023 
        2.0604         1.0583
    2687.72640 
       28.6959        23.1681        30.8634        15.4727       793.9232 
      107.0472       203.0002      6937.2642      3658.1970         8.7674 
        8.7674        21.3608         5.4927    0.000144047       0.307410 
     -999.2500      8560.9932      4884.7588      8677.4404      6232.0454 
      0.276669      1969.3481         2.4313         1.7461      9602.7871 
      969.1855      2679.3430      9341.6738         1.8964      4926.1035 
        2.0831         1.0714
    2687.87880 
       28.8143        24.0098        31.8299        16.1896       797.8247 
      106.5435       200.9604      7010.7988      3716.9265         8.7815 
        8.7815        21.5202         5.6375    0.000148709       0.304510 
     -999.2500      8561.5615      4884.8950      8678.9590      6213.6230 
      0.274059      1980.5720         2.4316         1.7408      9588.3906 
      986.4371      2698.8669      9385.8369         1.8862      4976.1045 
        2.1333         1.1004
    2688.03120 
       28.8598        23.9991        31.7771        16.2210       799.3242 
      106.3507       200.6551      7008.5483      3714.6526         8.8011 
        8.8011        21.5225         5.6426    0.000148527       0.304669 
     -999.2500      8562.1318      4885.0317      8679.4912      6214.9434 
      0.274202      1985.7694         2.4316         1.7411      9601.4248 
      987.1946      2706.3892      9402.8525         1.8867      4983.6758 
        2.1355         1.1016
    2688.18360 
       28.8976        23.2223        30.5751        15.8694       800.5711 
      106.1907       201.7036      6991.5825      3680.8516         8.9435 
        8.9435        21.7849         5.5622    0.000145837       0.308275 
     -999.2500      8562.7012      4885.1680      8678.9063      6238.5923 
      0.277447      1982.3032         2.4312         1.7476      9641.7910 
      978.7208      2712.6523      9417.0205         1.8994      4957.7695 
        2.1109         1.0874
    2688.33600 
       28.8973        23.4472        31.0291        15.8654       800.5609 
      106.1920       201.1912      6962.3340      3674.8337         8.8492 
        8.8492        21.4653         5.5673    0.000145360       0.306913 
     -999.2500      8563.2695      4885.3037      8679.9316      6230.0405 
      0.276221      1968.4868         2.4314         1.7451      9597.0547 
      978.6234      2712.6013      9416.9053         1.8946      4970.3965 
        2.1106         1.0872
    2688.48840 
       28.7940        23.7590        31.7913        15.7267       797.1531 
      106.6300       201.1664      6912.2397      3663.8928         8.6557 
        8.6557        20.9308         5.5514    0.000144496       0.304626 
     -999.2500      8563.8398      4885.4404      8681.2549      6215.5371 
      0.274164      1954.7477         2.4316         1.7410      9540.5693 
      975.2875      2695.5012      9378.2236         1.8866      4971.0093 
        2.1009         1.0816
    2688.64080 
       28.5818        24.0370        32.7711        15.3029       790.1750 
      107.5339       201.7877      6814.5117      3631.4949         8.3447 
        8.3447        20.0621         5.4854    0.000141952       0.301687 
     -999.2500      8564.4082      4885.5762      8682.7832      6196.9111 
      0.271518      1817.8895         2.4319         1.7356      9229.6016 
      965.1124      2660.6521      9299.3936         1.8765      4955.7036 
        2.0712         1.0646
    2688.79320 
       28.3159        25.0763        35.0321        15.1205       781.4666 
      108.6753       201.5005      6717.3052      3622.8452         7.8797 
        7.8797        18.8722         5.4801    0.000141276       0.294904 
     -999.2500      8564.9775      4885.7129      8685.5215      6154.0972 
      0.265413      1670.9810         2.4325         1.7235      8850.1563 
      960.7416      2617.4746      9201.7227         1.8542      4962.7671 
        2.0584         1.0572
    2688.94560 
       28.3815        24.6818        34.3421        15.0215       783.6121 
      108.3927       201.7017      6714.8247      3608.4871         7.9762 
        7.9762        19.0465         5.4529    0.000140159       0.296974 
     -999.2500      8565.5469      4885.8491      8685.4512      6167.4600 
      0.267276      1584.0972         2.4323         1.7272      8703.1143 
      958.3724      2628.0801      9225.7139         1.8608      4957.8164 
        2.0515         1.0533
    2689.09800 
       28.7005        22.7701        30.6778        14.8624       794.0739 
      107.0277       203.1755      6805.0771      3584.7419         8.6244 
        8.6244        20.6083         5.3778    0.000138320       0.307967 
     -999.2500      8566.1152      4885.9854      8682.5049      6238.3345 
      0.277170      1595.7107         2.4314         1.7469      8868.0898 
      954.5691      2680.0955      9343.3750         1.8983      4921.8530 
        2.0404         1.0469
    2689.25040 
       29.3188        20.9065        26.3782        15.4347       814.5408 
      104.4184       203.3130      7052.1616      3621.8809         9.7258 
        9.7258        23.4969         5.4298    0.000141201       0.320865 
     -999.2500      8566.6846      4886.1216      8678.8184      6324.0093 
      0.288779      1742.0258         2.4302         1.7708      9332.0703 
      968.2737      2783.3115      9576.8555         1.9471      4918.5244 
        2.0804         1.0699
