~Version Information Block
VERS .                  2.0:  CWLS LOG ASCII STANDARD - VERSION 2.0
WRAP .                  YES:  Multiple lines per depth step
~Well Information Block
#MNEM.UNIT        Data Type   Information
#---------- ----------------  -----------
STRT .M          2656.78920:  START DEPTH
STOP .M          3640.98840:  STOP DEPTH
STEP .M             0.15240:  STEP
NULL .              -999.25:  NULL VALUE
COMP .                     :  COMPANY
WELL .       RAAG-98-07-214:  WELL
FLD  .                     :  FIELD
LOC  .                     :  LOCATION
CTRY .                     :  COUNTRY
STAT .                     :  STATE
CNTY .                     :  COUNTY
SRVC .                     :  SERVICE COMPANY
DATE .                     :  DATE
API  .                     :  API NUMBER
UWI  .                     :  UNIQUE WELL ID
~Curve Information Block
#MNEM.UNIT         API CODE   Curve Description
#---------- ----------------  -----------------
DEPTH.M                    :  
ANGLE_FAIL.DEG                  :  Fail Angle
BRIT_IND.                     :  Brittleness Index
BRIT_PR.                     :  Brittleness Index from Poisson's Ratio
BRIT_YM.                     :  Brittleness Index from Young's Modulus
CS   .M/MIN                 :  Compressive Strength
IP   .RAYL/M2                 :  P Impedence
IS   .RAYL/M2                 :  S Impedance
KBULK.                     :  Bulk Mudulus
LAMBDA.                     :  Lambda
LAMRHO.                     :  
MU   .CP                   :  Mu
MURHO.(GF/C3S)2                 :  Mu*Rho
PR   .                     :  Poisson's ratio
PRESS_FG.PSI                  :  Fracture Gradient Pressure
PRESS_OB.PSI                  :  Over-burden Pressure
PRESS_PP.PSI                  :  Pore Pressure
PRESS_SHMAX.PSI                  :  Horizontal Stress (Max)
PRESS_SHMIN.PSI                  :  Horizontal Stress (Min)
PR_STAT.                     :  Poisson's ratio (Static)
PZS  .PSI                  :  Processed Zone Stress
SHMAX_GRAD.                     :  Horizontal Stress Gradient (Max)
SHMIN_GRAD.                     :  Horizontal Stress Gradient (Min)
STRESS_CUM.PSI                  :  Cumulative stress (SHPZ)
UCS_BF.PSI                  :  Uniaxial Compressive Strength (BF)
UCS_LAL.PSI                  :  Uniaxial Compressive Strength (lal)
VP   .FT/S                 :  Compressional velocity
VPVS .                     :  Vp / Vs ratio
VS   .FT/S                 :  Shear velocity
YM   .                     :  Youngs' Modulus
YM_STAT.                     :  Youngs' Modulus (Static)
~Parameter Information Block
#MNEM.UNIT            Value   Description
#---------- ----------------  -----------
PROJECT.          RDG_13Jul21:  
SET  .              GEOMECH:  
~Other Information Block
~Ascii Log Data
# ...
    2721.55920 
       31.8662        19.5536        18.0951        21.0120       901.5921 
     8293.1240      4027.1416        14.1832        14.1832        36.3402 
        6.3297    0.000174568       0.345715      -999.2500      8941.8262 
     4971.3530      9053.3125      6712.1064       0.311143      2961.1094 
        2.4378         1.8074     12546.4316      1104.7656      3244.0884 
    10619.1611         2.0593      5156.6646         2.4708         1.2989
    2721.71160 
       31.7039        19.4409        18.1025        20.7794       895.9093 
     8292.7578      4027.1833        14.0870        14.0870        36.3334 
        6.2881    0.000174571       0.345693      -999.2500      8942.3906 
     4971.4746      9053.8975      6712.2422       0.311123      2964.5183 
        2.4378         1.8073     12553.5205      1098.9659      3212.9219 
    10548.6602         2.0592      5122.7095         2.4546         1.2892
    2721.86400 
       31.4411        17.1320        15.2265        19.0375       886.7444 
     8273.6064      3929.9385        14.4414        14.4414        37.5637 
        5.9376    0.000166242       0.354320      -999.2500      8942.9551 
     4971.5962      9051.1113      6779.8462       0.318888      2994.9844 
        2.4369         1.8254     12749.6611      1055.8354      3162.9807 
    10435.6904         2.1053      4956.9219         2.3326         1.2168
    2722.01640 
       31.2231        14.4734        11.9130        17.0339       879.1803 
     8230.2646      3803.0022        14.8667        14.8667        38.8116 
        5.5400    0.000155677       0.364261      -999.2500      8943.5195 
     4971.7173      9047.7139      6859.6348       0.327835      3055.0295 
        2.4358         1.8468     13029.3291      1006.8658      3122.0605 
    10343.1270         2.1641      4779.3032         2.1924         1.1346
    2722.16880 
       31.0662        13.3732        10.7089        16.0375       873.7573 
     8170.3960      3735.3916        14.8945        14.8945        38.8491 
        5.3495    0.000150190       0.367873      -999.2500      8944.0850 
     4971.8389      9046.8213      6889.3608       0.331086      3073.2393 
        2.4355         1.8547     13125.2002       982.7685      3092.8894 
    10277.1396         2.1873      4698.5654         2.1226         1.0942
    2722.32120 
       31.1230        12.9453        10.2207        15.6699       875.7167 
     8115.3813      3693.9033        14.9220        14.9220        38.5696 
        5.2790    0.000146873       0.369338      -999.2500      8944.6494 
     4971.9600      9046.7969      6901.6987       0.332404      3079.2476 
        2.4353         1.8579     13161.8926       973.9205      3103.4138 
    10300.9463         2.1970      4688.7139         2.0969         1.0794
    2722.47360 
       31.6343        13.1045         9.7641        16.4450       893.4758 
     8213.3867      3722.9084        15.5122        15.5122        39.7396 
        5.4102    0.000149188       0.370708      -999.2500      8945.2148 
     4972.0815      9046.8066      6913.3774       0.333637      3076.2180 
        2.4352         1.8609     13179.1904       992.6022      3199.6228 
    10518.5771         2.2062      4767.7896         2.1511         1.1107
    2722.62600 
       32.4235        13.4379         8.9613        17.9145       921.2738 
     8441.7871      3797.9067        16.6409        16.6409        42.4156 
        5.6590    0.000155260       0.373116      -999.2500      8945.7793 
     4972.2031      9046.3809      6933.7612       0.335804      3076.2664 
        2.4349         1.8663     13220.0557      1028.3046      3353.2136 
    10866.0088         2.2227      4888.5488         2.2540         1.1706
    2722.77840 
       32.9710        13.6091         8.1936        19.0246       940.8424 
     8648.1094      3862.3584        17.6115        17.6115        44.9542 
        5.8443    0.000160574       0.375419      -999.2500      8946.3438 
     4972.3247      9045.9922      6953.3794       0.337877      3079.2959 
        2.4347         1.8715     13265.3516      1055.5178      3463.5410 
    11115.5752         2.2391      4964.3604         2.3317         1.2163
    2722.93080 
       32.8930        13.6039         8.2471        18.9606       938.0391 
     8651.6367      3865.9258        17.5496        17.5496        44.9601 
        5.8337    0.000160871       0.375259      -999.2500      8946.9082 
     4972.4463      9046.6348      6952.3794       0.337733      3079.2959 
        2.4347         1.8711     13263.3506      1053.9435      3447.6235 
    11079.5693         2.2379      4950.8311         2.3272         1.2136
    2723.08320 
       31.9485        13.9099        10.1543        17.6655       904.4850 
     8377.1816      3810.7590        15.9468        15.9468        41.1334 
        5.6299    0.000156312       0.369537      -999.2500      8947.4736 
     4972.5674      9049.5889      6905.1675       0.332584      3079.2959 
        2.4354         1.8583     13168.9268      1022.2288      3260.0127 
    10655.1826         2.1983      4847.0161         2.2366         1.1604
    2723.23560 
       30.8812        13.0014        10.5682        15.4346       867.3860 
     8086.4482      3692.3367        14.6574        14.6574        38.1239 
        5.2416    0.000146748       0.368295      -999.2500      8948.0381 
     4972.6890      9050.6816      6895.1631       0.331466      3079.2959 
        2.4355         1.8555     13148.9180       968.2703      3058.7947 
    10200.0146         2.1901      4657.4082         2.0804         1.0699
    2723.38800 
       30.3324        10.7661         8.3064        13.2258       848.6334 
     7943.6118      3551.5715        14.4967        14.4967        37.8737 
        4.8281    0.000135772       0.375081      -999.2500      8948.6035 
     4972.8101      9048.4541      6951.5820       0.337573      3079.2959 
        2.4348         1.8706     13261.7559       915.6859      2959.5466 
     9975.5107         2.2366      4460.0288         1.9258         0.9816
    2723.54040 
       30.0800         9.4103         6.9818        11.8387       840.0771 
     7798.1958      3441.6145        14.3273        14.3273        37.1224 
        4.5714    0.000127495       0.379055      -999.2500      8949.1670 
     4972.9312      9047.3633      6985.2500       0.341149      3078.9565 
        2.4344         1.8795     13328.4131       883.0904      2914.8083 
     9874.3096         2.2659      4357.8755         1.8287         0.9269
    2723.69280 
       29.9628         8.7734         6.5875        10.9593       836.1193 
     7625.0776      3351.9077        14.0134        14.0134        35.6712 
        4.4138    0.000120936       0.380237      -999.2500      8949.7314 
     4973.0527      9047.4404      6995.5630       0.342214      3057.2227 
        2.4342         1.8822     13305.5713       862.5967      2894.2292 
     9827.7588         2.2748      4320.1846         1.7672         0.8925
    2723.84520 
       29.8570         8.5592         6.6106        10.5077       832.5576 
     7517.4893      3305.3853        13.7529        13.7529        34.6615 
        4.3350    0.000117602       0.380168      -999.2500      8950.2969 
     4973.1743      9048.0469      6995.2988       0.342151      3020.6592 
        2.4343         1.8820     13231.9170       852.1237      2875.7729 
     9786.0098         2.2743      4302.8369         1.7355         0.8750
    2723.99760 
       29.7318         8.6589         6.9875        10.3302       828.3469 
     7450.9180      3288.5364        13.4977        13.4977        33.8872 
        4.3075    0.000116406       0.379037      -999.2500      8950.8613 
     4973.2954      9049.1016      6986.0649       0.341134      2984.6357 
        2.4344         1.8794     13141.4014       848.0171      2854.0291 
     9736.8232         2.2657      4297.4434         1.7231         0.8681
