~Version Information Block
VERS .                  2.0:  CWLS LOG ASCII STANDARD - VERSION 2.0
WRAP .                   NO:  One line per depth step
~Well Information Block
#MNEM.UNIT        Data Type   Information
#---------- ----------------  -----------
STRT .M                0.00:  START DEPTH
STOP .M             3613.00:  STOP DEPTH
STEP .M                0.50:  STEP
NULL .              -999.25:  NULL VALUE
COMP .                     :  COMPANY
WELL .      RAAG-100-07-213:  WELL
FLD  .                     :  FIELD
LOC  .                     :  LOCATION
CTRY .                     :  COUNTRY
STAT .                     :  STATE
CNTY .                     :  COUNTY
SRVC .                     :  SERVICE COMPANY
DATE .                     :  DATE
API  .                     :  API NUMBER
UWI  .                     :  UNIQUE WELL ID
~Curve Information Block
#MNEM.UNIT         API CODE   Curve Description
#---------- ----------------  -----------------
DEPTH.M                    :  
OBG  .G/CC                 :  2.174+0.00008962*TVDSS
PP   .G/CC                 :  2.1087-0.00029524*TVDSS
~Parameter Information Block
#MNEM.UNIT            Value   Description
#---------- ----------------  -----------
PROJECT.          RDG_13Jul21:  
SET  .              GEOMECH:  
~Other Information Block
# 
~A       DEPTH            OBG             PP 
# ...
       1869.00         2.3336         1.5830
       1869.50         2.3336         1.5828
       1870.00         2.3337         1.5827
       1870.50         2.3337         1.5826
       1871.00         2.3338         1.5824
       1871.50         2.3338         1.5823
       1872.00         2.3338         1.5821
       1872.50         2.3339         1.5820
       1873.00         2.3339         1.5818
       1873.50         2.3340         1.5817
       1874.00         2.3340         1.5815
       1874.50         2.3341         1.5814
       1875.00         2.3341         1.5812
       1875.50         2.3342         1.5811
       1876.00         2.3342         1.5809
       1876.50         2.3342         1.5808
       1877.00         2.3343         1.5806
       1877.50         2.3343         1.5805
       1878.00         2.3344         1.5803
       1878.50         2.3344         1.5802
       1879.00         2.3345         1.5800
       1879.50         2.3345         1.5799
       1880.00         2.3346         1.5797
       1880.50         2.3346         1.5796
       1881.00         2.3347         1.5795
       1881.50         2.3347         1.5793
       1882.00         2.3347         1.5792
       1882.50         2.3348         1.5790
       1883.00         2.3348         1.5789
       1883.50         2.3349         1.5787
       1884.00         2.3349         1.5786
       1884.50         2.3350         1.5784
       1885.00         2.3350         1.5783
       1885.50         2.3351         1.5781
       1886.00         2.3351         1.5780
       1886.50         2.3351         1.5778
       1887.00         2.3352         1.5777
       1887.50         2.3352         1.5775
       1888.00         2.3353         1.5774
       1888.50         2.3353         1.5772
       1889.00         2.3354         1.5771
       1889.50         2.3354         1.5769
       1890.00         2.3355         1.5768
       1890.50         2.3355         1.5766
       1891.00         2.3355         1.5765
       1891.50         2.3356         1.5764
       1892.00         2.3356         1.5762
       1892.50         2.3357         1.5761
       1893.00         2.3357         1.5759
       1893.50         2.3358         1.5758
       1894.00         2.3358         1.5756
       1894.50         2.3359         1.5755
       1895.00         2.3359         1.5753
       1895.50         2.3360         1.5752
       1896.00         2.3360         1.5750
       1896.50         2.3360         1.5749
       1897.00         2.3361         1.5747
       1897.50         2.3361         1.5746
       1898.00         2.3362         1.5744
       1898.50         2.3362         1.5743
       1899.00         2.3363         1.5741
       1899.50         2.3363         1.5740
       1900.00         2.3364         1.5738
       1900.50         2.3364         1.5737
       1901.00         2.3364         1.5735
       1901.50         2.3365         1.5734
       1902.00         2.3365         1.5733
       1902.50         2.3366         1.5731
       1903.00         2.3366         1.5730
       1903.50         2.3367         1.5728
       1904.00         2.3367         1.5727
       1904.50         2.3368         1.5725
       1905.00         2.3368         1.5724
       1905.50         2.3368         1.5722
       1906.00         2.3369         1.5721
       1906.50         2.3369         1.5719
       1907.00         2.3370         1.5718
       1907.50         2.3370         1.5716
       1908.00         2.3371         1.5715
       1908.50         2.3371         1.5713
       1909.00         2.3372         1.5712
       1909.50         2.3372         1.5710
       1910.00         2.3373         1.5709
       1910.50         2.3373         1.5707
       1911.00         2.3373         1.5706
       1911.50         2.3374         1.5704
       1912.00         2.3374         1.5703
       1912.50         2.3375         1.5702
       1913.00         2.3375         1.5700
       1913.50         2.3376         1.5699
       1914.00         2.3376         1.5697
       1914.50         2.3377         1.5696
       1915.00         2.3377         1.5694
       1915.50         2.3377         1.5693
       1916.00         2.3378         1.5691
       1916.50         2.3378         1.5690
       1917.00         2.3379         1.5688
       1917.50         2.3379         1.5687
       1918.00         2.3380         1.5685
       1918.50         2.3380         1.5684
       1919.00         2.3381         1.5682
       1919.50         2.3381         1.5681
       1920.00         2.3381         1.5679
       1920.50         2.3382         1.5678
       1921.00         2.3382         1.5676
       1921.50         2.3383         1.5675
       1922.00         2.3383         1.5673
       1922.50         2.3384         1.5672
       1923.00         2.3384         1.5671
       1923.50         2.3385         1.5669
       1924.00         2.3385         1.5668
       1924.50         2.3386         1.5666
       1925.00         2.3386         1.5665
       1925.50         2.3386         1.5663
       1926.00         2.3387         1.5662
       1926.50         2.3387         1.5660
       1927.00         2.3388         1.5659
       1927.50         2.3388         1.5657
       1928.00         2.3389         1.5656
       1928.50         2.3389         1.5654
       1929.00         2.3390         1.5653
       1929.50         2.3390         1.5651
       1930.00         2.3390         1.5650
       1930.50         2.3391         1.5648
       1931.00         2.3391         1.5647
       1931.50         2.3392         1.5645
       1932.00         2.3392         1.5644
       1932.50         2.3393         1.5642
       1933.00         2.3393         1.5641
       1933.50         2.3394         1.5640
       1934.00         2.3394         1.5638
       1934.50         2.3394         1.5637
       1935.00         2.3395         1.5635
       1935.50         2.3395         1.5634
       1936.00         2.3396         1.5632
       1936.50         2.3396         1.5631
       1937.00         2.3397         1.5629
       1937.50         2.3397         1.5628
       1938.00         2.3398         1.5626
       1938.50         2.3398         1.5625
       1939.00         2.3399         1.5623
       1939.50         2.3399         1.5622
       1940.00         2.3399         1.5620
       1940.50         2.3400         1.5619
       1941.00         2.3400         1.5617
       1941.50         2.3401         1.5616
       1942.00         2.3401         1.5614
       1942.50         2.3402         1.5613
       1943.00         2.3402         1.5611
       1943.50         2.3403         1.5610
       1944.00         2.3403         1.5609
       1944.50         2.3403         1.5607
       1945.00         2.3404         1.5606
       1945.50         2.3404         1.5604
       1946.00         2.3405         1.5603
       1946.50         2.3405         1.5601
       1947.00         2.3406         1.5600
       1947.50         2.3406         1.5598
       1948.00         2.3407         1.5597
       1948.50         2.3407         1.5595
       1949.00         2.3407         1.5594
       1949.50         2.3408         1.5592
       1950.00         2.3408         1.5591
       1950.50         2.3409         1.5589
       1951.00         2.3409         1.5588
       1951.50         2.3410         1.5586
       1952.00         2.3410         1.5585
       1952.50         2.3411         1.5583
       1953.00         2.3411         1.5582
       1953.50         2.3412         1.5580
       1954.00         2.3412         1.5579
       1954.50         2.3412         1.5578
       1955.00         2.3413         1.5576
       1955.50         2.3413         1.5575
       1956.00         2.3414         1.5573
       1956.50         2.3414         1.5572
       1957.00         2.3415         1.5570
       1957.50         2.3415         1.5569
