~Version Information Block
VERS .                  2.0:  CWLS LOG ASCII STANDARD - VERSION 2.0
WRAP .                   NO:  One line per depth step
~Well Information Block
#MNEM.UNIT        Data Type   Information
#---------- ----------------  -----------
STRT .M          2889.76360:  START DEPTH
STOP .M          3614.73040:  STOP DEPTH
STEP .M             0.15240:  STEP
NULL .              -999.25:  NULL VALUE
COMP .                     :  COMPANY
WELL .       RAAG-89-05-105:  WELL
FLD  .                     :  FIELD
LOC  .                     :  LOCATION
CTRY .                     :  COUNTRY
STAT .                     :  STATE
CNTY .                     :  COUNTY
SRVC .                     :  SERVICE COMPANY
DATE .                     :  DATE
API  .                     :  API NUMBER
UWI  .                     :  UNIQUE WELL ID
~Curve Information Block
#MNEM.UNIT         API CODE   Curve Description
#---------- ----------------  -----------------
DEPTH.M                    :  
PRESS_PP.PSI                  :  Pore Pressure
PZS  .PSI                  :  Processed Zone Stress
~Parameter Information Block
#MNEM.UNIT            Value   Description
#---------- ----------------  -----------
PROJECT.          RDG_13Jul21:  
SET  .              GEOMECH:  
~Other Information Block
# 
~A       DEPTH       PRESS_PP            PZS 
# ...
    3595.07080      5357.9097      2858.0740
    3595.22320      5357.9204      2803.3782
    3595.37560      5357.9316      2884.2786
    3595.52800      5357.9434      3079.2959
    3595.68040      5357.9546      3079.2959
    3595.83280      5357.9653      3079.2959
    3595.98520      5357.9766      3079.2959
    3596.13760      5357.9878      3079.2959
    3596.29000      5357.9990      3076.2180
    3596.44240      5358.0103      3070.0691
    3596.59480      5358.0215      3030.3416
    3596.74720      5358.0327      3051.6819
    3596.89960      5358.0439      3079.2959
    3597.05200      5358.0542      3079.2959
    3597.20440      5358.0654      3079.2959
    3597.35680      5358.0767      2988.0190
    3597.50920      5358.0879      3027.3027
    3597.66160      5358.0981      3079.2959
    3597.81400      5358.1094      3079.2959
    3597.96640      5358.1201      3079.2959
    3598.11880      5358.1313      3079.2959
    3598.27120      5358.1421      2979.0117
    3598.42360      5358.1533      2955.0984
    3598.57600      5358.1641      3054.7402
    3598.72840      5358.1753      3066.9985
    3598.88080      5358.1855      3076.2180
    3599.03320      5358.1963      3079.2959
    3599.18560      5358.2075      3079.2959
    3599.33800      5358.2183      3060.8645
    3599.49040      5358.2285      2970.0261
    3599.64280      5358.2393      2916.5671
    3599.79520      5358.2500      2979.0117
    3599.94760      5358.2607      3042.5215
    3600.10000      5358.2715      3054.7402
    3600.25240      5358.2822      3079.2959
    3600.40480      5358.2930      3079.2959
    3600.55720      5358.3037      3051.6819
    3600.70960      5358.3140      3015.1716
    3600.86200      5358.3247      2964.0479
    3601.01440      5358.3354      2869.6968
    3601.16680      5358.3457      3027.3027
    3601.31920      5358.3560      3079.2959
    3601.47160      5358.3667      3079.2959
    3601.62400      5358.3770      3036.4265
    3601.77640      5358.3877      2829.1814
    3601.92880      5358.3975      2922.4688
    3602.08120      5358.4082      3024.2664
    3602.23360      5358.4185      3079.2959
    3602.38600      5358.4292      3060.8645
    3602.53840      5358.4395      2964.0479
    3602.69080      5358.4502      3027.3027
    3602.84320      5358.4604      3063.9302
    3602.99560      5358.4707      3079.2959
    3603.14800      5358.4810      3079.2959
    3603.30040      5358.4912      3076.2180
    3603.45280      5358.5015      3024.2664
    3603.60520      5358.5117      2994.0359
    3603.75760      5358.5220      3006.0989
    3603.91000      5358.5322      3048.6260
    3604.06240      5358.5425      3079.2959
    3604.21480      5358.5527      3027.3027
    3604.36720      5358.5630      3048.6260
    3604.51960      5358.5728      3015.1716
    3604.67200      5358.5830      2887.2019
    3604.82440      5358.5933      2806.2358
    3604.97680      5358.6035      2789.1248
    3605.12920      5358.6128      2811.9583
    3605.28160      5358.6230      2849.3813
    3605.43400      5358.6333      2843.5984
    3605.58640      5358.6431      2679.9258
    3605.73880      5358.6533      2595.5898
    3605.89120      5358.6636      2487.3235
    3606.04360      5358.6733      2443.5063
    3606.19600      5358.6836      2566.1797
    3606.34840      5358.6929      3054.7402
    3606.50080      5358.7026      3079.2959
    3606.65320      5358.7129      3079.2959
    3606.80560      5358.7227      2890.1279
    3606.95800      5358.7319      2606.3508
    3607.11040      5358.7417      2727.0967
    3607.26280      5358.7520      2994.0359
    3607.41520      5358.7617      3076.2180
    3607.56760      5358.7715      3076.2180
    3607.72000      5358.7813      3079.2959
    3607.87240      5358.7910      3079.2959
    3608.02480      5358.8008      3039.4727
    3608.17720      5358.8101      3054.7402
    3608.32960      5358.8198      3079.2959
    3608.48200      5358.8296      3079.2959
    3608.63440      5358.8394      3079.2959
    3608.78680      5358.8481      3079.2959
    3608.93920      5358.8579      3079.2959
    3609.09160      5358.8677      3073.1423
    3609.24400      5358.8774      3066.9985
    3609.39640      5358.8867      3079.2959
    3609.54880      5358.8965      3079.2959
    3609.70120      5358.9063      3079.2959
    3609.85360      5358.9155      3079.2959
    3610.00600      5358.9248      3079.2959
    3610.15840      5358.9341      3079.2959
    3610.31080      5358.9438      2855.1741
    3610.46320      5358.9531      2809.0959
    3610.61560      5358.9624      2916.5671
    3610.76800      5358.9722      3042.5215
    3610.92040      5358.9814      2872.6084
    3611.07280      5358.9907      2907.7327
    3611.22520      5358.9995      2840.7102
    3611.37760      5359.0088      2843.5984
    3611.53000      5359.0186      2952.1201
    3611.68240      5359.0278      2925.4231
    3611.83480      5359.0366      3036.4265
    3611.98720      5359.0459      3076.2180
    3612.13960      5359.0552      3079.2959
    3612.29200      5359.0645      3079.2959
    3612.44440      5359.0732      3079.2959
    3612.59680      5359.0825      3079.2959
    3612.74920      5359.0918      3054.7402
    3612.90160      5359.1011      3051.6819
    3613.05400      5359.1099      3030.3416
    3613.20640      5359.1187      2797.6699
    3613.35880      5359.1279      3009.1208
    3613.51120      5359.1372      3051.6819
    3613.66360      5359.1455      3048.6260
    3613.81600      5359.1548      3060.8645
    3613.96840      5359.1636      2979.0117
    3614.12080      5359.1729      2791.9709
    3614.27320      5359.1816      2925.4231
    3614.42560      5359.1904      3054.7402
    3614.57800      -999.2500      3021.2324
    3614.73040      -999.2500      3076.2180
