~Version Information Block
VERS .                  2.0:  CWLS LOG ASCII STANDARD - VERSION 2.0
WRAP .                  YES:  Multiple lines per depth step
~Well Information Block
#MNEM.UNIT        Data Type   Information
#---------- ----------------  -----------
STRT .M          2556.50000:  START DEPTH
STOP .M          3600.74480:  STOP DEPTH
STEP .M             0.15240:  STEP
NULL .              -999.25:  NULL VALUE
COMP .                     :  COMPANY
WELL .      RAAG-100-07-213:  WELL
FLD  .                     :  FIELD
LOC  .                     :  LOCATION
CTRY .                     :  COUNTRY
STAT .                     :  STATE
CNTY .                     :  COUNTY
SRVC .                     :  SERVICE COMPANY
DATE .                     :  DATE
API  .                     :  API NUMBER
UWI  .                     :  UNIQUE WELL ID
~Curve Information Block
#MNEM.UNIT         API CODE   Curve Description
#---------- ----------------  -----------------
DEPTH.M                    :  
ANGLE_FAIL.DEG                  :  Fail Angle
BRIT_IND.                     :  Brittleness Index
BRIT_PR.                     :  Brittleness Index from Poisson's Ratio
BRIT_YM.                     :  Brittleness Index from Young's Modulus
CS   .M/MIN                 :  Compressive Strength
DTCO .US/F                 :  Compressional slowness
DTSM .US/F                 :  Description
IP   .RAYL/M2                 :  P Impedence
IS   .RAYL/M2                 :  S Impedance
KBULK.                     :  Bulk Mudulus
LAMBDA.                     :  Lambda
LAMRHO.                     :  
MU   .CP                   :  Mu
MURHO.(GF/C3S)2                 :  Mu*Rho
PR   .                     :  Poisson's ratio
PRESS_FG.PSI                  :  Fracture Gradient Pressure
PRESS_OB.PSI                  :  Over-burden Pressure
PRESS_PP.PSI                  :  Pore Pressure
PRESS_SHMAX.PSI                  :  Horizontal Stress (Max)
PRESS_SHMIN.PSI                  :  Horizontal Stress (Min)
PR_STAT.                     :  Poisson's ratio (Static)
PZS  .PSI                  :  Processed Zone Stress
SHMAX_GRAD.                     :  Horizontal Stress Gradient (Max)
SHMIN_GRAD.                     :  Horizontal Stress Gradient (Min)
STRESS_CUM.PSI                  :  Cumulative stress (SHPZ)
UCS_BF.PSI                  :  Uniaxial Compressive Strength (BF)
UCS_LAL.PSI                  :  Uniaxial Compressive Strength (lal)
VP   .FT/S                 :  Compressional velocity
VPVS .                     :  Vp / Vs ratio
VS   .FT/S                 :  Shear velocity
YM   .                     :  Youngs' Modulus
YM_STAT.                     :  Youngs' Modulus (Static)
~Parameter Information Block
#MNEM.UNIT            Value   Description
#---------- ----------------  -----------
PROJECT.          RDG_13Jul21:  
SET  .              GEOMECH:  
~Other Information Block
~Ascii Log Data
# ...
    3522.10640 
       44.0501        70.8030        33.6276       107.9785      1403.0646 
       54.7852       102.3327     14242.5889      7624.9614        33.8171 
       33.8171        86.5713        22.7111    0.000625814       0.299117 
     -999.2500     12133.1416      5353.1494     12350.2324      7791.3413 
      0.269205      2550.0107         2.5261         1.5936     13882.7041 
     3921.6907      6618.8647     18253.1055         1.8679      9772.0459 
        8.5585         6.0257
    3522.25880 
       43.3859        69.2662        36.2599       102.2726      1370.8790 
       56.5710       104.2330     13725.6152      7449.3828        30.3853 
       30.3853        77.4059        21.7836    0.000597325       0.291220 
     -999.2500     12133.7471      5353.1670     12355.4238      7700.2095 
      0.262098      2415.9285         2.5271         1.5749     13432.2764 
     3697.1990      6364.1396     17676.9023         1.8425      9593.8867 
        8.1591         5.6490
    3522.41120 
       42.5561        67.0046        38.8209        95.1884      1331.6393 
       58.8556       107.0762     13154.4717      7230.4966        26.9598 
       26.9598        68.4800        20.5821    0.000562738       0.283537 
     -999.2500     12134.3535      5353.1846     12360.4160      7613.0908 
      0.255184      2252.3159         2.5280         1.5571     12930.8135 
     3426.2354      6060.8032     16990.7383         1.8193      9339.1416 
        7.6632         5.1943
    3522.56360 
       41.9167        65.6273        41.0732        90.1814      1302.1107 
       60.6569       109.1815     12730.7490      7072.6948        24.4824 
       24.4824        62.0259        19.7447    0.000538443       0.276781 
     -999.2500     12134.9580      5353.2021     12364.8096      7537.9341 
      0.249102      2069.5300         2.5288         1.5416     12414.9277 
     3239.9031      5837.7471     16486.1699         1.8000      9159.0576 
        7.3127         4.8817
    3522.71600 
       41.2700        65.8195        45.3402        86.2987      1272.8429 
       62.5156       110.3973     12282.6299      6955.3882        21.4782 
       21.4782        54.1082        19.2034    0.000520730       0.263979 
     -999.2500     12135.5635      5353.2192     12372.3867      7399.0923 
      0.237581      1947.1748         2.5302         1.5132     11892.5352 
     3098.3616      5621.0581     15996.0068         1.7659      9058.1943 
        7.0409         4.6442
    3522.86840 
       40.9867        65.4644        47.0574        83.8714      1260.2039 
       63.3417       111.0416     12017.3594      6855.0889        20.1942 
       20.1942        50.4324        18.8167    0.000505820       0.258828 
     -999.2500     12136.1689      5353.2373     12375.7559      7344.4424 
      0.232945      1817.5822         2.5308         1.5019     11524.0488 
     3011.1848      5528.8325     15787.3867         1.7531      9005.6348 
        6.8710         4.4979
    3523.02080 
       41.0665        65.4001        46.5735        84.2267      1263.7511 
       63.1084       110.8584     12051.6396      6860.6431        20.4808 
       20.4808        51.1052        18.8630    0.000506640       0.260280 
     -999.2500     12136.7744      5353.2544     12375.6123      7360.0044 
      0.234252      1747.7578         2.5306         1.5050     11415.5244 
     3023.8845      5554.6338     15845.7520         1.7566      9020.5186 
        6.8959         4.5192
    3523.17320 
       41.0956        67.0472        47.6297        86.4647      1265.0492 
       63.0233       110.2197     12231.0127      6993.6597        20.4726 
       20.4726        51.7751        19.3402    0.000526477       0.257111 
     -999.2500     12137.3789      5353.2720     12377.9004      7326.9624 
      0.231400      1758.1841         2.5310         1.4982     11370.2930 
     3104.3594      5564.0923     15867.1475         1.7489      9072.7920 
        7.0525         4.6542
    3523.32560 
       41.1005        69.3960        49.5104        89.2817      1265.2676 
       63.0090       109.3496     12433.8789      7164.6035        20.2066 
       20.2066        51.9383        19.9706    0.000552528       0.251469 
     -999.2500     12137.9844      5353.2900     12381.4590      7268.4893 
      0.226322      1844.8688         2.5316         1.4862     11426.7158 
     3206.8726      5565.6846     15870.7490         1.7355      9144.9844 
        7.2497         4.8263
    3523.47800 
       41.5679        72.0875        49.3891        94.7859      1286.2544 
       61.6546       107.0515     12822.0439      7384.6528        21.3364 
       21.3364        55.3386        21.0258    0.000586989       0.251833 
     -999.2500     12138.5898      5353.3071     12381.8750      7272.8989 
      0.226650      2137.1025         2.5316         1.4870     12020.0020 
     3411.0969      5719.8101     16219.3906         1.7363      9341.3008 
        7.6350         5.1689
    3523.63040 
       42.4976        73.5872        45.6282       101.5462      1328.9161 
       59.0187       104.0929     13329.3770      7557.5054        24.5800 
       24.5800        63.4405        22.1295    0.000614790       0.263115 
     -999.2500     12139.1953      5353.3247     12376.5381      7392.3340 
      0.236804      2325.1091         2.5304         1.5114     12634.8857 
     3669.0227      6040.0459     16943.7832         1.7637      9606.8047 
        8.1082         5.6017
    3523.78280 
       43.5516        73.0088        38.9230       107.0946      1378.8414 
       56.1220       102.0526     13897.3027      7642.5728        29.8245 
       29.8245        76.3172        22.8260    0.000628708       0.283231 
     -999.2500     12139.8008      5353.3418     12366.1572      7612.6670 
      0.254908      2425.4890         2.5282         1.5563     13276.3115 
     3886.5496      6426.6587     17818.3223         1.8184      9798.8682 
        8.4966         5.9668
    3523.93520 
       43.9707        72.2958        36.2313       108.3603      1399.1794 
       54.9967       101.3471     14043.7197      7620.9238        31.9927 
       31.9927        81.0691        22.9198    0.000625152       0.291306 
     -999.2500     12140.4063      5353.3594     12362.2158      7704.2207 
      0.262176      2488.1160         2.5272         1.5750     13584.6729 
     3936.9126      6587.8325     18182.9102         1.8428      9867.0840 
        8.5852         6.0513
    3524.08760 
       43.7368        73.2947        38.9747       107.6147      1387.7936 
       55.6229       101.1198     13827.5059      7606.0854        29.9182 
       29.9182        75.4948        22.9266    0.000622720       0.283076 
     -999.2500     12141.0117      5353.3765     12367.4912      7611.4160 
      0.254768      2591.9160         2.5282         1.5559     13606.6631 
     3907.2112      6497.3394     17978.2090         1.8180      9889.2588 
        8.5330         6.0014
    3524.24000 
       43.5539        74.8456        41.5974       108.0938      1378.9503 
       56.1159       100.7632     13747.3203      7656.0010        28.3527 
       28.3527        71.7601        23.1587    0.000630920       0.275208 
     -999.2500     12141.6162      5353.3940     12372.4717      7524.5093 
      0.247687      2982.5354         2.5291         1.5381     14214.0898 
     3926.2852      6427.5156     17820.2617         1.7956      9924.2559 
        8.5666         6.0334
    3524.39240 
       43.5418        75.7129        42.1905       109.2353      1378.3691 
       56.1485       100.5483     13827.6914      7721.7056        28.2483 
       28.2483        71.9556        23.4074    0.000641795       0.273428 
     -999.2500     12142.2227      5353.4111     12374.0674      7505.3345 
      0.246086      3068.8208         2.5293         1.5341     14348.3105 
     3971.8887      6422.9414     17809.9160         1.7908      9945.4717 
        8.6465         6.1100
