~Version Information Block
VERS .                  2.0:  CWLS LOG ASCII STANDARD - VERSION 2.0
WRAP .                  YES:  Multiple lines per depth step
~Well Information Block
#MNEM.UNIT        Data Type   Information
#---------- ----------------  -----------
STRT .M          2656.78920:  START DEPTH
STOP .M          3640.98840:  STOP DEPTH
STEP .M             0.15240:  STEP
NULL .              -999.25:  NULL VALUE
COMP .                     :  COMPANY
WELL .       RAAG-98-07-214:  WELL
FLD  .                     :  FIELD
LOC  .                     :  LOCATION
CTRY .                     :  COUNTRY
STAT .                     :  STATE
CNTY .                     :  COUNTY
SRVC .                     :  SERVICE COMPANY
DATE .                     :  DATE
API  .                     :  API NUMBER
UWI  .                     :  UNIQUE WELL ID
~Curve Information Block
#MNEM.UNIT         API CODE   Curve Description
#---------- ----------------  -----------------
DEPTH.M                    :  
ANGLE_FAIL.DEG                  :  Fail Angle
BRIT_IND.                     :  Brittleness Index
BRIT_PR.                     :  Brittleness Index from Poisson's Ratio
BRIT_YM.                     :  Brittleness Index from Young's Modulus
CS   .M/MIN                 :  Compressive Strength
IP   .RAYL/M2                 :  P Impedence
IS   .RAYL/M2                 :  S Impedance
KBULK.                     :  Bulk Mudulus
LAMBDA.                     :  Lambda
LAMRHO.                     :  
MU   .CP                   :  Mu
MURHO.(GF/C3S)2                 :  Mu*Rho
PR   .                     :  Poisson's ratio
PRESS_FG.PSI                  :  Fracture Gradient Pressure
PRESS_OB.PSI                  :  Over-burden Pressure
PRESS_PP.PSI                  :  Pore Pressure
PRESS_SHMAX.PSI                  :  Horizontal Stress (Max)
PRESS_SHMIN.PSI                  :  Horizontal Stress (Min)
PR_STAT.                     :  Poisson's ratio (Static)
PZS  .PSI                  :  Processed Zone Stress
SHMAX_GRAD.                     :  Horizontal Stress Gradient (Max)
SHMIN_GRAD.                     :  Horizontal Stress Gradient (Min)
STRESS_CUM.PSI                  :  Cumulative stress (SHPZ)
UCS_BF.PSI                  :  Uniaxial Compressive Strength (BF)
UCS_LAL.PSI                  :  Uniaxial Compressive Strength (lal)
VP   .FT/S                 :  Compressional velocity
VPVS .                     :  Vp / Vs ratio
VS   .FT/S                 :  Shear velocity
YM   .                     :  Youngs' Modulus
YM_STAT.                     :  Youngs' Modulus (Static)
~Parameter Information Block
#MNEM.UNIT            Value   Description
#---------- ----------------  -----------
PROJECT.          RDG_13Jul21:  
SET  .              GEOMECH:  
~Other Information Block
~Ascii Log Data
# ...
    2980.63920 
       37.7207        38.1754        23.8168        52.5340      1121.8153 
    11447.6436      5784.6689        23.2582        23.2582        64.1237 
       12.1371    0.000360186       0.328549      -999.2500      9910.2217 
     5150.6089     10051.0811      7093.0342       0.295695      3029.5757 
        2.4652         1.7397     13445.2197      1976.2574      4571.8071 
    13622.5391         1.9790      6883.6772         4.6774         2.7613
    2980.79160 
       37.8114        38.3286        23.6533        53.0039      1125.4886 
    11502.3701      5806.1221        23.5154        23.5154        64.8824 
       12.2179    0.000362863       0.329040      -999.2500      9910.7949 
     5150.6982     10051.4502      7097.6943       0.296136      2981.4919 
        2.4651         1.7407     13358.3721      1990.5349      4595.9692 
    13677.1953         1.9811      6903.9219         4.7103         2.7852
    2980.94400 
       37.8854        39.1660        24.3819        53.9500      1128.4949 
    11535.5674      5850.4648        23.4270        23.4270        64.6134 
       12.4101    0.000368426       0.326854      -999.2500      9911.3691 
     5150.7876     10052.9990      7078.7847       0.294169      2947.6455 
        2.4654         1.7360     13252.8604      2019.3954      4615.7944 
    13722.0410         1.9717      6959.3735         4.7765         2.8337
    2981.09640 
       37.9947        40.5302        25.5799        55.4805      1132.9414 
    11591.5264      5923.7524        23.2705        23.2705        64.1818 
       12.7229    0.000377715       0.323260      -999.2500      9911.9443 
     5150.8770     10055.1553      7047.7319       0.290934      2857.5942 
        2.4658         1.7283     13010.6523      2066.4089      4645.1987 
    13788.5566         1.9568      7046.5264         4.8836         2.9126
    2981.24880 
       38.3462        41.8349        25.7395        57.9303      1147.3375 
    11793.4453      6032.9644        23.9956        23.9956        66.2920 
       13.1744    0.000391770       0.322782      -999.2500      9912.5195 
     5150.9663     10055.9443      7044.0317       0.290503      3013.0981 
        2.4659         1.7273     13314.2588      2142.4949      4741.0776 
    14005.4395         1.9548      7164.5151         5.0551         3.0402
    2981.40120 
       38.8950        43.7721        25.7399        61.8043      1170.0992 
    12125.0293      6202.6030        25.2826        25.2826        70.0718 
       13.8812    0.000414112       0.322780      -999.2500      9913.0938 
     5151.0552     10056.5186      7044.5967       0.290502      3073.2393 
        2.4659         1.7273     13435.6719      2264.9082      4894.7842 
    14353.1318         1.9548      7342.3970         5.3263         3.2456
    2981.55360 
       39.5630        46.3912        25.7404        67.0420      1198.2800 
    12575.3125      6432.9688        27.0226        27.0226        75.3723 
       14.8367    0.000445444       0.322779      -999.2500      9913.6689 
     5151.1445     10057.0889      7045.2710       0.290501      3079.2476 
        2.4659         1.7274     13449.0371      2434.4993      5088.6851 
    14791.7480         1.9548      7566.7983         5.6929         3.5302
    2981.70600 
       40.1986        49.3620        26.1053        72.6186      1225.6033 
    13006.2471      6668.5439        28.6247        28.6247        80.2235 
       15.8672    0.000478665       0.321684      -999.2500      9914.2432 
     5151.2339     10058.1318      7036.4800       0.289516      3075.8787 
        2.4660         1.7252     13424.7178      2620.2222      5280.5039 
    15225.6543         1.9504      7806.4741         6.0833         3.8419
    2981.85840 
       40.6080        52.8089        28.1615        77.4563      1243.4734 
    13204.5205      6855.2104        28.7819        28.7819        80.3715 
       16.8290    0.000505838       0.315515      -999.2500      9914.8184 
     5151.3232     10061.3594      6984.0039       0.283964      3055.0295 
        2.4667         1.7122     13278.0664      2785.6450      5408.0000 
    15514.0566         1.9262      8054.2207         6.4219         4.1194
    2982.01080 
       40.7425        55.8355        31.2058        80.4652      1249.3938 
    13177.9053      6962.3921        27.6962        27.6962        76.7074 
       17.5025    0.000521780       0.306383      -999.2500      9915.3926 
     5151.4126     10065.7959      6907.3218       0.275744      3073.2393 
        2.4676         1.6933     13161.1221      2890.5537      5450.5962 
    15610.4121         1.8927      8247.5791         6.6326         4.2955
    2982.16320 
       40.6282        58.0394        34.7518        81.3271      1244.3616 
    12971.6758      6985.8271        25.7826        25.7826        70.6608 
       17.8067    0.000525298       0.295745      -999.2500      9915.9668 
     5151.5015     10070.7705      6819.9009       0.266170      3078.7627 
        2.4687         1.6718     12997.3271      2920.8906      5414.3789 
    15528.4873         1.8569      8362.7842         6.6929         4.3464
    2982.31560 
       40.5600        60.0795        37.9941        82.1649      1241.3687 
    12798.8818      7006.7583        24.1914        24.1914        65.6221 
       18.0986    0.000528451       0.286018      -999.2500      9916.5420 
     5151.5908     10075.2715      6741.9604       0.257416      3044.2749 
        2.4697         1.6526     12772.4707      2950.5037      5392.8994 
    15479.8984         1.8266      8474.4834         6.7515         4.3961
    2982.46800 
       40.6107        61.9034        40.1300        83.6768      1243.5951 
    12768.7910      7062.5557        23.4385        23.4385        63.2826 
       18.4744    0.000536901       0.279610      -999.2500      9917.1162 
     5151.6797     10078.3838      6691.7676       0.251649      2962.4961 
        2.4703         1.6402     12508.5273      3004.2429      5408.8735 
    15516.0342         1.8080      8582.0850         6.8574         4.4862
    2982.62040 
       40.7182        63.3758        41.1365        85.6150      1248.3237 
    12865.9902      7149.9316        23.3798        23.3798        63.2907 
       18.8844    0.000550267       0.276591      -999.2500      9917.6914 
     5151.7686     10080.1455      6668.6123       0.248932      2869.0781 
        2.4706         1.6345     12275.3809      3073.7056      5442.8838 
    15592.9668         1.7995      8665.3760         6.9931         4.6028
    2982.77280 
       40.9473        65.3384        41.5714        89.1055      1258.4520 
    13136.1025      7314.7305        23.9672        23.9672        65.5466 
       19.5642    0.000575926       0.275286      -999.2500      9918.2656 
     5151.8579     10081.2285      6659.0137       0.247757      3016.0779 
        2.4708         1.6320     12550.1836      3200.4214      5516.1128 
    15758.6162         1.7958      8775.0557         7.2374         4.8154
    2982.92520 
       41.3156        66.4130        40.4431        92.3830      1274.8855 
    13428.0996      7438.1885        25.3465        25.3465        69.6606 
       20.1310    0.000595531       0.278671      -999.2500      9918.8398 
     5151.9473     10080.4873      6685.8828       0.250804      3073.1423 
        2.4704         1.6385     12718.0498      3321.3049      5636.0391 
    16029.8955         1.8053      8879.3936         7.4668         5.0183
    2983.07760 
       41.6558        66.4025        38.6694        94.1356      1290.2321 
    13606.8301      7473.6553        26.7902        26.7902        73.4348 
       20.3770    0.000601224       0.283992      -999.2500      9919.4150 
     5152.0361     10078.9785      6728.1450       0.255593      3072.2227 
        2.4699         1.6488     12800.7354      3386.7007      5749.2744 
    16286.0410         1.8206      8945.2324         7.5895         5.1280
