~Version Information Block
VERS .                  2.0:  CWLS LOG ASCII STANDARD - VERSION 2.0
WRAP .                  YES:  Multiple lines per depth step
~Well Information Block
#MNEM.UNIT        Data Type   Information
#---------- ----------------  -----------
STRT .M          2945.58720:  START DEPTH
STOP .M          3894.88680:  STOP DEPTH
STEP .M             0.15240:  STEP
NULL .              -999.25:  NULL VALUE
COMP .                     :  COMPANY
WELL .       RAAG-97-02-106:  WELL
FLD  .                     :  FIELD
LOC  .                     :  LOCATION
CTRY .                     :  COUNTRY
STAT .                     :  STATE
CNTY .                     :  COUNTY
SRVC .                     :  SERVICE COMPANY
DATE .                     :  DATE
API  .                     :  API NUMBER
UWI  .                     :  UNIQUE WELL ID
~Curve Information Block
#MNEM.UNIT         API CODE   Curve Description
#---------- ----------------  -----------------
DEPTH.M                    :  
ANGLE_FAIL.DEG                  :  Fail Angle
BRIT_IND.                     :  Brittleness Index
BRIT_PR.                     :  Brittleness Index from Poisson's Ratio
BRIT_YM.                     :  Brittleness Index from Young's Modulus
CS   .M/MIN                 :  Compressive Strength
DEN  .G/C3                 :  (HDRS-H)                (2in)                   Standard Resolution Formation Density
DTCO .US/F                 :  Compressional slowness
DTSM .US/F                 :  Description
IP   .RAYL/M2                 :  P Impedence
IS   .RAYL/M2                 :  S Impedance
KBULK.                     :  Bulk Mudulus
LAMBDA.                     :  Lambda
LAMRHO.                     :  
MU   .CP                   :  Mu
MURHO.(GF/C3S)2                 :  Mu*Rho
PR   .                     :  Poisson's ratio
PRESS_FG.PSI                  :  Fracture Gradient Pressure
PRESS_OB.PSI                  :  Over-burden Pressure
PRESS_PP.PSI                  :  Pore Pressure
PRESS_SHMAX.PSI                  :  Horizontal Stress (Max)
PRESS_SHMIN.PSI                  :  Horizontal Stress (Min)
PR_STAT.                     :  Poisson's ratio (Static)
PZS  .PSI                  :  Processed Zone Stress
SHMAX_GRAD.                     :  Horizontal Stress Gradient (Max)
SHMIN_GRAD.                     :  Horizontal Stress Gradient (Min)
STRESS_CUM.PSI                  :  Cumulative stress (SHPZ)
UCS_BF.PSI                  :  Uniaxial Compressive Strength (BF)
UCS_LAL.PSI                  :  Uniaxial Compressive Strength (lal)
VP   .FT/S                 :  Compressional velocity
VPVS .                     :  Vp / Vs ratio
VS   .FT/S                 :  Shear velocity
YM   .                     :  Youngs' Modulus
YM_STAT.                     :  Youngs' Modulus (Static)
~Parameter Information Block
#MNEM.UNIT            Value   Description
#---------- ----------------  -----------
PROJECT.          RDG_13Jul21:  
SET  .              GEOMECH:  
~Other Information Block
~Ascii Log Data
# ...
    3279.64800 
       42.1834        68.1222        35.9595       100.2849      1314.3572 
        2.8141        59.9010       110.5373     14319.4248      7759.8066 
       30.0685        30.0685        84.6167        21.3972         0.0006 
      0.292122      -999.2500     10120.3428      5181.9570     10282.1484 
     6884.2236       0.262909      2718.1145         2.4745         1.6567 
    12404.6768      3620.3062      5929.7144     16694.2070         1.8453 
     9046.7188         8.0199         5.5200
    3279.80040 
       40.8524        65.9855        41.5696        90.4013      1254.2478 
        2.7935        63.7360       114.4608     13359.3125      7438.9639 
       24.2685        24.2685        67.7949        19.8094         0.0006 
      0.275291      -999.2500     10120.9277      5182.0405     10289.6865 
     6745.7466       0.247762      2752.4492         2.4762         1.6233 
    12196.3916      3247.9961      5485.6528     15689.7129         1.7959 
     8736.6182         7.3281         4.8953
    3279.95280 
       40.0649        62.9891        42.6100        83.3681      1219.8125 
        2.7815        66.0808       118.1095     12829.5313      7177.9644 
       22.1289        22.1289        61.5505        18.5239         0.0006 
      0.272170      -999.2500     10121.5127      5182.1245     10291.5645 
     6720.4629       0.244953      2223.6123         2.4765         1.6172 
    11088.1504      2993.2373      5239.5356     15132.9814         1.7873 
     8466.7158         6.8358         4.4678
    3280.10520 
       39.8003        60.5599        41.9673        79.1525      1208.4235 
        2.7381        66.8814       119.8904     12478.3623      6961.1104 
       21.4731        21.4731        58.7954        17.6974         0.0005 
      0.274098      -999.2500     10122.0986      5182.2080     10291.4141 
     6735.7793       0.246688      1575.0361         2.4763         1.6208 
     9821.6309      2844.5967      5159.4556     14951.8350         1.7926 
     8340.9482         6.5407         4.2184
    3280.25760 
       40.0390        59.0776        41.4977        76.6575      1218.6936 
        2.6161        66.1589       118.8513     12052.5596      6709.0908 
       21.1156        21.1156        55.2404        17.2058         0.0005 
      0.275507      -999.2500     10122.6836      5182.2915     10291.4609 
     6747.1304       0.247956      1004.6703         2.4762         1.6234 
     8703.6016      2758.0549      5231.6396     15115.1191         1.7965 
     8413.8730         6.3660         4.0731
    3280.41000 
       40.8108        56.3305        38.1423        74.5186      1252.4086 
        2.4379        63.8585       116.5622     11636.0830      6374.8130 
       22.2005        22.2005        54.1219        16.6696         0.0004 
      0.285573      -999.2500     10123.2686      5182.3750     10287.9785 
     6829.0713       0.257016       622.5850         2.4752         1.6430 
     8103.3120      2684.7158      5472.3550     15659.6328         1.8253 
     8579.1094         6.2163         3.9501
    3280.56240 
       41.7768        56.8286        35.9377        77.7195      1295.7300 
        2.3482        61.0558       112.6807     11722.8105      6351.9775 
       24.1581        24.1581        56.7290        17.1820         0.0004 
      0.292187      -999.2500     10123.8535      5182.4585     10285.8232 
     6884.4580       0.262968       511.3077         2.4746         1.6563 
     7991.5313      2794.7620      5790.1338     16378.4668         1.8455 
     8874.6348         6.4404         4.1347
    3280.71480 
       42.3893        62.8039        37.6600        87.9478      1323.8779 
        2.4307        59.3221       108.5389     12489.2031      6825.9873 
       25.8326        25.8326        62.7920        19.1688         0.0005 
      0.287020      -999.2500     10124.4395      5182.5420     10288.5322 
     6842.5859       0.258318       752.6590         2.4751         1.6461 
     8390.4893      3158.1611      6001.7417     16857.1367         1.8297 
     9213.2861         7.1563         4.7445
    3280.86720 
       42.5040        69.4763        40.3257        98.6270      1329.2103 
        2.6044        59.0010       106.5729     13454.6045      7448.7554 
       26.8995        26.8995        70.0584        21.3035         0.0006 
      0.279023      -999.2500     10125.0244      5182.6255     10292.3613 
     6778.2876       0.251121      1314.0715         2.4759         1.6306 
     9384.7178      3556.6887      6042.2871     16948.8516         1.8063 
     9383.2461         7.9039         5.4133
    3281.01960 
       42.4550        75.4496        44.1387       106.7605      1326.9313 
        2.7337        59.1380       104.9814     14089.7920      7937.0425 
       26.5311        26.5311        72.5290        23.0442         0.0007 
      0.267584      -999.2500     10125.6094      5182.7085     10297.5020 
     6687.7544       0.240826      1880.6680         2.4770         1.6087 
    10336.8447      3873.3015      6024.9399     16909.6113         1.7752 
     9525.5000         8.4732         5.9445
    3281.17200 
       42.4656        79.0981        47.3273       110.8690      1327.4229 
        2.7684        59.1084       103.5034     14275.5244      8152.4243 
       25.5985        25.5985        70.8666        24.0075         0.0007 
      0.258018      -999.2500     10126.1953      5182.7925     10301.8193 
     6613.7227       0.232216      2022.1895         2.4779         1.5908 
    10471.8242      4037.5391      6028.6797     16918.0723         1.7511 
     9661.5225         8.7608         6.2201
    3281.32440 
       42.7226        78.8669        45.9998       111.7340      1339.4301 
        2.7424        58.3923       102.8242     14314.8516      8129.1821 
       26.5273        26.5273        72.7478        24.0972         0.0007 
      0.262000      -999.2500     10126.7803      5182.8760     10300.8740 
     6644.9038       0.235800      1800.9764         2.4776         1.5982 
    10091.7607      4072.4883      6120.3994     17125.5469         1.7609 
     9725.3320         8.8214         6.2788
    3281.47680 
       43.2308        77.0455        41.1909       112.9001      1363.4639 
        2.7209        56.9935       102.5314     14551.3545      8088.5688 
       29.7298        29.7298        80.8920        24.0453         0.0007 
      0.276427      -999.2500     10127.3652      5182.9590     10295.7559 
     6759.5625       0.248785      1725.2000         2.4762         1.6257 
    10169.5254      4119.7998      6306.2109     17545.8652         1.7990 
     9753.1084         8.9030         6.3582
    3281.62920 
       43.5992        76.4478        38.1643       114.7313      1381.1362 
        2.7226        55.9935       102.1951     14820.6563      8120.3525 
       32.2377        32.2377        87.7716        24.2192         0.0007 
      0.285507      -999.2500     10127.9512      5183.0425     10292.6494 
     6833.9844       0.256956      1975.5166         2.4753         1.6435 
    10819.0020      4194.5713      6444.7378     17859.2207         1.8251 
     9785.2051         9.0312         6.4836
    3281.78160 
       43.6751        77.2811        38.1908       116.3714      1384.8038 
        2.7366        55.7889       101.8085     14951.2646      8192.9775 
       32.6283        32.6283        89.2906        24.5286         0.0007 
      0.285428      -999.2500     10128.5361      5183.1265     10293.2764 
     6833.7368       0.256885      2378.8618         2.4754         1.6434 
    11625.1973      4262.0225      6473.6880     17924.7070         1.8249 
     9822.3613         9.1460         6.5968
    3281.93400 
       43.5419        77.9634        39.5239       116.4029      1378.3746 
        2.7457        56.1482       101.8061     14904.8496      8220.3369 
       31.6887        31.6887        87.0067        24.6111         0.0007 
      0.281428      -999.2500     10129.1211      5183.2095     10295.5176 
     6801.1973       0.253285      2668.7568         2.4758         1.6355 
    12139.9082      4263.3242      6422.9844     17810.0117         1.8132 
     9822.5947         9.1482         6.5990
