~Version Information Block
VERS .                  2.0:  CWLS LOG ASCII STANDARD - VERSION 2.0
WRAP .                  YES:  Multiple lines per depth step
~Well Information Block
#MNEM.UNIT        Data Type   Information
#---------- ----------------  -----------
STRT .M          2888.43720:  START DEPTH
STOP .M          3831.03120:  STOP DEPTH
STEP .M             0.15240:  STEP
NULL .              -999.25:  NULL VALUE
COMP .                     :  COMPANY
WELL .       RAAG-99-02-105:  WELL
FLD  .                     :  FIELD
LOC  .                     :  LOCATION
CTRY .                     :  COUNTRY
STAT .                     :  STATE
CNTY .                     :  COUNTY
SRVC .                     :  SERVICE COMPANY
DATE .                     :  DATE
API  .                     :  API NUMBER
UWI  .                     :  UNIQUE WELL ID
~Curve Information Block
#MNEM.UNIT         API CODE   Curve Description
#---------- ----------------  -----------------
DEPTH.M                    :  
ANGLE_FAIL.DEG                  :  Fail Angle
BRIT_IND.                     :  Brittleness Index
BRIT_PR.                     :  Brittleness Index from Poisson's Ratio
BRIT_YM.                     :  Brittleness Index from Young's Modulus
CS   .M/MIN                 :  Compressive Strength
DTCO .US/F                 :  Compressional slowness
DTSM .US/F                 :  Fast Shear Slowness
IP   .RAYL/M2                 :  P Impedence
IS   .RAYL/M2                 :  S Impedance
KBULK.                     :  Bulk Mudulus
LAMBDA.                     :  Lambda
LAMRHO.                     :  
MU   .CP                   :  Mu
MURHO.(GF/C3S)2                 :  Mu*Rho
PR   .                     :  Poisson's ratio
PRESS_FG.PSI                  :  Fracture Gradient Pressure
PRESS_OB.PSI                  :  Over-burden Pressure
PRESS_PP.PSI                  :  Pore Pressure
PRESS_SHMAX.PSI                  :  Horizontal Stress (Max)
PRESS_SHMIN.PSI                  :  Horizontal Stress (Min)
PR_STAT.                     :  Poisson's ratio (Static)
PZS  .PSI                  :  Processed Zone Stress
SHMAX_GRAD.                     :  Horizontal Stress Gradient (Max)
SHMIN_GRAD.                     :  Horizontal Stress Gradient (Min)
STRESS_CUM.PSI                  :  Cumulative stress (SHPZ)
UCS_BF.PSI                  :  Uniaxial Compressive Strength (BF)
UCS_LAL.PSI                  :  Uniaxial Compressive Strength (lal)
VP   .FT/S                 :  Compressional velocity
VPVS .                     :  Vp / Vs ratio
VS   .FT/S                 :  Shear velocity
YM   .                     :  Youngs' Modulus
YM_STAT.                     :  Youngs' Modulus (Static)
~Parameter Information Block
#MNEM.UNIT            Value   Description
#---------- ----------------  -----------
PROJECT.          RDG_13Jul21:  
SET  .              GEOMECH:  
~Other Information Block
~Ascii Log Data
# ...
    3383.43240 
       38.9509        55.4540        48.7518        62.1562      1172.4369 
       69.4967       120.9804     10166.2432      5839.9570        15.1607 
       15.1607        35.1423        14.7133    0.000367104       0.253745 
     -999.2500     10693.0137      5254.1436     10887.9609      6794.0693 
      0.228370      2090.7861         2.4935         1.5559     10969.7109 
     2276.1565      4910.7168     14389.1729         1.7408      8265.8018 
        5.3509         3.2645
    3383.58480 
       39.3068        58.0154        49.6717        66.3591      1187.4069 
       68.3927       118.6157     10499.5645      6053.9507        15.6795 
       15.6795        36.9402        15.5565    0.000394501       0.250985 
     -999.2500     10693.6045      5254.2085     10889.7090      6771.5156 
      0.225886      2068.9565         2.4938         1.5507     10880.9443 
     2412.1223      5013.3975     14621.4443         1.7343      8430.5879 
        5.6451         3.4927
    3383.73720 
       39.6465        59.8495        49.7706        69.9285      1201.8407 
       67.3500       116.7609     10791.0967      6224.5181        16.3386 
       16.3386        38.9585        16.2489    0.000417044       0.250688 
     -999.2500     10694.1953      5254.2725     10890.4297      6769.5161 
      0.225619      1934.1132         2.4938         1.5502     10607.2588 
     2529.9646      5113.4688     14847.8105         1.7336      8564.5107 
        5.8950         3.6904
    3383.88960 
       39.9017        60.6867        49.2249        72.1485      1212.7782 
       66.5738       115.6695     10981.8340      6320.6152        16.9682 
       16.9682        40.7003        16.6554    0.000430020       0.252325 
     -999.2500     10694.7861      5254.3374     10890.3477      6783.5557 
      0.227093      1767.3070         2.4937         1.5533     10301.7256 
     2604.3582      5189.9980     15020.9248         1.7375      8645.3213 
        6.0504         3.8152
    3384.04200 
       40.0594        59.8489        47.3231        72.3748      1219.5779 
       66.0972       115.7433     11053.7793      6312.4507        17.7267 
       17.7267        42.4920        16.6233    0.000428910       0.258031 
     -999.2500     10695.3779      5254.4019     10888.5557      6831.8140 
      0.232228      1710.0594         2.4931         1.5643     10283.7471 
     2611.9900      5237.8794     15129.2344         1.7511      8639.8096 
        6.0662         3.8280
    3384.19440 
       40.0756        57.7301        44.5482        70.9120      1220.2777 
       66.0484       117.0381     11046.8105      6234.0737        18.5082 
       18.5082        44.3047        16.2353    0.000418325       0.266355 
     -999.2500     10695.9688      5254.4663     10885.6084      6903.1694 
      0.239720      1795.4694         2.4923         1.5805     10597.2773 
     2562.8208      5242.8208     15140.4111         1.7720      8544.2256 
        5.9638         3.7455
    3384.34680 
       39.9641        56.0154        42.8919        69.1390      1215.4641 
       66.3850       118.5024     10989.9258      6156.5522        18.7886 
       18.7886        44.9722        15.8353    0.000407986       0.271324 
     -999.2500     10696.5596      5254.5308     10884.0645      6946.4678 
      0.244192      1842.0874         2.4919         1.5904     10777.1104 
     2503.7122      5208.8833     15063.6436         1.7851      8438.6475 
        5.8397         3.6463
    3384.49920 
       39.8539        55.9449        43.3687        68.5211      1210.7223 
       66.7188       118.8440     10928.9121      6135.4712        18.4566 
       18.4566        44.1531        15.7357    0.000405197       0.269894 
     -999.2500     10697.1514      5254.5952     10885.3008      6934.1680 
      0.242905      1802.1957         2.4920         1.5875     10672.7275 
     2483.2395      5175.5664     14988.2783         1.7813      8414.3916 
        5.7965         3.6120
    3384.65160 
       39.8790        57.2520        45.0381        69.4658      1211.8005 
       66.6427       117.8394     10923.0059      6177.3789        18.0015 
       18.0015        42.9920        15.9782    0.000410751       0.264886 
     -999.2500     10697.7422      5254.6602     10888.0752      6891.0703 
      0.238397      1695.3184         2.4925         1.5775     10372.7773 
     2514.5681      5183.1328     15005.3936         1.7682      8486.1260 
        5.8626         3.6646
    3384.80400 
       40.0565        58.8378        46.1426        71.5330      1219.4502 
       66.1061       116.3368     11026.4248      6265.5493        18.0091 
       18.0091        43.0678        16.4156    0.000422560       0.261572 
     -999.2500     10698.3330      5254.7241     10890.0986      6863.0142 
      0.235415      1599.4838         2.4929         1.5710     10124.9961 
     2583.6492      5236.9785     15127.1963         1.7598      8595.7324 
        6.0073         3.7805
    3384.95640 
       40.2460        59.8077        46.3862        73.2293      1227.6608 
       65.5365       115.2150     11130.8643      6331.4487        18.2684 
       18.2684        43.7216        16.7498    0.000431496       0.260841 
     -999.2500     10698.9248      5254.7891     10891.0146      6857.1230 
      0.234757      1603.9956         2.4929         1.5696     10122.2373 
     2640.8818      5295.1011     15258.6719         1.7580      8679.4258 
        6.1260         3.8765
    3385.10880 
       40.3244        60.4973        46.8262        74.1683      1231.0729 
       65.3017       114.5889     11180.0820      6371.2832        18.2893 
       18.2893        43.8077        16.9473    0.000436942       0.259521 
     -999.2500     10699.5156      5254.8535     10892.1826      6846.1699 
      0.233569      1647.0853         2.4931         1.5670     10186.5107 
     2672.7788      5319.3555     15313.5381         1.7548      8726.8486 
        6.1918         3.9300
    3385.26120 
       40.2848        61.1216        48.0023        74.2408      1229.3473 
       65.4203       114.2352     11131.2979      6374.6807        17.8443 
       17.8443        42.6327        17.0088    0.000437408       0.255993 
     -999.2500     10700.1064      5254.9175     10894.2861      6816.4971 
      0.230394      1704.0181         2.4935         1.5601     10241.0303 
     2675.2473      5307.0820     15285.7744         1.7462      8753.8691 
        6.1969         3.9342
    3385.41360 
       40.1820        61.2355        48.8476        73.6234      1224.8827 
       65.7285       114.3760     11051.2813      6350.8442        17.3990 
       17.3990        41.4644        16.9243    0.000434143       0.253457 
     -999.2500     10700.6982      5254.9824     10895.9658      6795.3320 
      0.228111      1740.1495         2.4937         1.5552     10270.9629 
     2654.2507      5275.3965     15214.1006         1.7401      8743.0928 
        6.1536         3.8990
    3385.56600 
       40.0486        60.3633        48.4753        72.2513      1219.1093 
       66.1299       115.2497     10968.8076      6293.8652        17.2658 
       17.2658        41.0893        16.6453    0.000426388       0.254574 
     -999.2500     10701.2891      5255.0464     10896.1113      6804.8335 
      0.229117      1711.1697         2.4936         1.5573     10232.0059 
     2607.8240      5234.5723     15121.7529         1.7428      8676.8125 
        6.0576         3.8211
    3385.71840 
       39.9106        59.3930        47.9617        70.8243      1213.1589 
       66.5470       116.2221     10888.6074      6234.6499        17.1707 
       17.1707        40.8200        16.3508    0.000418402       0.256115 
     -999.2500     10701.8799      5255.1108     10896.0762      6817.9370 
      0.230503      1619.2383         2.4935         1.5602     10074.3506 
     2559.8826      5192.6729     15026.9736         1.7465      8604.2158 
        5.9577         3.7406
