~Version Information Block
VERS .                  2.0:  CWLS LOG ASCII STANDARD - VERSION 2.0
WRAP .                  YES:  Multiple lines per depth step
~Well Information Block
#MNEM.UNIT        Data Type   Information
#---------- ----------------  -----------
STRT .M          2656.78920:  START DEPTH
STOP .M          3640.98840:  STOP DEPTH
STEP .M             0.15240:  STEP
NULL .              -999.25:  NULL VALUE
COMP .                     :  COMPANY
WELL .       RAAG-98-07-214:  WELL
FLD  .                     :  FIELD
LOC  .                     :  LOCATION
CTRY .                     :  COUNTRY
STAT .                     :  STATE
CNTY .                     :  COUNTY
SRVC .                     :  SERVICE COMPANY
DATE .                     :  DATE
API  .                     :  API NUMBER
UWI  .                     :  UNIQUE WELL ID
~Curve Information Block
#MNEM.UNIT         API CODE   Curve Description
#---------- ----------------  -----------------
DEPTH.M                    :  
ANGLE_FAIL.DEG                  :  Fail Angle
BRIT_IND.                     :  Brittleness Index
BRIT_PR.                     :  Brittleness Index from Poisson's Ratio
BRIT_YM.                     :  Brittleness Index from Young's Modulus
CS   .M/MIN                 :  Compressive Strength
IP   .RAYL/M2                 :  P Impedence
IS   .RAYL/M2                 :  S Impedance
KBULK.                     :  Bulk Mudulus
LAMBDA.                     :  Lambda
LAMRHO.                     :  
MU   .CP                   :  Mu
MURHO.(GF/C3S)2                 :  Mu*Rho
PR   .                     :  Poisson's ratio
PRESS_FG.PSI                  :  Fracture Gradient Pressure
PRESS_OB.PSI                  :  Over-burden Pressure
PRESS_PP.PSI                  :  Pore Pressure
PRESS_SHMAX.PSI                  :  Horizontal Stress (Max)
PRESS_SHMIN.PSI                  :  Horizontal Stress (Min)
PR_STAT.                     :  Poisson's ratio (Static)
PZS  .PSI                  :  Processed Zone Stress
SHMAX_GRAD.                     :  Horizontal Stress Gradient (Max)
SHMIN_GRAD.                     :  Horizontal Stress Gradient (Min)
STRESS_CUM.PSI                  :  Cumulative stress (SHPZ)
UCS_BF.PSI                  :  Uniaxial Compressive Strength (BF)
UCS_LAL.PSI                  :  Uniaxial Compressive Strength (lal)
VP   .FT/S                 :  Compressional velocity
VPVS .                     :  Vp / Vs ratio
VS   .FT/S                 :  Shear velocity
YM   .                     :  Youngs' Modulus
YM_STAT.                     :  Youngs' Modulus (Static)
~Parameter Information Block
#MNEM.UNIT            Value   Description
#---------- ----------------  -----------
PROJECT.          RDG_13Jul21:  
SET  .              GEOMECH:  
~Other Information Block
~Ascii Log Data
# ...
    3177.54000 
       43.3985        84.2414        47.6259       120.8568      1371.4802 
    14717.9922      8415.5742        27.4634        27.4634        74.9755 
       25.9419    0.000762320       0.257122      -999.2500     10656.9893 
     5250.1665     10849.1553      6813.6763       0.231410      3029.7910 
        2.4922         1.5652     12886.9346      4448.8481      6368.8486 
    17687.5547         1.7489     10113.5342         9.4600         6.9103
    3177.69240 
       42.5035        80.8340        50.3505       111.3176      1329.1913 
    14054.1162      8125.5010        24.0652        24.0652        65.4707 
       24.2685    0.000710674       0.248948      -999.2500     10657.5713 
     5250.2319     10853.2012      6744.9648       0.224054      2808.7581 
        2.4930         1.5493     12307.4463      4055.6460      6042.1416 
    16948.5234         1.7296      9798.9258         8.7922         6.2505
    3177.84480 
       41.5327        77.6059        55.1517       100.0600      1284.6603 
    13058.5107      7690.0537        19.7485        19.7485        52.2509 
       22.3512    0.000636545       0.234545      -999.2500     10658.1533 
     5250.2964     10859.6934      6627.3584       0.211090      2612.3611 
        2.4943         1.5222     11679.4395      3611.6477      5708.0239 
    16192.7295         1.6981      9535.7695         8.0042         5.5055
    3177.99720 
       40.6212        73.7170        58.5880        88.8459      1244.0538 
    12086.5303      7206.1895        16.5303        16.5303        42.2259 
       20.3289    0.000558961       0.224236      -999.2500     10658.7344 
     5250.3608     10864.4033      6545.3594       0.201812      2483.9529 
        2.4953         1.5033     11258.6250      3190.9268      5412.1685 
    15523.4863         1.6772      9255.3604         7.2192         4.7995
    3178.14960 
       40.0131        72.1386        61.1086        83.1686      1217.5773 
    11613.3037      6984.3760        14.7821        14.7821        37.3058 
       19.3292    0.000525080       0.216674      -999.2500     10659.3154 
     5250.4258     10867.9473      6486.6753       0.195007      2436.8035 
        2.4960         1.4898     11046.9570      2986.1353      5223.7676 
    15097.3135         1.6628      9079.6992         6.8218         4.4559
    3178.30200 
       40.4749        71.0982        55.9797        86.2166      1237.6411 
    12004.2715      7090.7227        17.0489        17.0489        43.5458 
       19.6848    0.000541192       0.232061      -999.2500     10659.8975 
     5250.4907     10862.5381      6607.0981       0.208855      2501.1304 
        2.4946         1.5173     11416.4570      3095.3972      5366.2109 
    15419.5273         1.6930      9108.0566         7.0352         4.6392
    3178.45440 
       42.3697        68.6269        40.3723        96.8816      1322.9698 
    13326.6250      7379.5220        26.4566        26.4566        68.6842 
       20.9765    0.000586174       0.278883      -999.2500     10660.4795 
     5250.5552     10843.4678      7000.7012       0.250995      2725.6008 
        2.4901         1.6077     12652.6045      3490.2183      5994.8525 
    16841.5527         1.8059      9325.8877         7.7817         5.3017
    3178.60680 
       43.1426        69.6544        36.6764       102.6323      1359.2631 
    13884.4844      7551.4712        30.1969        30.1969        78.7295 
       21.8720    0.000613809       0.289971      -999.2500     10661.0615 
     5250.6196     10839.0664      7100.9644       0.260974      2992.4004 
        2.4890         1.6306     13386.7295      3711.1892      6273.5190 
    17471.9121         1.8386      9502.5967         8.1843         5.6725
    3178.75920 
       43.5114        70.7514        36.0188       105.4839      1376.9059 
    14045.4492      7613.6387        31.3912        31.3912        81.3397 
       22.3713    0.000623957       0.291944      -999.2500     10661.6426 
     5250.6846     10838.7520      7119.4600       0.262749      3079.2959 
        2.4888         1.6348     13597.5117      3822.8601      6411.4307 
    17783.8750         1.8448      9640.1338         8.3839         5.8599
    3178.91160 
       43.5644        70.4667        35.7830       105.1504      1379.4575 
    13996.6533      7578.0649        31.4695        31.4695        81.0522 
       22.2968    0.000618140       0.292651      -999.2500     10662.2256 
     5250.7495     10839.0283      7126.1523       0.263386      3079.1506 
        2.4887         1.6362     13610.6055      3809.7288      6431.5098 
    17829.2969         1.8470      9653.1338         8.3605         5.8379
    3179.06400 
       43.4737        68.0856        34.0071       102.1640      1375.0942 
    13904.5527      7458.9961        31.9335        31.9335        82.0633 
       21.6500    0.000598868       0.297979      -999.2500     10662.8076 
     5250.8140     10837.1846      7175.2588       0.268181      3069.1985 
        2.4882         1.6474     13688.9150      3692.9836      6397.1953 
    17751.6758         1.8641      9522.7578         8.1515         5.6420
    3179.21640 
       43.3302        65.1889        32.1175        98.2603      1368.2085 
    13749.6367      7301.2114        32.2174        32.2174        82.4371 
       20.8332    0.000573799       0.303647      -999.2500     10663.3887 
     5250.8784     10835.1504      7228.1484       0.273283      3013.6462 
        2.4876         1.6595     13683.5889      3542.6770      6343.2441 
    17629.6348         1.8832      9361.5342         7.8782         5.3897
    3179.36880 
       43.1462        65.1235        32.8542        97.3928      1359.4357 
    13677.6221      7292.1675        31.4364        31.4364        80.7259 
       20.7078    0.000572379       0.301437      -999.2500     10663.9697 
     5250.9434     10836.7891      7207.5854       0.271294      2919.0986 
        2.4878         1.6547     13453.3672      3509.6321      6274.8604 
    17474.9473         1.8757      9316.6953         7.8175         5.3343
    3179.52120 
       43.0920        67.0125        34.7496        99.2754      1356.8579 
    13726.4375      7392.2129        30.6240        30.6240        79.1255 
       21.1493    0.000588192       0.295751      -999.2500     10664.5527 
     5251.0078     10840.0225      7155.1416       0.266176      2893.0098 
        2.4885         1.6426     13296.3037      3581.5117      6254.8418 
    17429.6641         1.8569      9386.5420         7.9493         5.4549
    3179.67360 
       43.1713        68.5788        35.4280       101.7295      1360.6306 
    13893.8916      7508.7402        30.8123        30.8123        80.2779 
       21.6403    0.000606882       0.293716      -999.2500     10665.1338 
     5251.0723     10841.5469      7136.8623       0.264344      2890.1279 
        2.4887         1.6383     13253.9805      3676.1228      6284.1514 
    17495.9629         1.8504      9455.4248         8.1211         5.6137
    3179.82600 
       43.2370        69.2755        35.5091       103.0419      1363.7598 
    13997.8975      7568.1050        31.1043        31.1043        81.3887 
       21.8892    0.000616516       0.293473      -999.2500     10665.7158 
     5251.1367     10842.2520      7134.9932       0.264125      2890.9116 
        2.4887         1.6378     13251.8096      3727.1448      6308.5166 
    17551.0801         1.8496      9489.1689         8.2129         5.6993
    3179.97840 
       43.2760        69.7637        35.8544       103.6730      1365.6180 
    14008.5547      7587.2778        31.0305        31.0305        81.1060 
       22.0246    0.000619644       0.292437      -999.2500     10666.2969 
     5251.2017     10843.3223      7125.7974       0.263193      2941.6799 
        2.4889         1.6356     13334.9541      3751.7822      6323.0103 
    17583.8652         1.8463      9523.7275         8.2571         5.7406
