~Version Information Block
VERS .                  2.0:  CWLS LOG ASCII STANDARD - VERSION 2.0
WRAP .                  YES:  Multiple lines per depth step
~Well Information Block
#MNEM.UNIT        Data Type   Information
#---------- ----------------  -----------
STRT .M          2738.62800:  START DEPTH
STOP .M          3798.57000:  STOP DEPTH
STEP .M             0.15240:  STEP
NULL .              -999.25:  NULL VALUE
COMP .                     :  COMPANY
WELL .      RAAG-106-07-211:  WELL
FLD  .                     :  FIELD
LOC  .                     :  LOCATION
CTRY .                     :  COUNTRY
STAT .                     :  STATE
CNTY .                     :  COUNTY
SRVC .                     :  SERVICE COMPANY
DATE .                     :  DATE
API  .                     :  API NUMBER
UWI  .                     :  UNIQUE WELL ID
~Curve Information Block
#MNEM.UNIT         API CODE   Curve Description
#---------- ----------------  -----------------
DEPTH.M                    :  
ANGLE_FAIL.DEG                  :  Fail Angle
BRIT_IND.                     :  Brittleness Index
BRIT_PR.                     :  Brittleness Index from Poisson's Ratio
BRIT_YM.                     :  Brittleness Index from Young's Modulus
CS   .M/MIN                 :  Compressive Strength
DTCO .US/F                 :  Compressional slowness
DTSM .US/F                 :  Fast Shear Slowness
IP   .RAYL/M2                 :  P Impedence
IS   .RAYL/M2                 :  S Impedance
KBULK.                     :  Bulk Mudulus
LAMBDA.                     :  Lambda
LAMRHO.                     :  
MU   .CP                   :  Mu
MURHO.(GF/C3S)2                 :  Mu*Rho
PR   .                     :  Poisson's ratio
PRESS_FG.PSI                  :  Fracture Gradient Pressure
PRESS_OB.PSI                  :  Over-burden Pressure
PRESS_PP.PSI                  :  Pore Pressure
PRESS_SHMAX.PSI                  :  Horizontal Stress (Max)
PRESS_SHMIN.PSI                  :  Horizontal Stress (Min)
PR_STAT.                     :  Poisson's ratio (Static)
PZS  .PSI                  :  Processed Zone Stress
SHMAX_GRAD.                     :  Horizontal Stress Gradient (Max)
SHMIN_GRAD.                     :  Horizontal Stress Gradient (Min)
STRESS_CUM.PSI                  :  Cumulative stress (SHPZ)
UCS_BF.PSI                  :  Uniaxial Compressive Strength (BF)
UCS_LAL.PSI                  :  Uniaxial Compressive Strength (lal)
VP   .FT/S                 :  Compressional velocity
VPVS .                     :  Vp / Vs ratio
VS   .FT/S                 :  Shear velocity
YM   .                     :  Youngs' Modulus
YM_STAT.                     :  Youngs' Modulus (Static)
~Parameter Information Block
#MNEM.UNIT            Value   Description
#---------- ----------------  -----------
PROJECT.          RDG_13Jul21:  
SET  .              GEOMECH:  
~Other Information Block
~Ascii Log Data
# ...
    3238.50000 
       41.4564        54.9463        31.5981        78.2945      1281.2206 
       61.9759       117.0477     12414.0693      6573.1587        26.8190 
       26.8190        67.6963        17.1169    0.000465070       0.305206 
     -999.2500     10300.3857      5207.8164     10461.5313      7077.4673 
      0.274685      2599.6226         2.4778         1.6763     12554.1797 
     2814.7144      5682.6377     16135.3047         1.8886      8543.5254 
        6.4806         4.1682
    3238.65240 
       40.7865        55.9884        35.5530        76.4238      1251.3345 
       63.9301       118.2179     12138.7256      6564.4028        24.0240 
       24.0240        61.1659        16.9249    0.000463832       0.293341 
     -999.2500     10300.9619      5207.8926     10467.3330      6973.5405 
      0.264007      2535.8525         2.4791         1.6516     12218.7861 
     2750.0042      5464.5977     15642.0830         1.8492      8458.9561 
        6.3497         4.0596
    3238.80480 
       39.9290        58.1027        42.0845        74.1209      1213.9520 
       66.4912       119.1271     11728.1934      6546.1313        20.2648 
       20.2648        51.8468        16.7490    0.000461253       0.273746 
     -999.2500     10301.5391      5207.9692     10476.2051      6808.2319 
      0.246372      2446.8257         2.4811         1.6124     11710.1152 
     2671.1650      5198.2471     15039.5830         1.7916      8394.3955 
        6.1885         3.9273
    3238.95720 
       39.1061        61.6788        51.1967        72.1609      1178.9474 
       69.0137       118.9698     11261.5371      6532.7534        16.2630 
       16.2630        41.4685        16.7369    0.000459370       0.246410 
     -999.2500     10302.1162      5208.0454     10487.7168      6590.1035 
      0.221769      2401.4160         2.4837         1.5606     11183.0391 
     2604.7793      4955.2349     14489.8760         1.7239      8405.4941 
        6.0513         3.8159
    3239.10960 
       38.5270        66.4599        61.9319        70.9878      1154.7991 
       70.8277       117.4438     10828.0889      6530.1753        12.7023 
       12.7023        31.9611        16.9477    0.000459008       0.214204 
     -999.2500     10302.6924      5208.1216     10500.3174      6350.1948 
      0.192784      2437.1201         2.4865         1.5038     10774.6299 
     2565.3601      4791.1782     14118.7705         1.6582      8514.7109 
        5.9691         3.7498
    3239.26200 
       38.3024        71.3144        71.5611        71.0677      1145.5388 
       71.5399       115.1081     10558.9873      6562.4307        10.2333 
       10.2333        25.3612        17.3770    0.000463553       0.185317 
     -999.2500     10303.2686      5208.1978     10510.9688      6149.2725 
      0.166785      2482.4883         2.4889         1.4561     10463.5215 
     2568.0374      4729.0415     13978.2139         1.6090      8687.4863 
        5.9747         3.7543
    3239.41440 
       38.3986        74.4895        76.5754        72.4036      1149.4962 
       71.2344       113.0005     10512.8750      6627.2124         9.2312 
        9.2312        22.6807        17.8758    0.000472750       0.170274 
     -999.2500     10303.8457      5208.2739     10516.5537      6049.6846 
      0.153246      2482.2969         2.4901         1.4324     10263.9629 
     2612.9639      4755.5435     14038.1611         1.5863      8849.5176 
        6.0683         3.8297
    3239.56680 
       38.7218        74.7036        74.9249        74.4822      1162.8796 
       70.2138       111.8920     10663.0820      6691.2339         9.8341 
        9.8341        24.1561        18.2273    0.000481928       0.175225 
     -999.2500     10304.4229      5208.3506     10515.5186      6082.5078 
      0.157703      2437.6914         2.4897         1.4401     10240.3984 
     2683.4734      4845.7500     14242.2139         1.5936      8937.1895 
        6.2138         3.9480
    3239.71920 
       39.1776        71.8416        67.4881        76.1950      1181.9532 
       68.7922       112.0508     10917.6855      6702.7778        11.9076 
       11.9076        29.3414        18.2329    0.000483593       0.197536 
     -999.2500     10304.9990      5208.4263     10508.5645      6233.6968 
      0.177782      2413.0076         2.4880         1.4759     10493.4092 
     2742.1311      4975.8604     14536.5313         1.6288      8924.5234 
        6.3337         4.0464
    3239.87160 
       39.5575        67.5318        58.7031        76.3605      1198.0472 
       67.6220       113.3728     11145.7402      6647.9546        14.4927 
       14.4927        35.8369        17.8729    0.000475714       0.223891 
     -999.2500     10305.5762      5208.5024     10499.7568      6421.9482 
      0.201502      2484.3499         2.4858         1.5204     11012.5967 
     2747.8237      5087.0664     14788.0859         1.6766      8820.4580 
        6.3452         4.0560
    3240.02400 
       39.5350        64.2436        53.7603        74.7270      1197.0881 
       67.6910       115.5446     11220.6973      6573.5679        15.8433 
       15.8433        39.4805        17.3407    0.000465128       0.238719 
     -999.2500     10306.1533      5208.5791     10494.8184      6532.8472 
      0.214847      2525.3782         2.4845         1.5465     11316.4502 
     2691.8267      5080.4023     14773.0117         1.7069      8654.6670 
        6.2309         3.9620
    3240.17640 
       38.9155        63.4866        55.1254        71.8478      1170.9531 
       69.6074       118.2121     11088.6367      6529.3755        14.8845 
       14.8845        37.6924        16.8354    0.000458895       0.234624 
     -999.2500     10306.7295      5208.6553     10496.9727      6501.8687 
      0.211161      2512.8281         2.4849         1.5391     11229.3936 
     2594.2339      4900.6001     14366.2881         1.6983      8459.3711 
        6.0293         3.7982
    3240.32880 
       37.9104        65.0405        61.4796        68.6014      1129.5114 
       72.7949       120.8888     10838.1162      6526.3247        12.4704 
       12.4704        32.2789        16.4550    0.000458466       0.215561 
     -999.2500     10307.3066      5208.7310     10504.6035      6361.3589 
      0.194005      2483.2380         2.4865         1.5058     10889.1943 
     2485.8987      4622.5073     13737.2256         1.6607      8272.0654 
        5.8021         3.6165
    3240.48120 
       37.0871        66.1736        67.5496        64.7976      1096.4000 
       75.4801       122.9209     10467.7744      6427.7817        10.3932 
       10.3932        26.9415        15.9386    0.000444726       0.197351 
     -999.2500     10307.8828      5208.8071     10511.6494      6232.5566 
      0.177616      2457.2861         2.4881         1.4752     10579.6846 
     2361.2529      4406.4644     13248.5254         1.6285      8135.3135 
        5.5358         3.4073
    3240.63360 
       36.9708        64.6658        66.7597        62.5719      1091.7786 
       75.8651       123.8512     10255.0313      6281.7231        10.2823 
       10.2823        26.2456        15.4594    0.000424744       0.199721 
     -999.2500     10308.4590      5208.8828     10511.4297      6249.0566 
      0.179749      2409.3711         2.4879         1.4791     10516.8555 
     2289.4685      4376.7427     13181.2920         1.6325      8074.2056 
        5.3800         3.2868
    3240.78600 
       37.7325        59.9738        57.2542        62.6934      1122.2920 
       73.3696       123.6412     10338.8711      6135.1621        12.7021 
       12.7021        31.6118        15.1244    0.000405156       0.228237 
     -999.2500     10309.0371      5208.9590     10501.7734      6454.3115 
      0.205414      2344.2312         2.4855         1.5276     10797.0850 
     2293.3672      4574.9390     13629.6230         1.6852      8087.9189 
        5.3885         3.2934
