~Version Information Block
VERS .                  2.0:  CWLS LOG ASCII STANDARD - VERSION 2.0
WRAP .                  YES:  Multiple lines per depth step
~Well Information Block
#MNEM.UNIT        Data Type   Information
#---------- ----------------  -----------
STRT .M          2682.11640:  START DEPTH
STOP .M          3633.09240:  STOP DEPTH
STEP .M             0.15240:  STEP
NULL .              -999.25:  NULL VALUE
COMP .                     :  COMPANY
WELL .       RAAG-94-07-216:  WELL
FLD  .                     :  FIELD
LOC  .                     :  LOCATION
CTRY .                     :  COUNTRY
STAT .                     :  STATE
CNTY .                     :  COUNTY
SRVC .                     :  SERVICE COMPANY
DATE .                     :  DATE
API  .                     :  API NUMBER
UWI  .                     :  UNIQUE WELL ID
~Curve Information Block
#MNEM.UNIT         API CODE   Curve Description
#---------- ----------------  -----------------
DEPTH.M                    :  
ANGLE_FAIL.DEG                  :  Fail Angle
BRIT_IND.                     :  Brittleness Index
BRIT_PR.                     :  Brittleness Index from Poisson's Ratio
BRIT_YM.                     :  Brittleness Index from Young's Modulus
CS   .M/MIN                 :  Compressive Strength
IP   .RAYL/M2                 :  P Impedence
IS   .RAYL/M2                 :  S Impedance
KBULK.                     :  Bulk Mudulus
LAMBDA.                     :  Lambda
LAMRHO.                     :  
MU   .CP                   :  Mu
MURHO.(GF/C3S)2                 :  Mu*Rho
PR   .                     :  Poisson's ratio
PRESS_FG.PSI                  :  Fracture Gradient Pressure
PRESS_OB.PSI                  :  Over-burden Pressure
PRESS_PP.PSI                  :  Pore Pressure
PRESS_SHMAX.PSI                  :  Horizontal Stress (Max)
PRESS_SHMIN.PSI                  :  Horizontal Stress (Min)
PR_STAT.                     :  Poisson's ratio (Static)
PZS  .PSI                  :  Processed Zone Stress
SHMAX_GRAD.                     :  Horizontal Stress Gradient (Max)
SHMIN_GRAD.                     :  Horizontal Stress Gradient (Min)
STRESS_CUM.PSI                  :  Cumulative stress (SHPZ)
UCS_BF.PSI                  :  Uniaxial Compressive Strength (BF)
UCS_LAL.PSI                  :  Uniaxial Compressive Strength (lal)
VP   .FT/S                 :  Compressional velocity
VPVS .                     :  Vp / Vs ratio
VS   .FT/S                 :  Shear velocity
YM   .                     :  Youngs' Modulus
YM_STAT.                     :  Youngs' Modulus (Static)
~Parameter Information Block
#MNEM.UNIT            Value   Description
#---------- ----------------  -----------
PROJECT.          RDG_13Jul21:  
SET  .              GEOMECH:  
~Other Information Block
~Ascii Log Data
# ...
    3438.63000 
       42.0315        70.9960        41.7301       100.2620      1307.3693 
    13821.4746      7701.9951        26.4613        26.4613        72.3917 
       21.6834         0.0006       0.274810      -999.2500     11666.9521 
     5334.1777     11882.7578      7350.8403       0.247329      3079.2876 
        2.5158         1.5563     14060.2559      3619.4231      5877.1431 
    16575.2871         1.7945      9236.5527         8.0183         5.5185
    3438.78240 
       42.0984        70.6077        41.0794       100.1361      1310.4425 
    13824.7285      7680.6880        26.8117        26.8117        73.1372 
       21.6265         0.0006       0.276762      -999.2500     11667.5439 
     5334.2090     11882.3672      7371.0815       0.249086      3070.6699 
        2.5156         1.5605     14083.5029      3614.5764      5900.2329 
    16627.5176         1.7999      9237.8496         8.0095         5.5104
    3438.93480 
       42.2890        71.0941        40.4621       101.7261      1319.2351 
    13951.5850      7728.8516        27.5551        27.5551        75.1764 
       21.8953         0.0006       0.278614      -999.2500     11668.1357 
     5334.2412     11882.0156      7390.5313       0.250752      2752.4119 
        2.5154         1.5646     13485.8857      3675.9915      5966.5596 
    16777.5527         1.8051      9294.3711         8.1208         5.6134
    3439.08720 
       42.6056        72.3103        39.8847       104.7359      1333.9539 
    14158.6641      7822.2212        28.6313        28.6313        78.0935 
       22.4329         0.0007       0.280346      -999.2500     11668.7266 
     5334.2734     11881.7158      7408.9531       0.252311      2330.8276 
        2.5152         1.5684     12679.5615      3793.4333      6078.4766 
    17030.7148         1.8101      9408.9404         8.3315         5.8105
    3439.23960 
       42.9801        74.6516        40.2336       109.0697      1351.5563 
    14379.4141      7957.2964        29.4469        29.4469        80.1304 
       23.2688         0.0007       0.279299      -999.2500     11669.3193 
     5334.3057     11882.8496      7398.7104       0.251369      2067.0583 
        2.5153         1.5661     12131.5381      3965.2578      6213.7783 
    17336.7773         1.8071      9593.8447         8.6349         6.0988
    3439.39200 
       43.2924        77.5784        41.6176       113.5393      1366.4044 
    14538.5762      8097.4106        29.6012        29.6012        80.2341 
       24.1904         0.0007       0.275147      -999.2500     11669.9111 
     5334.3374     11885.5791      7356.5498       0.247632      2300.0850 
        2.5158         1.5572     12513.2695      4145.8325      6329.1494 
    17597.7520         1.7955      9801.2500         8.9477         6.4018
    3439.54440 
       43.4375        79.5373        42.6609       116.4138      1373.3521 
    14658.5342      8203.1533        29.5844        29.5844        80.2892 
       24.7952         0.0007       0.272017      -999.2500     11670.5029 
     5334.3696     11887.7754      7325.0557       0.244816      2609.1887 
        2.5162         1.5504     13068.4883      4263.7739      6383.5225 
    17720.7461         1.7869      9916.8174         9.1490         6.5997
    3439.69680 
       43.4053        81.2084        44.5328       117.8840      1371.8090 
    14665.9639      8275.9199        28.7220        28.7220        78.1088 
       25.1853         0.0007       0.266402      -999.2500     11671.0947 
     5334.4009     11891.2178      7268.6211       0.239762      2893.4504 
        2.5168         1.5384     13524.1426      4324.6426      6371.4243 
    17693.3809         1.7721      9984.2754         9.2519         6.7019
    3439.84920 
       43.2545        81.4887        45.9041       117.0734      1364.5933 
    14555.9971      8262.7432        27.7086        27.7086        75.3312 
       25.1124         0.0007       0.262288      -999.2500     11671.6875 
     5334.4331     11893.8896      7227.6313       0.236059      3048.9946 
        2.5172         1.5297     13753.2520      4291.0342      6315.0151 
    17565.7793         1.7616      9971.2529         9.1951         6.6455
    3440.00160 
       43.1134        81.2175        46.6319       115.8031      1357.8765 
    14448.3887      8227.0723        27.0113        27.0113        73.3865 
       24.9127         0.0007       0.260104      -999.2500     11672.2783 
     5334.4653     11895.5898      7206.0562       0.234094      3036.0920 
        2.5175         1.5250     13684.2969      4238.5981      6262.7485 
    17447.5508         1.7562      9934.8281         9.1062         6.5575
    3440.15400 
       43.0767        80.5343        46.0316       115.0369      1356.1343 
    14441.4180      8202.1680        27.2038        27.2038        74.0034 
       24.7306         0.0007       0.261905      -999.2500     11672.8701 
     5334.4971     11895.3115      7224.0527       0.235715      3004.9536 
        2.5173         1.5288     13658.0127      4207.1045      6249.2285 
    17416.9668         1.7607      9892.1650         9.0526         6.5047
    3440.30640 
       43.1623        80.4757        44.8245       116.1270      1360.2015 
    14613.4512      8256.7949        28.1611        28.1611        77.2036 
       24.8677         0.0007       0.265527      -999.2500     11673.4619 
     5334.5293     11894.1094      7260.5103       0.238974      3057.5830 
        2.5169         1.5364     13836.1865      4251.9404      6280.8145 
    17488.4141         1.7699      9881.1885         9.1289         6.5799
    3440.45880 
       43.4437        80.6857        42.7744       118.5971      1373.6505 
    14887.6582      8335.6475        30.0042        30.0042        82.6763 
       25.2162         0.0007       0.271677      -999.2500     11674.0547 
     5334.5610     11891.6035      7323.0674       0.244509      3079.2878 
        2.5163         1.5496     14004.7100      4354.2949      6385.8638 
    17726.0430         1.7860      9924.8682         9.3018         6.7516
    3440.61120 
       43.8774        80.8641        39.7743       121.9539      1394.6282 
    15260.7363      8426.6611        32.8529        32.8529        90.8728 
       25.6715         0.0008       0.280677      -999.2500     11674.6465 
     5334.5923     11887.5693      7416.1758       0.252609      3079.2876 
        2.5153         1.5692     14190.9268      4495.0664      6551.5801 
    18100.9023         1.8110      9994.9424         9.5368         6.9879
    3440.76360 
       44.2031        81.9898        38.6699       125.3097      1410.5841 
    15515.2295      8521.8779        34.4927        34.4927        95.4775 
       26.2359         0.0008       0.283990      -999.2500     11675.2383 
     5334.6245     11886.4346      7451.3115       0.255591      3079.2876 
        2.5150         1.5766     14261.1982      4637.7241      6679.1479 
    18389.4688         1.8206     10100.5801         9.7717         7.2272
    3440.91600 
       44.6567        84.0292        37.1284       130.9299      1433.1002 
    15969.6016      8705.2061        37.1296        37.1296       103.4669 
       27.1943         0.0008       0.288615      -999.2500     11675.8291 
     5334.6563     11884.5791      7500.8394       0.259753      3079.2876 
        2.5145         1.5870     14360.2539      4880.9551      6861.4067 
    18801.7500         1.8345     10249.0420        10.1651         7.6354
    3441.06840 
       44.9434        85.9665        36.2442       135.6889      1447.5126 
    16373.5625      8885.8105        39.1102        39.1102       110.1783 
       28.0278         0.0008       0.291267      -999.2500     11676.4209 
     5334.6880     11883.7539      7529.7661       0.262141      3079.2888 
        2.5142         1.5930     14418.1094      5091.1426      6979.4497 
    19068.7695         1.8427     10348.4795        10.4982         7.9881
