~Version Information Block
VERS .                  2.0:  CWLS LOG ASCII STANDARD - VERSION 2.0
WRAP .                  YES:  Multiple lines per depth step
~Well Information Block
#MNEM.UNIT        Data Type   Information
#---------- ----------------  -----------
STRT .M          2556.50000:  START DEPTH
STOP .M          3600.74480:  STOP DEPTH
STEP .M             0.15240:  STEP
NULL .              -999.25:  NULL VALUE
COMP .                     :  COMPANY
WELL .      RAAG-100-07-213:  WELL
FLD  .                     :  FIELD
LOC  .                     :  LOCATION
CTRY .                     :  COUNTRY
STAT .                     :  STATE
CNTY .                     :  COUNTY
SRVC .                     :  SERVICE COMPANY
DATE .                     :  DATE
API  .                     :  API NUMBER
UWI  .                     :  UNIQUE WELL ID
~Curve Information Block
#MNEM.UNIT         API CODE   Curve Description
#---------- ----------------  -----------------
DEPTH.M                    :  
ANGLE_FAIL.DEG                  :  Fail Angle
BRIT_IND.                     :  Brittleness Index
BRIT_PR.                     :  Brittleness Index from Poisson's Ratio
BRIT_YM.                     :  Brittleness Index from Young's Modulus
CS   .M/MIN                 :  Compressive Strength
DTCO .US/F                 :  Compressional slowness
DTSM .US/F                 :  Description
IP   .RAYL/M2                 :  P Impedence
IS   .RAYL/M2                 :  S Impedance
KBULK.                     :  Bulk Mudulus
LAMBDA.                     :  Lambda
LAMRHO.                     :  
MU   .CP                   :  Mu
MURHO.(GF/C3S)2                 :  Mu*Rho
PR   .                     :  Poisson's ratio
PRESS_FG.PSI                  :  Fracture Gradient Pressure
PRESS_OB.PSI                  :  Over-burden Pressure
PRESS_PP.PSI                  :  Pore Pressure
PRESS_SHMAX.PSI                  :  Horizontal Stress (Max)
PRESS_SHMIN.PSI                  :  Horizontal Stress (Min)
PR_STAT.                     :  Poisson's ratio (Static)
PZS  .PSI                  :  Processed Zone Stress
SHMAX_GRAD.                     :  Horizontal Stress Gradient (Max)
SHMIN_GRAD.                     :  Horizontal Stress Gradient (Min)
STRESS_CUM.PSI                  :  Cumulative stress (SHPZ)
UCS_BF.PSI                  :  Uniaxial Compressive Strength (BF)
UCS_LAL.PSI                  :  Uniaxial Compressive Strength (lal)
VP   .FT/S                 :  Compressional velocity
VPVS .                     :  Vp / Vs ratio
VS   .FT/S                 :  Shear velocity
YM   .                     :  Youngs' Modulus
YM_STAT.                     :  Youngs' Modulus (Static)
~Parameter Information Block
#MNEM.UNIT            Value   Description
#---------- ----------------  -----------
PROJECT.          RDG_13Jul21:  
SET  .              GEOMECH:  
~Other Information Block
~Ascii Log Data
# ...
    3587.94320 
       44.6179        87.9114        37.9106       137.9122      1431.1617 
       53.2878        97.3780     16670.2773      9122.4170        38.2444 
       38.2444       111.4612        28.5538    0.000895756       0.286268 
     -999.2500     12395.1777      5358.9370     12627.8408      7741.9229 
      0.257641      2996.8789         2.5343         1.5538     14677.6035 
     5190.6660      6845.6123     18766.0215         1.8274     10269.2637 
       10.6539         8.1551
    3588.09560 
       44.0536        86.2116        40.8977       131.5256      1403.2357 
       54.7759        98.6763     16065.8838      8918.2793        34.3034 
       34.3034        99.0412        27.5476    0.000856115       0.277307 
     -999.2500     12395.7852      5358.9458     12633.6768      7637.9595 
      0.249576      2930.6873         2.5354         1.5328     14337.2930 
     4907.0522      6620.2344     18256.2031         1.8015     10134.1416 
       10.2068         7.6792
    3588.24800 
       43.5830        84.8801        43.3877       126.3725      1380.3549 
       56.0372        99.8087     15590.1416      8753.0215        31.3379 
       31.3379        89.8218        26.7303    0.000824681       0.269837 
     -999.2500     12396.3926      5358.9551     12638.5605      7553.0430 
      0.242853      2979.0046         2.5363         1.5157     14264.0957 
     4683.3071      6438.5791     17845.2871         1.7811     10019.1641 
        9.8461         7.3037
    3588.40040 
       43.3102        84.6106        44.9011       124.3202      1367.2526 
       56.7771       100.4546     15414.4297      8712.2646        29.8806 
       29.8806        85.7975        26.4348    0.000817019       0.265297 
     -999.2500     12397.0020      5358.9644     12641.7344      7502.3428 
      0.238767      2968.5918         2.5368         1.5055     14141.8691 
     4595.4580      6335.7729     17612.7363         1.7693      9954.7510 
        9.7024         7.1563
    3588.55280 
       43.3110        84.0146        43.5100       124.5193      1367.2947 
       56.7747       101.0672     15574.7246      8749.1328        30.8427 
       30.8427        89.4774        26.3858    0.000823949       0.269470 
     -999.2500     12397.6094      5358.9731     12640.0322      7549.1519 
      0.242523      2948.8496         2.5363         1.5148     14196.0029 
     4603.9497      6336.1021     17613.4785         1.7801      9894.4072 
        9.7163         7.1706
    3588.70520 
       43.4957        83.4893        40.9262       126.0525      1376.1506 
       56.2732       101.3602     15882.3633      8817.5771        32.9951 
       32.9951        96.7501        26.5153    0.000836890       0.277221 
     -999.2500     12398.2168      5358.9824     12636.2637      7637.2832 
      0.249499      2969.3386         2.5355         1.5324     14413.2441 
     4669.5591      6405.4941     17770.4473         1.8012      9865.8047 
        9.8237         7.2807
    3588.85760 
       43.5797        83.3091        39.9312       126.6871      1380.1959 
       56.0461       101.4243     16001.6924      8842.3838        33.8771 
       33.8771        99.6787        26.5731    0.000841606       0.280207 
     -999.2500     12398.8242      5358.9922     12635.1758      7671.8013 
      0.252186      3076.9851         2.5351         1.5393     14697.5723 
     4696.8340      6437.3262     17842.4551         1.8097      9859.5723 
        9.8681         7.3264
    3589.01000 
       43.4910        83.4830        40.8639       126.1021      1375.9232 
       56.2860       101.4127     15898.5078      8823.9756        33.0520 
       33.0520        97.0374        26.5208    0.000838106       0.277408 
     -999.2500     12399.4326      5359.0005     12637.4121      7639.8433 
      0.249668      3012.3879         2.5355         1.5328     14504.4629 
     4671.6909      6403.7075     17766.4082         1.8017      9860.6953 
        9.8271         7.2842
    3589.16240 
       42.9447        85.7950        47.3095       124.2805      1349.8834 
       57.7783       101.1818     15451.2646      8823.2090        28.3525 
       28.3525        83.0436        26.5790    0.000837960       0.258071 
     -999.2500     12400.0400      5359.0098     12648.8574      7423.7070 
      0.232264      2914.6450         2.5377         1.4894     13876.7041 
     4593.7686      6200.8521     17307.5352         1.7512      9883.2041 
        9.6996         7.1535
    3589.31480 
       42.7130        86.7535        50.1262       123.3808      1338.9805 
       58.4189       101.1335     15270.6943      8820.9854        26.5046 
       26.5046        77.5745        26.5850    0.000837538       0.249621 
     -999.2500     12400.6484      5359.0186     12654.0605      7332.3896 
      0.224659      2841.5002         2.5386         1.4710     13547.7793 
     4555.4912      6116.9517     17117.7480         1.7312      9887.9199 
        9.6367         7.0892
    3589.46720 
       42.7814        84.9960        47.6629       122.3290      1342.1890 
       58.2294       101.8217     15320.3604      8761.3486        27.7403 
       27.7403        81.1910        26.2268    0.000826251       0.257011 
     -999.2500     12401.2568      5359.0273     12650.7031      7412.3350 
      0.231310      2792.5815         2.5378         1.4870     13609.8320 
     4510.9189      6141.5781     17173.4551         1.7486      9821.0889 
        9.5630         7.0145
    3589.61960 
       42.7374      -999.2500        46.1499      -999.2500      1340.1234 
       58.3513       102.6863      -999.2500      -999.2500      -999.2500 
     -999.2500      -999.2500      -999.2500 -999.250000000       0.261550 
     -999.2500     12401.8643      5359.0366      -999.2500      -999.2500 
      0.235395      2726.1941      -999.2500      -999.2500      -999.2500 
     -999.2500      6125.7183     17137.5801         1.7598      9738.3955 
     -999.2500      -999.2500
    3589.77200 
       42.7912      -999.2500        45.7544      -999.2500      1342.6525 
       58.2021       102.5970      -999.2500      -999.2500      -999.2500 
     -999.2500      -999.2500      -999.2500 -999.250000000       0.262737 
     -999.2500     12402.4717      5359.0459      -999.2500      -999.2500 
      0.236463      2639.6099      -999.2500      -999.2500      -999.2500 
     -999.2500      6145.1396     17181.5098         1.7628      9746.8721 
     -999.2500      -999.2500
    3589.92440 
       42.7004      -999.2500        47.7582      -999.2500      1338.3894 
       58.4539       102.1738      -999.2500      -999.2500      -999.2500 
     -999.2500      -999.2500      -999.2500 -999.250000000       0.256725 
     -999.2500     12403.0811      5359.0542      -999.2500      -999.2500 
      0.231053      2621.9082      -999.2500      -999.2500      -999.2500 
     -999.2500      6112.4204     17107.5000         1.7479      9787.2422 
     -999.2500      -999.2500
    3590.07680 
       42.8337      -999.2500        49.0670      -999.2500      1344.6484 
       58.0847       100.9846      -999.2500      -999.2500      -999.2500 
     -999.2500      -999.2500      -999.2500 -999.250000000       0.252799 
     -999.2500     12403.6885      5359.0635      -999.2500      -999.2500 
      0.227519      2658.0942      -999.2500      -999.2500      -999.2500 
     -999.2500      6160.4912     17216.2383         1.7386      9902.4951 
     -999.2500      -999.2500
    3590.22920 
       43.4695      -999.2500        44.7407      -999.2500      1374.8904 
       56.3442        99.7583      -999.2500      -999.2500      -999.2500 
     -999.2500      -999.2500      -999.2500 -999.250000000       0.265778 
     -999.2500     12404.2959      5359.0728      -999.2500      -999.2500 
      0.239200      2716.4673      -999.2500      -999.2500      -999.2500 
     -999.2500      6395.5947     17748.0566         1.7705     10024.2285 
     -999.2500      -999.2500
