~Version Information Block
VERS .                  2.0:  CWLS LOG ASCII STANDARD - VERSION 2.0
WRAP .                  YES:  Multiple lines per depth step
~Well Information Block
#MNEM.UNIT        Data Type   Information
#---------- ----------------  -----------
STRT .M          2656.78920:  START DEPTH
STOP .M          3640.98840:  STOP DEPTH
STEP .M             0.15240:  STEP
NULL .              -999.25:  NULL VALUE
COMP .                     :  COMPANY
WELL .       RAAG-98-07-214:  WELL
FLD  .                     :  FIELD
LOC  .                     :  LOCATION
CTRY .                     :  COUNTRY
STAT .                     :  STATE
CNTY .                     :  COUNTY
SRVC .                     :  SERVICE COMPANY
DATE .                     :  DATE
API  .                     :  API NUMBER
UWI  .                     :  UNIQUE WELL ID
~Curve Information Block
#MNEM.UNIT         API CODE   Curve Description
#---------- ----------------  -----------------
DEPTH.M                    :  
ANGLE_FAIL.DEG                  :  Fail Angle
BRIT_IND.                     :  Brittleness Index
BRIT_PR.                     :  Brittleness Index from Poisson's Ratio
BRIT_YM.                     :  Brittleness Index from Young's Modulus
CS   .M/MIN                 :  Compressive Strength
IP   .RAYL/M2                 :  P Impedence
IS   .RAYL/M2                 :  S Impedance
KBULK.                     :  Bulk Mudulus
LAMBDA.                     :  Lambda
LAMRHO.                     :  
MU   .CP                   :  Mu
MURHO.(GF/C3S)2                 :  Mu*Rho
PR   .                     :  Poisson's ratio
PRESS_FG.PSI                  :  Fracture Gradient Pressure
PRESS_OB.PSI                  :  Over-burden Pressure
PRESS_PP.PSI                  :  Pore Pressure
PRESS_SHMAX.PSI                  :  Horizontal Stress (Max)
PRESS_SHMIN.PSI                  :  Horizontal Stress (Min)
PR_STAT.                     :  Poisson's ratio (Static)
PZS  .PSI                  :  Processed Zone Stress
SHMAX_GRAD.                     :  Horizontal Stress Gradient (Max)
SHMIN_GRAD.                     :  Horizontal Stress Gradient (Min)
STRESS_CUM.PSI                  :  Cumulative stress (SHPZ)
UCS_BF.PSI                  :  Uniaxial Compressive Strength (BF)
UCS_LAL.PSI                  :  Uniaxial Compressive Strength (lal)
VP   .FT/S                 :  Compressional velocity
VPVS .                     :  Vp / Vs ratio
VS   .FT/S                 :  Shear velocity
YM   .                     :  Youngs' Modulus
YM_STAT.                     :  Youngs' Modulus (Static)
~Parameter Information Block
#MNEM.UNIT            Value   Description
#---------- ----------------  -----------
PROJECT.          RDG_13Jul21:  
SET  .              GEOMECH:  
~Other Information Block
~Ascii Log Data
# ...
    3436.62000 
       40.0902        53.9415        38.6712        69.2119      1220.9056 
    11264.1973      6187.0015        20.6308        20.6308        50.3242 
       15.6928    0.000412032       0.283986      -999.2500     11656.1914 
     5333.1060     11867.0537      7438.9468       0.255588      1074.1539 
        2.5156         1.5769     10226.2021      2506.1309      5247.2559 
    15150.4443         1.8206      8321.5723         5.8448         3.6504
    3436.77240 
       40.1130        53.9271        38.9629        68.8913      1221.8921 
    11185.3193      6152.3506        20.4195        20.4195        49.4085 
       15.6432    0.000407429       0.283111      -999.2500     11656.7900 
     5333.1387     11868.1289      7430.0151       0.254800      1021.0980 
        2.5157         1.5750     10102.2256      2495.4968      5254.2285 
    15166.2178         1.8181      8341.9951         5.8224         3.6326
    3436.92480 
       40.6093        52.9007        35.5870        70.2144      1243.5326 
    11397.3086      6164.5337        22.3624        22.3624        53.8957 
       15.7676    0.000409044       0.293239      -999.2500     11657.3887 
     5333.1719     11863.3945      7537.2661       0.263915       984.3801 
        2.5146         1.5976     10243.2920      2539.4983      5408.4243 
    15515.0186         1.8489      8391.7041         5.9150         3.7064
    3437.07720 
       40.8329        52.8224        34.2785        71.3664      1253.3846 
    11555.8301      6207.9209        23.3444        23.3444        56.4606 
       15.9342    0.000414823       0.297165      -999.2500     11657.9863 
     5333.2041     11861.8984      7579.7520       0.267448      1006.6920 
        2.5142         1.6066     10372.8887      2578.0547      5479.4097 
    15675.5898         1.8615      8421.1025         5.9956         3.7711
    3437.22960 
       40.5943        53.6899        35.7083        71.6715      1242.8744 
    11590.6797      6273.0234        22.6863        22.6863        55.6422 
       16.0440    0.000423569       0.292875      -999.2500     11658.5850 
     5333.2373     11864.8164      7533.9585       0.263588      1102.8018 
        2.5147         1.5968     10473.5205      2588.3044      5403.7002 
    15504.3311         1.8477      8391.1416         6.0170         3.7883
    3437.38200 
       39.2758        57.2672        45.7384        68.7959      1186.0981 
    11087.0488      6289.1230        17.5882        17.5882        43.8165 
       15.8768    0.000425746       0.262785      -999.2500     11659.1846 
     5333.2700     11880.9453      7223.9663       0.236506      1259.2520 
        2.5180         1.5310     10166.4365      2492.3379      5004.3765 
    14601.0371         1.7629      8282.4307         5.8157         3.6273
    3437.53440 
       38.7199        57.0763        47.7763        66.3762      1162.8004 
    10900.9951      6236.9526        16.3387        16.3387        41.0325 
       15.4894    0.000418712       0.256671      -999.2500     11659.7832 
     5333.3027     11884.5879      7163.6772       0.231004      1375.6791 
        2.5186         1.5182     10278.7129      2412.6821      4845.2134 
    14241.0000         1.7478      8147.9209         5.6463         3.4936
    3437.68680 
       38.4816        56.5061        48.6390        64.3733      1152.9232 
    10690.0195      6138.0098        15.6385        15.6385        38.9262 
       15.1359    0.000405532       0.254083      -999.2500     11660.3809 
     5333.3354     11886.4775      7138.4580       0.228675      1256.5746 
        2.5189         1.5128      9990.0645      2347.5032      4778.5562 
    14090.2188         1.7416      8090.3398         5.5061         3.3842
    3437.83920 
       38.0936        55.6948        50.4467        60.9429      1136.9778 
    10295.8809      5954.9224        14.3837        14.3837        35.0830 
       14.5387    0.000381700       0.248660      -999.2500     11660.9795 
     5333.3691     11889.7314      7085.9395       0.223794      1029.4773 
        2.5195         1.5016      9430.8330      2237.4690      4671.9771 
    13849.1299         1.7290      8010.0479         5.2660         3.1996
    3437.99160 
       37.9065        54.9490        51.3259        58.5721      1129.3518 
    10006.0342      5807.3828        13.6684        13.6684        32.6693 
       14.1103    0.000363020       0.246022      -999.2500     11661.5771 
     5333.4019     11891.6221      7060.6860       0.221420       813.9617 
        2.5198         1.4961      8949.2959      2162.5989      4621.4536 
    13734.8418         1.7230      7971.5381         5.1000         3.0740
    3438.14400 
       38.0685        55.6513        52.2638        59.0387      1135.9545 
     9947.9307      5794.7520        13.4800        13.4800        31.8030 
       14.2329    0.000361443       0.243209      -999.2500     11662.1758 
     5333.4346     11893.5801      7034.1006       0.218888       676.5123 
        2.5201         1.4904      8621.2256      2177.2588      4665.1807 
    13833.7559         1.7167      8058.2769         5.1327         3.0986
    3438.29640 
       38.7881        54.8645        47.7114        62.0176      1165.6356 
    10284.5039      5882.6475        15.4775        15.4775        36.5599 
       14.6501    0.000372491       0.256866      -999.2500     11662.7744 
     5333.4668     11887.5986      7166.2876       0.231179       656.2462 
        2.5187         1.5184      8845.0684      2271.7253      4864.4370 
    14284.4854         1.7483      8170.6025         5.3412         3.2571
    3438.44880 
       39.5991        54.2676        42.4318        66.1033      1199.8173 
    10800.2178      6037.7129        18.2877        18.2877        43.7367 
       15.2425    0.000392387       0.272705      -999.2500     11663.3721 
     5333.4995     11880.2900      7325.0229       0.245434       729.4357 
        2.5170         1.5519      9308.9180      2403.7610      5099.3770 
    14815.9336         1.7888      8282.6436         5.6272         3.4786
    3438.60120 
       39.9880        55.5359        40.8653        70.2065      1216.4949 
    11272.9072      6256.7197        19.8917        19.8917        48.7854 
       15.9616    0.000421370       0.277404      -999.2500     11663.9707 
     5333.5322     11878.4863      7373.6577       0.249664       837.9320 
        2.5165         1.5622      9623.1797      2539.2363      5216.1411 
    15080.0615         1.8017      8369.7764         5.9145         3.7060
    3438.75360 
       40.0513        55.2681        39.2218        71.3143      1219.2275 
    11521.8174      6345.3374        20.8946        20.8946        52.2257 
       16.1087    0.000433391       0.282335      -999.2500     11664.5693 
     5333.5654     11876.5459      7425.0317       0.254101       914.1680 
        2.5160         1.5730      9878.3994      2576.3071      5235.4067 
    15123.6416         1.8158      8328.9463         5.9920         3.7682
    3438.90600 
       39.8642        55.0105        39.6125        70.4085      1211.1646 
    11465.0381      6325.8799        20.4962        20.4962        51.4136 
       15.9528    0.000430737       0.281163      -999.2500     11665.1670 
     5333.5981     11877.7764      7412.9927       0.253046       897.5420 
        2.5162         1.5704      9821.0693      2545.9785      5178.6689 
    14995.2969         1.8124      8273.7139         5.9286         3.7173
    3439.05840 
       39.2352        53.6287        41.5996        65.6578      1184.3854 
    10980.2109      6115.0347        18.5203        18.5203        45.7777 
       15.1283    0.000402502       0.275201      -999.2500     11665.7656 
     5333.6304     11881.4863      7351.3564       0.247681       788.7474 
        2.5168         1.5572      9480.2070      2389.2236      4992.5820 
    14574.3574         1.7956      8116.6655         5.5960         3.4542
