~Version Information Block
VERS .                  2.0:  CWLS LOG ASCII STANDARD - VERSION 2.0
WRAP .                  YES:  Multiple lines per depth step
~Well Information Block
#MNEM.UNIT        Data Type   Information
#---------- ----------------  -----------
STRT .M          2556.50000:  START DEPTH
STOP .M          3600.74480:  STOP DEPTH
STEP .M             0.15240:  STEP
NULL .              -999.25:  NULL VALUE
COMP .                     :  COMPANY
WELL .      RAAG-100-07-213:  WELL
FLD  .                     :  FIELD
LOC  .                     :  LOCATION
CTRY .                     :  COUNTRY
STAT .                     :  STATE
CNTY .                     :  COUNTY
SRVC .                     :  SERVICE COMPANY
DATE .                     :  DATE
API  .                     :  API NUMBER
UWI  .                     :  UNIQUE WELL ID
~Curve Information Block
#MNEM.UNIT         API CODE   Curve Description
#---------- ----------------  -----------------
DEPTH.M                    :  
ANGLE_FAIL.DEG                  :  Fail Angle
BRIT_IND.                     :  Brittleness Index
BRIT_PR.                     :  Brittleness Index from Poisson's Ratio
BRIT_YM.                     :  Brittleness Index from Young's Modulus
CS   .M/MIN                 :  Compressive Strength
DTCO .US/F                 :  Compressional slowness
DTSM .US/F                 :  Description
IP   .RAYL/M2                 :  P Impedence
IS   .RAYL/M2                 :  S Impedance
KBULK.                     :  Bulk Mudulus
LAMBDA.                     :  Lambda
LAMRHO.                     :  
MU   .CP                   :  Mu
MURHO.(GF/C3S)2                 :  Mu*Rho
PR   .                     :  Poisson's ratio
PRESS_FG.PSI                  :  Fracture Gradient Pressure
PRESS_OB.PSI                  :  Over-burden Pressure
PRESS_PP.PSI                  :  Pore Pressure
PRESS_SHMAX.PSI                  :  Horizontal Stress (Max)
PRESS_SHMIN.PSI                  :  Horizontal Stress (Min)
PR_STAT.                     :  Poisson's ratio (Static)
PZS  .PSI                  :  Processed Zone Stress
SHMAX_GRAD.                     :  Horizontal Stress Gradient (Max)
SHMIN_GRAD.                     :  Horizontal Stress Gradient (Min)
STRESS_CUM.PSI                  :  Cumulative stress (SHPZ)
UCS_BF.PSI                  :  Uniaxial Compressive Strength (BF)
UCS_LAL.PSI                  :  Uniaxial Compressive Strength (lal)
VP   .FT/S                 :  Compressional velocity
VPVS .                     :  Vp / Vs ratio
VS   .FT/S                 :  Shear velocity
YM   .                     :  Youngs' Modulus
YM_STAT.                     :  Youngs' Modulus (Static)
~Parameter Information Block
#MNEM.UNIT            Value   Description
#---------- ----------------  -----------
PROJECT.          RDG_13Jul21:  
SET  .              GEOMECH:  
~Other Information Block
~Ascii Log Data
# ...
    2673.54320 
       28.6041         8.9448         9.3555         8.5340       790.9073 
      107.4386       237.9279      6938.7319      3133.2500        11.6572 
       11.6572        28.5115         4.0139    0.000105672       0.371934 
     -999.2500      8854.7998      4952.3813      8954.1416      6867.9604 
      0.334740      2250.9597         2.4327         1.8659     11437.8398 
      806.7605      2664.2986      9307.6416         2.2145      4202.9536 
        1.5974         0.7989
    2673.69560 
       28.9608        10.6933        11.2331        10.1535       802.6617 
      105.9231       230.6045      7109.8071      3265.7334        11.8260 
       11.8260        29.2193         4.3165    0.000114797       0.366301 
     -999.2500      8855.3721      4952.5078      8956.9961      6822.9004 
      0.329671      2567.2551         2.4333         1.8535     11980.3105 
      843.9329      2723.1694      9440.8105         2.1771      4336.4287 
        1.7107         0.8612
    2673.84800 
       29.2978        12.6723        13.4436        11.9011       813.8419 
      104.5062       223.2378      7271.3394      3403.9934        11.9120 
       11.9120        29.6980         4.6477    0.000124723       0.359669 
     -999.2500      8855.9443      4952.6338      8960.2100      6770.6416 
      0.323702      2802.0525         2.4340         1.8392     12345.3887 
      884.5491      2779.7546      9568.8096         2.1361      4479.5273 
        1.8331         0.9294
    2674.00040 
       29.7811        12.9262        12.9113        12.9411       830.0046 
      102.4993       219.9326      7472.8140      3482.6956        12.5686 
       12.5686        31.5846         4.8266    0.000130557       0.361266 
     -999.2500      8856.5166      4952.7603      8960.1602      6783.6479 
      0.325139      2884.2620         2.4339         1.8427     12535.8203 
      908.9692      2862.5793      9756.1641         2.1457      4546.8481 
        1.9059         0.9704
    2674.15280 
       30.2817        13.0159        12.1702        13.8617       846.9124 
      100.4511       216.9074      7655.1377      3545.1394        13.2648 
       13.2648        33.4651         4.9817    0.000135281       0.363489 
     -999.2500      8857.0889      4952.8867      8959.8584      6801.6875 
      0.327140      2932.3354         2.4336         1.8475     12668.0459 
      930.7394      2950.5203      9955.0918         2.1593      4610.2622 
        1.9703         1.0069
    2674.30520 
       30.1849        14.0431        13.7906        14.2956       843.6274 
      100.8450       214.7969      7619.9971      3577.5127        12.8781 
       12.8781        32.4672         5.0765    0.000137763       0.358628 
     -999.2500      8857.6611      4953.0127      8962.3643      6763.6060 
      0.322765      2979.1506         2.4342         1.8370     12685.5127 
      941.0495      2933.3306      9916.2080         2.1300      4655.5605 
        2.0007         1.0242
    2674.45760 
       29.2491         9.7235         9.1523        10.2947       812.2198 
      104.7103       232.3269      7308.7773      3294.0837        12.6317 
       12.6317        31.7162         4.3217    0.000116799       0.372543 
     -999.2500      8858.2334      4953.1392      8957.3887      6875.1270 
      0.335289      2982.6343         2.4327         1.8672     12915.5225 
      847.1951      2771.5095      9550.1592         2.2188      4304.2803 
        1.7206         0.8667
    2674.61000 
       28.2725         7.3557         7.1654         7.5461       780.0514 
      108.8622       246.2154      6982.4385      3087.2305        11.9063 
       11.9063        29.6925         3.8218    0.000102591       0.378504 
     -999.2500      8858.8057      4953.2651      8955.5283      6924.3472 
      0.340654      2934.3823         2.4320         1.8804     12917.4590 
      784.3046      2610.4907      9185.9248         2.2617      4061.4849 
        1.5282         0.7612
    2674.76240 
       27.9267         6.4553         6.3391         6.5715       768.7997 
      110.3624       251.6908      6863.6167      3009.5864        11.6667 
       11.6667        28.9940         3.6446    0.000097495       0.380983 
     -999.2500      8859.3789      4953.3916      8955.0840      6945.2720 
      0.342884      2906.8120         2.4318         1.8860     12904.1680 
      762.3146      2555.2898      9061.0576         2.2806      3973.1292 
        1.4600         0.7243
    2674.91480 
       28.3419         7.4602         7.2881         7.6323       782.3176 
      108.5631       245.2403      6975.6284      3087.9744        11.9088 
       11.9088        29.5882         3.8379    0.000102640       0.378136 
     -999.2500      8859.9512      4953.5176      8956.8477      6922.0112 
      0.340322      2885.5176         2.4321         1.8796     12815.0576 
      786.2580      2621.6785      9211.2324         2.2590      4077.6326 
        1.5343         0.7645
    2675.06720 
       28.8914         9.8629         9.9338         9.7921       800.3667 
      106.2169       233.9676      7170.0728      3255.0784        12.0942 
       12.0942        30.2189         4.2405    0.000114049       0.370199 
     -999.2500      8860.5225      4953.6436      8960.6777      6857.4243 
      0.333179      2866.9319         2.4330         1.8619     12648.7129 
      835.5989      2711.6252      9414.6973         2.2027      4274.0957 
        1.6854         0.8472
    2675.21960 
       29.2213        11.1548        11.2444        11.0651       811.2957 
      104.8268       228.1949      7297.3984      3352.2351        12.2631 
       12.2631        30.7771         4.4776    0.000120959       0.366267 
     -999.2500      8861.0957      4953.7695      8962.8447      6826.1235 
      0.329640      2855.9390         2.4335         1.8533     12564.1260 
      865.0549      2766.8174      9539.5459         2.1769      4382.2192 
        1.7746         0.8967
    2675.37200 
       29.6381        12.5079        12.4717        12.5442       825.2067 
      103.0900       222.0294      7454.7329      3461.2910        12.5377 
       12.5377        31.6120         4.7516    0.000128957       0.362585 
     -999.2500      8861.6680      4953.8960      8964.8936      6797.1470 
      0.326326      2878.1021         2.4339         1.8453     12550.4980 
      899.6278      2837.8665      9700.2617         2.1537      4503.9077 
        1.8781         0.9547
    2675.52440 
       29.6603        13.9134        14.4587        13.3681       825.9484 
      102.9984       218.1848      7459.0972      3521.2124        12.2353 
       12.2353        30.8403         4.9191    0.000133461       0.356624 
     -999.2500      8862.2402      4954.0225      8967.8252      6750.5273 
      0.320961      2912.3718         2.4345         1.8326     12525.7988 
      919.0486      2841.6799      9708.8887         2.1183      4583.2705 
        1.9358         0.9873
    2675.67680 
       29.6761        13.8293        14.3126        13.3460       826.4793 
      102.9329       218.3058      7463.7466      3519.2161        12.2742 
       12.2742        30.9378         4.9136    0.000133310       0.357062 
     -999.2500      8862.8125      4954.1479      8968.2383      6754.2935 
      0.321356      2937.9612         2.4345         1.8335     12584.5098 
      918.5271      2844.4111      9715.0664         2.1209      4580.7314 
        1.9342         0.9864
    2675.82920 
       29.7590        14.3912        15.0223        13.7601       829.2615 
      102.5905       216.3343      7475.9302      3545.2515        12.2212 
       12.2212        30.7519         4.9950    0.000135290       0.354933 
     -999.2500      8863.3848      4954.2744      8969.6533      6738.0205 
      0.319440      2945.7375         2.4347         1.8290     12567.5156 
      928.3286      2858.7451      9747.4912         2.1087      4622.4756 
        1.9632         1.0028
