~Version Information Block
VERS .                  2.0:  CWLS LOG ASCII STANDARD - VERSION 2.0
WRAP .                  YES:  Multiple lines per depth step
~Well Information Block
#MNEM.UNIT        Data Type   Information
#---------- ----------------  -----------
STRT .M          2888.43720:  START DEPTH
STOP .M          3831.03120:  STOP DEPTH
STEP .M             0.15240:  STEP
NULL .              -999.25:  NULL VALUE
COMP .                     :  COMPANY
WELL .       RAAG-99-02-105:  WELL
FLD  .                     :  FIELD
LOC  .                     :  LOCATION
CTRY .                     :  COUNTRY
STAT .                     :  STATE
CNTY .                     :  COUNTY
SRVC .                     :  SERVICE COMPANY
DATE .                     :  DATE
API  .                     :  API NUMBER
UWI  .                     :  UNIQUE WELL ID
~Curve Information Block
#MNEM.UNIT         API CODE   Curve Description
#---------- ----------------  -----------------
DEPTH.M                    :  
ANGLE_FAIL.DEG                  :  Fail Angle
BRIT_IND.                     :  Brittleness Index
BRIT_PR.                     :  Brittleness Index from Poisson's Ratio
BRIT_YM.                     :  Brittleness Index from Young's Modulus
CS   .M/MIN                 :  Compressive Strength
DTCO .US/F                 :  Compressional slowness
DTSM .US/F                 :  Fast Shear Slowness
IP   .RAYL/M2                 :  P Impedence
IS   .RAYL/M2                 :  S Impedance
KBULK.                     :  Bulk Mudulus
LAMBDA.                     :  Lambda
LAMRHO.                     :  
MU   .CP                   :  Mu
MURHO.(GF/C3S)2                 :  Mu*Rho
PR   .                     :  Poisson's ratio
PRESS_FG.PSI                  :  Fracture Gradient Pressure
PRESS_OB.PSI                  :  Over-burden Pressure
PRESS_PP.PSI                  :  Pore Pressure
PRESS_SHMAX.PSI                  :  Horizontal Stress (Max)
PRESS_SHMIN.PSI                  :  Horizontal Stress (Min)
PR_STAT.                     :  Poisson's ratio (Static)
PZS  .PSI                  :  Processed Zone Stress
SHMAX_GRAD.                     :  Horizontal Stress Gradient (Max)
SHMIN_GRAD.                     :  Horizontal Stress Gradient (Min)
STRESS_CUM.PSI                  :  Cumulative stress (SHPZ)
UCS_BF.PSI                  :  Uniaxial Compressive Strength (BF)
UCS_LAL.PSI                  :  Uniaxial Compressive Strength (lal)
VP   .FT/S                 :  Compressional velocity
VPVS .                     :  Vp / Vs ratio
VS   .FT/S                 :  Shear velocity
YM   .                     :  Youngs' Modulus
YM_STAT.                     :  Youngs' Modulus (Static)
~Parameter Information Block
#MNEM.UNIT            Value   Description
#---------- ----------------  -----------
PROJECT.          RDG_13Jul21:  
SET  .              GEOMECH:  
~Other Information Block
~Ascii Log Data
# ...
    3073.75560 
       36.6166        35.9950        27.7527        44.2372      1077.7979 
       77.0454       148.7673     10108.0156      5234.8608        18.5377 
       18.5377        47.3644        10.7254    0.000294972       0.316742 
     -999.2500      9504.3193      5082.5078      9640.1455      6787.8003 
      0.285068      2083.9648         2.4557         1.7291     10943.5303 
     1730.3889      4287.4736     12979.3604         1.9309      6721.9077 
        4.0966         2.3487
    3073.90800 
       35.8591        37.8151        32.8715        42.7588      1048.3202 
       79.6132       149.3133      9718.3301      5181.7715        16.0512 
       16.0512        40.7444        10.5778    0.000289019       0.301386 
     -999.2500      9504.8984      5082.6123      9646.7471      6667.9272 
      0.271247      2017.9955         2.4572         1.6985     10571.8457 
     1687.8123      4102.4082     12560.7314         1.8755      6697.3271 
        3.9931         2.2773
    3074.06040 
       35.5896        42.4181        39.8711        44.9650      1037.9703 
       80.5410       145.7932      9669.0107      5341.4824        14.2573 
       14.2573        36.4269        11.1671    0.000307110       0.280387 
     -999.2500      9505.4785      5082.7163      9655.1855      6511.3350 
      0.252348      2050.6709         2.4592         1.6585     10324.0117 
     1751.4844      4038.4424     12416.0361         1.8102      6859.0308 
        4.1475         2.3841
    3074.21280 
       35.6329        47.7368        46.6943        48.7793      1039.6276 
       80.3915       141.1464      9820.8301      5593.5630        13.0770 
       13.0770        33.8728        12.0791    0.000336781       0.259917 
     -999.2500      9506.0566      5082.8208      9663.0479      6366.2256 
      0.233925      2071.5037         2.4611         1.6214     10075.4580 
     1863.5311      4048.6494     12439.1260         1.7557      7084.8423 
        4.4146         2.5721
    3074.36520 
       35.6770        51.7646        52.0233        51.5059      1041.3201 
       80.2392       137.8759      9920.5713      5773.4434        12.1582 
       12.1582        31.7524        12.7633    0.000358790       0.243930 
     -999.2500      9506.6357      5082.9248      9669.0830      6257.6836 
      0.219537      2079.7322         2.4625         1.5937      9874.8311 
     1945.1506      4059.0874     12462.7373         1.7183      7252.8989 
        4.6054         2.7091
    3074.51760 
       35.6214        52.1261        52.8982        51.3540      1039.1882 
       80.4311       137.7412      9875.6045      5766.6533        11.9030 
       11.9030        31.0190        12.7607    0.000357946       0.241305 
     -999.2500      9507.2148      5083.0288      9670.5557      6240.4004 
      0.217175      2087.5056         2.4628         1.5892      9855.8115 
     1940.5698      4045.9424     12433.0020         1.7125      7259.9927 
        4.5948         2.7014
    3074.67000 
       35.4787        47.4756        47.1575        47.7937      1033.7316 
       80.9250       141.8066      9704.3721      5538.0098        12.7442 
       12.7442        32.8357        11.9034    0.000330124       0.258528 
     -999.2500      9507.7939      5083.1333      9665.3203      6357.2686 
      0.232675      2120.0776         2.4613         1.6189     10154.6924 
     1834.3409      4012.3970     12357.1201         1.7523      7051.8584 
        4.3456         2.5231
    3074.82240 
       35.2740        40.1200        37.6895        42.5504      1025.9352 
       81.6375       149.3467      9553.0703      5222.0020        14.3521 
       14.3521        36.7225        10.6575    0.000293524       0.286931 
     -999.2500      9508.3730      5083.2378      9655.7617      6560.5977 
      0.258238      2073.9265         2.4587         1.6706     10469.0488 
     1681.8429      3964.7205     12249.2725         1.8294      6695.8296 
        3.9785         2.2672
    3074.97480 
       35.0267        33.6215        29.4635        37.7796      1016.5731 
       82.5038       157.7110      9474.7061      4956.5298        15.8447 
       15.8447        40.6357         9.5792    0.000264439       0.311610 
     -999.2500      9508.9521      5083.3418      9646.9482      6749.0400 
      0.280449      1925.8458         2.4563         1.7185     10549.7715 
     1547.1729      3907.8611     12120.6533         1.9116      6340.7119 
        3.6446         2.0413
    3075.12720 
       34.7470        30.5182        25.8645        35.1720      1006.0490 
       83.4918       163.0853      9432.4971      4828.9834        16.3845 
       16.3845        42.3338         9.0252    0.000251004       0.322406 
     -999.2500      9509.5313      5083.4458      9643.2412      6835.3359 
      0.290166      1758.2738         2.4553         1.7403     10387.2197 
     1475.2128      3844.4543     11977.2246         1.9533      6131.7607 
        3.4620         1.9205
    3075.27960 
       34.4877        31.0764        27.1625        34.9902       996.3599 
       84.4149       163.5779      9378.9258      4840.0249        15.8277 
       15.8277        41.1126         9.0186    0.000252154       0.318512 
     -999.2500      9510.1094      5083.5503      9645.4023      6804.2671 
      0.286661      1642.5127         2.4557         1.7323     10093.5596 
     1470.2415      3786.5537     11846.2490         1.9378      6113.2954 
        3.4493         1.9122
    3075.43200 
       34.3576        33.1161        30.3335        35.8986       991.5169 
       84.8812       161.4483      9320.8662      4900.4312        14.9672 
       14.9672        38.8501         9.2516    0.000258487       0.309000 
     -999.2500      9510.6885      5083.6543      9649.7588      6729.2935 
      0.278100      1641.5430         2.4566         1.7132      9941.6729 
     1495.1489      3757.7844     11781.1719         1.9021      6193.9336 
        3.5129         1.9540
    3075.58440 
       34.3614        34.2912        31.9625        36.6198       991.6608 
       84.8673       159.9582      9317.4004      4943.4326        14.6239 
       14.6239        37.9389         9.4197    0.000263043       0.304112 
     -999.2500      9511.2686      5083.7583      9652.2510      6691.6147 
      0.273701      1763.7026         2.4571         1.7035     10110.6348 
     1515.0247      3758.6375     11783.1016         1.8848      6251.6328 
        3.5634         1.9873
    3075.73680 
       34.3503        33.5540        30.8548        36.2531       991.2490 
       84.9071       161.0223      9345.5566      4927.9146        14.8926 
       14.8926        38.7708         9.3281    0.000261394       0.307436 
     -999.2500      9511.8467      5083.8623      9651.5557      6717.6719 
      0.276692      1846.1643         2.4568         1.7100     10327.6719 
     1504.9078      3756.1960     11777.5781         1.8965      6210.3203 
        3.5377         1.9704
    3075.88920 
       34.2390        31.2793        27.9658        34.5927       987.1202 
       85.3074       164.5108      9328.2861      4837.2012        15.4052 
       15.4052        40.2199         8.9622    0.000251860       0.316103 
     -999.2500      9512.4258      5083.9663      9648.7393      6786.1587 
      0.284492      1833.8269         2.4560         1.7273     10439.9707 
     1459.3861      3731.7642     11722.3115         1.9284      6078.6284 
        3.4215         1.8940
    3076.04160 
       34.1173        30.3311        26.9566        33.7056       982.6199 
       85.7465       166.3663      9297.4023      4791.9541        15.4904 
       15.4904        40.5160         8.7793    0.000247170       0.319130 
     -999.2500      9513.0059      5084.0703      9648.1250      6810.6094 
      0.287217      1718.5809         2.4557         1.7335     10258.3809 
     1435.2583      3705.2271     11662.2832         1.9402      6010.8325 
        3.3594         1.8535
