~Version Information Block
VERS .                  2.0:  CWLS LOG ASCII STANDARD - VERSION 2.0
WRAP .                  YES:  Multiple lines per depth step
~Well Information Block
#MNEM.UNIT        Data Type   Information
#---------- ----------------  -----------
STRT .M          2676.97280:  START DEPTH
STOP .M          3838.10840:  STOP DEPTH
STEP .M             0.15240:  STEP
NULL .              -999.25:  NULL VALUE
COMP .                     :  COMPANY
WELL .      RAAG-107-07-210:  WELL
FLD  .                     :  FIELD
LOC  .                     :  LOCATION
CTRY .                     :  COUNTRY
STAT .                     :  STATE
CNTY .                     :  COUNTY
SRVC .                     :  SERVICE COMPANY
DATE .                     :  DATE
API  .                     :  API NUMBER
UWI  .                     :  UNIQUE WELL ID
~Curve Information Block
#MNEM.UNIT         API CODE   Curve Description
#---------- ----------------  -----------------
DEPTH.M                    :  
ANGLE_FAIL.DEG                  :  Fail Angle
BRIT_IND.                     :  Brittleness Index
BRIT_PR.                     :  Brittleness Index from Poisson's Ratio
BRIT_YM.                     :  Brittleness Index from Young's Modulus
CS   .M/MIN                 :  Compressive Strength
DTCO .US/F                 :  Compressional slowness
DTSM .US/F                 :  Fast Shear Slowness
IP   .RAYL/M2                 :  P Impedence
IS   .RAYL/M2                 :  S Impedance
KBULK.                     :  Bulk Mudulus
LAMBDA.                     :  Lambda
LAMRHO.                     :  
MU   .CP                   :  Mu
MURHO.(GF/C3S)2                 :  Mu*Rho
PR   .                     :  Poisson's ratio
PRESS_FG.PSI                  :  Fracture Gradient Pressure
PRESS_OB.PSI                  :  Over-burden Pressure
PRESS_PP.PSI                  :  Pore Pressure
PRESS_SHMAX.PSI                  :  Horizontal Stress (Max)
PRESS_SHMIN.PSI                  :  Horizontal Stress (Min)
PR_STAT.                     :  Poisson's ratio (Static)
PZS  .PSI                  :  Processed Zone Stress
SHMAX_GRAD.                     :  Horizontal Stress Gradient (Max)
SHMIN_GRAD.                     :  Horizontal Stress Gradient (Min)
STRESS_CUM.PSI                  :  Cumulative stress (SHPZ)
UCS_BF.PSI                  :  Uniaxial Compressive Strength (BF)
UCS_LAL.PSI                  :  Uniaxial Compressive Strength (lal)
VP   .FT/S                 :  Compressional velocity
VPVS .                     :  Vp / Vs ratio
VS   .FT/S                 :  Shear velocity
YM   .                     :  Youngs' Modulus
YM_STAT.                     :  Youngs' Modulus (Static)
~Parameter Information Block
#MNEM.UNIT            Value   Description
#---------- ----------------  -----------
PROJECT.          RDG_13Jul21:  
SET  .              GEOMECH:  
~Other Information Block
~Ascii Log Data
# ...
    3649.89440 
       41.0013        67.6247        44.2764        90.9729      1260.8503 
       63.2991       112.3001     13102.6006      7385.4146        23.0018 
       23.0018        62.5894        20.0452    0.000587110       0.267171 
     -999.2500     11669.7510      5333.8467     11889.5771      7273.2241 
      0.240454      1473.2650         2.5178         1.5402     10692.9775 
     3269.0718      5533.5298     15798.0127         1.7741      8904.7109 
        7.3681         4.9306
    3650.04680 
       41.9701        75.7859        46.5503       105.0216      1304.5569 
       60.5049       106.2954     13995.4492      7966.4150        24.8165 
       24.8165        68.9451        22.8435    0.000683118       0.260349 
     -999.2500     11670.3428      5333.8794     11893.5332      7206.5376 
      0.234314      1684.6169         2.5185         1.5260     10982.3096 
     3804.6621      5856.0562     16527.5859         1.7568      9407.7441 
        8.3515         5.8294
    3650.19920 
       41.4110        77.9638        53.3935       102.5340      1279.1735 
       62.1072       106.1605     13536.7363      7919.4121        20.9582 
       20.9582        57.8090        22.7376    0.000675081       0.239820 
     -999.2500     11670.9365      5333.9116     11904.0801      7008.0625 
      0.215838      1832.2557         2.5206         1.4839     10880.6367 
     3707.3652      5667.5576     16101.1924         1.7093      9419.7002 
        8.1774         5.6661
    3650.35160 
       40.5918        75.9272        57.9585        93.8959      1242.7621 
       64.5057       108.4319     12732.3096      7574.3999        17.5793 
       17.5793        47.3687        21.2915    0.000617542       0.226125 
     -999.2500     11671.5293      5333.9434     11911.0928      6880.2700 
      0.203512      1895.4688         2.5220         1.4568     10751.4775 
     3377.7258      5402.8936     15502.5068         1.6810      9222.3789 
        7.5727         5.1129
    3650.50400 
       39.7859        74.1860        62.2997        86.0723      1207.8031 
       66.9254       110.8373     12022.8760      7259.6118        14.8286 
       14.8286        39.1456        19.9638    0.000567279       0.213101 
     -999.2500     11672.1221      5333.9761     11917.6074      6762.4058 
      0.191791      1879.1669         2.5233         1.4318     10483.1445 
     3090.1887      5155.1123     14942.0098         1.6561      9022.2334 
        7.0251         4.6305
    3650.65640 
       39.1544        72.3521        64.6278        80.0765      1180.9775 
       68.8640       113.1835     11522.7227      7010.7456        13.2414 
       13.2414        34.4720        18.8797    0.000529052       0.206117 
     -999.2500     11672.7148      5334.0083     11921.3242      6700.5410 
      0.185505      1796.3621         2.5239         1.4186     10193.8057 
     2876.9165      4969.1602     14521.3750         1.6436      8835.2100 
        6.6054         4.2726
    3650.80880 
       38.9990        69.5852        62.1116        77.0588      1174.4497 
       69.3469       114.9195     11347.9150      6847.7734        13.5528 
       13.5528        34.9912        18.1623    0.000504741       0.213665 
     -999.2500     11673.3076      5334.0400     11918.6182      6767.0913 
      0.192299      1668.0261         2.5232         1.4326     10070.2354 
     2771.9019      4924.4575     14420.2559         1.6572      8701.7432 
        6.3941         4.0964
    3650.96120 
       39.1126        68.3301        59.6161        77.0441      1179.2184 
       68.9937       115.3060     11410.6211      6827.5801        14.3137 
       14.3137        36.9706        18.0480    0.000501769       0.221152 
     -999.2500     11673.9004      5334.0723     11915.8740      6834.4395 
      0.199037      1574.6665         2.5226         1.4468     10018.2119 
     2771.3936      4957.0923     14494.0781         1.6713      8672.5762 
        6.3931         4.0955
    3651.11360 
       39.4264        69.3741        58.4465        80.3017      1192.4746 
       68.0242       114.1498     11713.2256      6980.1509        15.2077 
       15.2077        39.7547        18.6382    0.000524445       0.224661 
     -999.2500     11674.4932      5334.1040     11914.8809      6866.7290 
      0.202194      1524.1287         2.5222         1.4536      9981.7148 
     2884.8135      5048.4131     14700.6504         1.6781      8760.4180 
        6.6211         4.2858
    3651.26600 
       39.8242        71.1565        57.3017        85.0114      1209.4478 
       66.8089       112.5661     12141.0918      7205.8369        16.3678 
       16.3678        43.5579        19.5116    0.000558906       0.228095 
     -999.2500     11675.0859      5334.1362     11913.9053      6898.7100 
      0.205285      1496.2339         2.5219         1.4603      9989.8877 
     3052.0027      5166.6309     14968.0664         1.6849      8883.6689 
        6.9508         4.5664
    3651.41840 
       40.1299        71.3334        54.7695        87.8973      1222.6261 
       65.8850       112.0380     12473.3994      7335.1001        17.7946 
       17.7946        47.9783        19.9552    0.000579138       0.235692 
     -999.2500     11675.6797      5334.1680     11910.9854      6969.5669 
      0.212122      1487.0602         2.5212         1.4752     10113.2539 
     3156.3230      5259.4204     15177.9619         1.7005      8925.5430 
        7.1528         4.7414
    3651.57080 
       40.2049        67.4339        49.1170        85.7508      1225.8770 
       65.6597       114.1312     12543.2842      7216.1533        19.6843 
       19.6843        53.1882        19.2715    0.000560508       0.252649 
     -999.2500     11676.2715      5334.2002     11903.5166      7131.3804 
      0.227384      1499.2716         2.5195         1.5094     10461.3047 
     3078.5957      5282.4443     15230.0430         1.7382      8761.8457 
        7.0026         4.6110
    3651.72320 
       39.7086        60.1554        43.1046        77.2063      1204.4943 
       67.1606       119.7724     12176.3145      6827.6875        20.5101 
       20.5101        55.0280        17.3753    0.000501785       0.270686 
     -999.2500     11676.8652      5334.2319     11895.1992      7310.1880 
      0.243618      1598.1914         2.5176         1.5472     11016.7588 
     2776.9983      5131.9795     14889.6836         1.7834      8349.1689 
        6.4044         4.1049
    3651.87560 
       38.8455        54.0844        40.2977        67.8711      1168.0308 
       69.8261       126.1427     11588.1836      6414.6221        19.5845 
       19.5845        51.9913        15.4997    0.000442907       0.279107 
     -999.2500     11677.4570      5334.2642     11891.5273      7396.0513 
      0.251196      1723.3342         2.5167         1.5653     11438.7715 
     2461.7744      4880.7080     14321.2920         1.8065      7927.5298 
        5.7510         3.5760
    3652.02800 
       38.0661        51.0366        40.6129        61.4603      1135.8545 
       72.2948       130.4093     11037.1328      6118.6382        17.9317 
       17.9317        46.9428        14.3008    0.000402976       0.278161 
     -999.2500     11678.0498      5334.2959     11892.6504      7386.0229 
      0.250345      1816.1257         2.5168         1.5631     11604.2969 
     2253.9353      4664.5166     13832.2529         1.8039      7668.1646 
        5.3022         3.2272
    3652.18040 
       37.4759        49.5222        41.7844        57.2599      1111.9457 
       74.2036       133.1275     10613.9189      5916.0649        16.5078 
       16.5078        42.6556        13.5450    0.000376735       0.274647 
     -999.2500     11678.6426      5334.3276     11895.0869      7349.7700 
      0.247182      1908.5519         2.5172         1.5554     11716.6436 
     2121.5708      4507.2183     13476.4355         1.7941      7511.5957 
        5.0082         3.0051
