~Version Information Block
VERS .                  2.0:  CWLS LOG ASCII STANDARD - VERSION 2.0
WRAP .                   NO:  One line per depth step
~Well Information Block
#MNEM.UNIT        Data Type   Information
#---------- ----------------  -----------
STRT .M                0.00:  START DEPTH
STOP .M             3613.00:  STOP DEPTH
STEP .M                0.50:  STEP
NULL .              -999.25:  NULL VALUE
COMP .                     :  COMPANY
WELL .      RAAG-100-07-213:  WELL
FLD  .                     :  FIELD
LOC  .                     :  LOCATION
CTRY .                     :  COUNTRY
STAT .                     :  STATE
CNTY .                     :  COUNTY
SRVC .                     :  SERVICE COMPANY
DATE .                     :  DATE
API  .                     :  API NUMBER
UWI  .                     :  UNIQUE WELL ID
~Curve Information Block
#MNEM.UNIT         API CODE   Curve Description
#---------- ----------------  -----------------
DEPTH.M                    :  
OBG  .G/CC                 :  2.174+0.00008962*TVDSS
PP   .G/CC                 :  2.1087-0.00029524*TVDSS
~Parameter Information Block
#MNEM.UNIT            Value   Description
#---------- ----------------  -----------
PROJECT.          RDG_13Jul21:  
SET  .              GEOMECH:  
~Other Information Block
# 
~A       DEPTH            OBG             PP 
# ...
       2136.00         2.3575         1.5042
       2136.50         2.3576         1.5040
       2137.00         2.3576         1.5039
       2137.50         2.3576         1.5037
       2138.00         2.3577         1.5036
       2138.50         2.3577         1.5034
       2139.00         2.3578         1.5033
       2139.50         2.3578         1.5031
       2140.00         2.3579         1.5030
       2140.50         2.3579         1.5028
       2141.00         2.3580         1.5027
       2141.50         2.3580         1.5025
       2142.00         2.3580         1.5024
       2142.50         2.3581         1.5022
       2143.00         2.3581         1.5021
       2143.50         2.3582         1.5020
       2144.00         2.3582         1.5018
       2144.50         2.3583         1.5017
       2145.00         2.3583         1.5015
       2145.50         2.3584         1.5014
       2146.00         2.3584         1.5012
       2146.50         2.3584         1.5011
       2147.00         2.3585         1.5009
       2147.50         2.3585         1.5008
       2148.00         2.3586         1.5006
       2148.50         2.3586         1.5005
       2149.00         2.3587         1.5003
       2149.50         2.3587         1.5002
       2150.00         2.3588         1.5000
       2150.50         2.3588         1.4999
       2151.00         2.3589         1.4997
       2151.50         2.3589         1.4996
       2152.00         2.3589         1.4994
       2152.50         2.3590         1.4993
       2153.00         2.3590         1.4991
       2153.50         2.3591         1.4990
       2154.00         2.3591         1.4989
       2154.50         2.3592         1.4987
       2155.00         2.3592         1.4986
       2155.50         2.3593         1.4984
       2156.00         2.3593         1.4983
       2156.50         2.3593         1.4981
       2157.00         2.3594         1.4980
       2157.50         2.3594         1.4978
       2158.00         2.3595         1.4977
       2158.50         2.3595         1.4975
       2159.00         2.3596         1.4974
       2159.50         2.3596         1.4972
       2160.00         2.3597         1.4971
       2160.50         2.3597         1.4969
       2161.00         2.3597         1.4968
       2161.50         2.3598         1.4966
       2162.00         2.3598         1.4965
       2162.50         2.3599         1.4963
       2163.00         2.3599         1.4962
       2163.50         2.3600         1.4960
       2164.00         2.3600         1.4959
       2164.50         2.3601         1.4958
       2165.00         2.3601         1.4956
       2165.50         2.3601         1.4955
       2166.00         2.3602         1.4953
       2166.50         2.3602         1.4952
       2167.00         2.3603         1.4950
       2167.50         2.3603         1.4949
       2168.00         2.3604         1.4947
       2168.50         2.3604         1.4946
       2169.00         2.3605         1.4944
       2169.50         2.3605         1.4943
       2170.00         2.3606         1.4941
       2170.50         2.3606         1.4940
       2171.00         2.3606         1.4938
       2171.50         2.3607         1.4937
       2172.00         2.3607         1.4935
       2172.50         2.3608         1.4934
       2173.00         2.3608         1.4932
       2173.50         2.3609         1.4931
       2174.00         2.3609         1.4929
       2174.50         2.3610         1.4928
       2175.00         2.3610         1.4927
       2175.50         2.3610         1.4925
       2176.00         2.3611         1.4924
       2176.50         2.3611         1.4922
       2177.00         2.3612         1.4921
       2177.50         2.3612         1.4919
       2178.00         2.3613         1.4918
       2178.50         2.3613         1.4916
       2179.00         2.3614         1.4915
       2179.50         2.3614         1.4913
       2180.00         2.3614         1.4912
       2180.50         2.3615         1.4910
       2181.00         2.3615         1.4909
       2181.50         2.3616         1.4907
       2182.00         2.3616         1.4906
       2182.50         2.3617         1.4904
       2183.00         2.3617         1.4903
       2183.50         2.3618         1.4901
       2184.00         2.3618         1.4900
       2184.50         2.3619         1.4898
       2185.00         2.3619         1.4897
       2185.50         2.3619         1.4896
       2186.00         2.3620         1.4894
       2186.50         2.3620         1.4893
       2187.00         2.3621         1.4891
       2187.50         2.3621         1.4890
       2188.00         2.3622         1.4888
       2188.50         2.3622         1.4887
       2189.00         2.3623         1.4885
       2189.50         2.3623         1.4884
       2190.00         2.3623         1.4882
       2190.50         2.3624         1.4881
       2191.00         2.3624         1.4879
       2191.50         2.3625         1.4878
       2192.00         2.3625         1.4876
       2192.50         2.3626         1.4875
       2193.00         2.3626         1.4873
       2193.50         2.3627         1.4872
       2194.00         2.3627         1.4870
       2194.50         2.3627         1.4869
       2195.00         2.3628         1.4867
       2195.50         2.3628         1.4866
       2196.00         2.3629         1.4865
       2196.50         2.3629         1.4863
       2197.00         2.3630         1.4862
       2197.50         2.3630         1.4860
       2198.00         2.3631         1.4859
       2198.50         2.3631         1.4857
       2199.00         2.3632         1.4856
       2199.50         2.3632         1.4854
       2200.00         2.3632         1.4853
       2200.50         2.3633         1.4851
       2201.00         2.3633         1.4850
       2201.50         2.3634         1.4848
       2202.00         2.3634         1.4847
       2202.50         2.3635         1.4845
       2203.00         2.3635         1.4844
       2203.50         2.3636         1.4842
       2204.00         2.3636         1.4841
       2204.50         2.3636         1.4839
       2205.00         2.3637         1.4838
       2205.50         2.3637         1.4836
       2206.00         2.3638         1.4835
       2206.50         2.3638         1.4834
       2207.00         2.3639         1.4832
       2207.50         2.3639         1.4831
       2208.00         2.3640         1.4829
       2208.50         2.3640         1.4828
       2209.00         2.3640         1.4826
       2209.50         2.3641         1.4825
       2210.00         2.3641         1.4823
       2210.50         2.3642         1.4822
       2211.00         2.3642         1.4820
       2211.50         2.3643         1.4819
       2212.00         2.3643         1.4817
       2212.50         2.3644         1.4816
       2213.00         2.3644         1.4814
       2213.50         2.3645         1.4813
       2214.00         2.3645         1.4811
       2214.50         2.3645         1.4810
       2215.00         2.3646         1.4808
       2215.50         2.3646         1.4807
       2216.00         2.3647         1.4805
       2216.50         2.3647         1.4804
       2217.00         2.3648         1.4803
       2217.50         2.3648         1.4801
       2218.00         2.3649         1.4800
       2218.50         2.3649         1.4798
       2219.00         2.3649         1.4797
       2219.50         2.3650         1.4795
       2220.00         2.3650         1.4794
       2220.50         2.3651         1.4792
       2221.00         2.3651         1.4791
       2221.50         2.3652         1.4789
       2222.00         2.3652         1.4788
       2222.50         2.3653         1.4786
       2223.00         2.3653         1.4785
       2223.50         2.3653         1.4783
       2224.00         2.3654         1.4782
       2224.50         2.3654         1.4780
