~Version Information Block
VERS .                  2.0:  CWLS LOG ASCII STANDARD - VERSION 2.0
WRAP .                  YES:  Multiple lines per depth step
~Well Information Block
#MNEM.UNIT        Data Type   Information
#---------- ----------------  -----------
STRT .M          2776.00000:  START DEPTH
STOP .M          3750.44560:  STOP DEPTH
STEP .M             0.15240:  STEP
NULL .              -999.25:  NULL VALUE
COMP .                     :  COMPANY
WELL .      RAAG-102-07-105:  WELL
FLD  .                     :  FIELD
LOC  .                     :  LOCATION
CTRY .                     :  COUNTRY
STAT .                     :  STATE
CNTY .                     :  COUNTY
SRVC .                     :  SERVICE COMPANY
DATE .                     :  DATE
API  .                     :  API NUMBER
UWI  .                     :  UNIQUE WELL ID
~Curve Information Block
#MNEM.UNIT         API CODE   Curve Description
#---------- ----------------  -----------------
DEPTH.M                    :  
ANGLE_FAIL.DEG                  :  Fail Angle
BRIT_IND.                     :  Brittleness Index
BRIT_PR.                     :  Brittleness Index from Poisson's Ratio
BRIT_YM.                     :  Brittleness Index from Young's Modulus
CS   .M/MIN                 :  Compressive Strength
DTCO .US/F                 :  Compressional slowness
DTSM .US/F                 :  Fast Shear Slowness
IP   .RAYL/M2                 :  P Impedence
IS   .RAYL/M2                 :  S Impedance
KBULK.                     :  Bulk Mudulus
LAMBDA.                     :  Lambda
LAMRHO.                     :  
MU   .CP                   :  Mu
MURHO.(GF/C3S)2                 :  Mu*Rho
PR   .                     :  Poisson's ratio
PRESS_FG.PSI                  :  Fracture Gradient Pressure
PRESS_OB.PSI                  :  Over-burden Pressure
PRESS_PP.PSI                  :  Pore Pressure
PRESS_SHMAX.PSI                  :  Horizontal Stress (Max)
PRESS_SHMIN.PSI                  :  Horizontal Stress (Min)
PR_STAT.                     :  Poisson's ratio (Static)
PZS  .PSI                  :  Processed Zone Stress
SHMAX_GRAD.                     :  Horizontal Stress Gradient (Max)
SHMIN_GRAD.                     :  Horizontal Stress Gradient (Min)
STRESS_CUM.PSI                  :  Cumulative stress (SHPZ)
UCS_BF.PSI                  :  Uniaxial Compressive Strength (BF)
UCS_LAL.PSI                  :  Uniaxial Compressive Strength (lal)
VP   .FT/S                 :  Compressional velocity
VPVS .                     :  Vp / Vs ratio
VS   .FT/S                 :  Shear velocity
YM   .                     :  Youngs' Modulus
YM_STAT.                     :  Youngs' Modulus (Static)
~Parameter Information Block
#MNEM.UNIT            Value   Description
#---------- ----------------  -----------
PROJECT.          RDG_13Jul21:  
SET  .              GEOMECH:  
~Other Information Block
~Ascii Log Data
# ...
    3373.40800 
       38.5225        45.8250        30.9115        60.7384      1154.6119 
       70.8420       134.3057     11569.3057      6102.4424        22.0789 
       22.0789        59.3692        13.8492    0.000400846       0.307265 
     -999.2500     10980.5264      5283.2075     11159.5469      7400.1079 
      0.276539      2717.3718         2.4955         1.6548     13434.9590 
     2230.9722      4789.9180     14115.9189         1.8958      7445.7002 
        5.2517         3.1887
    3373.56040 
       38.4169        46.6006        32.4204        60.7808      1150.2500 
       71.1764       133.8175     11477.5986      6104.8379        21.3404 
       21.3404        57.1972        13.9052    0.000401161       0.302739 
     -999.2500     10981.1211      5283.2627     11162.4053      7355.4272 
      0.272465      2777.2520         2.4960         1.6447     13465.3574 
     2232.3191      4760.6006     14049.6006         1.8801      7472.8643 
        5.2547         3.1910
    3373.71280 
       38.0163        47.3061        35.2225        59.3897      1133.8252 
       72.4543       134.2089     11203.3291      6048.2534        19.6578 
       19.6578        52.3518        13.7361    0.000393759       0.294332 
     -999.2500     10981.7148      5283.3179     11167.1289      7273.4297 
      0.264899      2786.5415         2.4970         1.6263     13319.9424 
     2188.3079      4651.0552     13801.8027         1.8523      7451.0708 
        5.1573         3.1171
    3373.86520 
       37.9353        48.1685        37.1583        59.1786      1130.5248 
       72.7147       133.3744     11042.7832      6020.4404        18.7713 
       18.7713        49.4517        13.7585    0.000390145       0.288525 
     -999.2500     10982.3076      5283.3730     11170.5293      7217.8857 
      0.259672      2783.8875         2.4976         1.6138     13203.5469 
     2181.6597      4629.2056     13752.3770         1.8342      7497.6909 
        5.1425         3.1059
    3374.01760 
       38.2065        48.6872        37.2069        60.1674      1141.6012 
       71.8456       131.7484     11053.5586      6027.7734        19.0034 
       19.0034        49.5130        13.9453    0.000391096       0.288379 
     -999.2500     10982.9023      5283.4282     11171.2070      7216.8105 
      0.259541      2708.0186         2.4976         1.6135     13049.6582 
     2212.8733      4702.7490     13918.7373         1.8338      7590.2256 
        5.2117         3.1583
    3374.17000 
       38.7164        50.2540        37.4336        63.0744      1162.6520 
       70.2310       128.6426     11207.6816      6118.7100        19.6461 
       19.6461        50.7349        14.4974    0.000402986       0.287699 
     -999.2500     10983.4961      5283.4834     11172.1318      7210.7847 
      0.258929      2580.2727         2.4977         1.6121     12782.1152 
     2305.6040      4844.2080     14238.7266         1.8317      7773.4751 
        5.4152         3.3139
    3374.32240 
       38.9731        52.3502        39.1932        65.5071      1173.3634 
       69.4277       126.0836     11279.5039      6211.0376        19.4894 
       19.4894        50.0732        15.0148    0.000415239       0.282420 
     -999.2500     10984.0898      5283.5381     11175.2314      7161.2651 
      0.254178      2501.3318         2.4983         1.6009     12525.1943 
     2384.3145      4917.0386     14403.4736         1.8160      7931.2456 
        5.5855         3.4460
    3374.47480 
       39.0538        54.0986        40.9804        67.2168      1176.7504 
       69.1762       124.5699     11334.4805      6294.2676        19.1394 
       19.1394        49.2348        15.4009    0.000426442       0.277059 
     -999.2500     10984.6846      5283.5928     11178.3418      7111.5518 
      0.249353      2454.1353         2.4989         1.5897     12331.3740 
     2440.2388      4940.1880     14455.8389         1.8008      8027.6216 
        5.7052         3.5398
    3374.62720 
       39.1183        56.8279        43.9558        69.7001      1179.4609 
       68.9758       122.5443     11415.7051      6425.4917        18.4815 
       18.4815        47.7444        15.9819    0.000444409       0.268133 
     -999.2500     10985.2783      5283.6479     11183.0420      7029.9956 
      0.241319      2557.5090         2.4998         1.5714     12375.0098 
     2522.3591      4958.7549     14497.8389         1.7766      8160.3145 
        5.8790         3.6776
    3374.77960 
       39.4322        58.7612        44.4038        73.1186      1192.7175 
       68.0066       120.5843     11679.6953      6587.0630        19.0473 
       19.0473        49.6365        16.6501    0.000467040       0.266789 
     -999.2500     10985.8721      5283.7031     11184.2510      7018.2813 
      0.240110      2752.6897         2.4999         1.5687     12741.9414 
     2637.1343      5050.0952     14704.4551         1.7731      8292.9541 
        6.1183         3.8702
    3374.93200 
       40.3854        58.3493        38.6879        78.0106      1233.7317 
       65.1195       118.5485     12282.7129      6746.9780        22.7965 
       22.7965        59.8216        17.3472    0.000489992       0.283936 
     -999.2500     10986.4658      5283.7578     11176.9160      7177.4482 
      0.255543      2882.6282         2.4982         1.6042     13320.1523 
     2804.8577      5338.2964     15356.3828         1.8205      8435.3662 
        6.4607         4.1517
    3375.08440 
       42.0439        57.9074        29.5966        86.2183      1307.9387 
       60.2956       115.1701     13349.8691      6989.1265        30.4911 
       30.4911        80.5232        18.4969    0.000525794       0.311210 
     -999.2500     10987.0605      5283.8130     11164.1826      7444.6064 
      0.280089      2852.3796         2.4952         1.6639     13793.9727 
     3095.4565      5881.4185     16584.9590         1.9101      8682.8096 
        7.0353         4.6393
    3375.23680 
       42.9456        58.5912        25.7082        91.4743      1349.9246 
       57.7759       112.9644     13980.1240      7150.1665        35.1678 
       35.1678        93.1941        19.2925    0.000550304       0.322875 
     -999.2500     10987.6543      5283.8682     11158.7939      7564.8447 
      0.290588      2776.1018         2.4939         1.6907     13881.8936 
     3287.6040      6201.1694     17308.2539         1.9552      8852.3457 
        7.4032         4.9617
    3375.38920 
       42.5861        58.6116        27.4455        89.7777      1333.0424 
       58.7718       113.6924     13751.8086      7108.8179        33.2028 
       33.2028        88.0416        19.0582    0.000543957       0.317663 
     -999.2500     10988.2480      5283.9229     11162.1035      7511.1289 
      0.285897      2716.2356         2.4945         1.6786     13654.7295 
     3225.0664      6071.5127     17014.9629         1.9345      8795.6631 
        7.2844         4.8568
    3375.54160 
       41.9555        57.7508        29.7399        85.7616      1303.8866 
       60.5465       115.5539     13326.8604      6982.8433        30.2517 
       30.2517        80.0850        18.4189    0.000524849       0.310780 
     -999.2500     10988.8428      5283.9780     11166.2334      7441.0200 
      0.279702      2691.5796         2.4953         1.6628     13465.1992 
     3078.9839      5851.0361     16516.2305         1.9085      8653.9697 
        7.0033         4.6117
    3375.69400 
       41.6131        58.1332        32.0431        84.2233      1288.2979 
       61.5248       115.9108     13062.0420      6933.2588        28.2472 
       28.2472        74.4768        18.2318    0.000517422       0.303871 
     -999.2500     10989.4355      5284.0332     11170.3057      7372.0469 
      0.273484      2728.4536         2.4961         1.6473     13401.0010 
     3023.7610      5734.9370     16253.6094         1.8840      8627.3242 
        6.8956         4.5190
