~Version Information Block
VERS .                  2.0:  CWLS LOG ASCII STANDARD - VERSION 2.0
WRAP .                  YES:  Multiple lines per depth step
~Well Information Block
#MNEM.UNIT        Data Type   Information
#---------- ----------------  -----------
STRT .M          2888.43720:  START DEPTH
STOP .M          3831.03120:  STOP DEPTH
STEP .M             0.15240:  STEP
NULL .              -999.25:  NULL VALUE
COMP .                     :  COMPANY
WELL .       RAAG-99-02-105:  WELL
FLD  .                     :  FIELD
LOC  .                     :  LOCATION
CTRY .                     :  COUNTRY
STAT .                     :  STATE
CNTY .                     :  COUNTY
SRVC .                     :  SERVICE COMPANY
DATE .                     :  DATE
API  .                     :  API NUMBER
UWI  .                     :  UNIQUE WELL ID
~Curve Information Block
#MNEM.UNIT         API CODE   Curve Description
#---------- ----------------  -----------------
DEPTH.M                    :  
ANGLE_FAIL.DEG                  :  Fail Angle
BRIT_IND.                     :  Brittleness Index
BRIT_PR.                     :  Brittleness Index from Poisson's Ratio
BRIT_YM.                     :  Brittleness Index from Young's Modulus
CS   .M/MIN                 :  Compressive Strength
DTCO .US/F                 :  Compressional slowness
DTSM .US/F                 :  Fast Shear Slowness
IP   .RAYL/M2                 :  P Impedence
IS   .RAYL/M2                 :  S Impedance
KBULK.                     :  Bulk Mudulus
LAMBDA.                     :  Lambda
LAMRHO.                     :  
MU   .CP                   :  Mu
MURHO.(GF/C3S)2                 :  Mu*Rho
PR   .                     :  Poisson's ratio
PRESS_FG.PSI                  :  Fracture Gradient Pressure
PRESS_OB.PSI                  :  Over-burden Pressure
PRESS_PP.PSI                  :  Pore Pressure
PRESS_SHMAX.PSI                  :  Horizontal Stress (Max)
PRESS_SHMIN.PSI                  :  Horizontal Stress (Min)
PR_STAT.                     :  Poisson's ratio (Static)
PZS  .PSI                  :  Processed Zone Stress
SHMAX_GRAD.                     :  Horizontal Stress Gradient (Max)
SHMIN_GRAD.                     :  Horizontal Stress Gradient (Min)
STRESS_CUM.PSI                  :  Cumulative stress (SHPZ)
UCS_BF.PSI                  :  Uniaxial Compressive Strength (BF)
UCS_LAL.PSI                  :  Uniaxial Compressive Strength (lal)
VP   .FT/S                 :  Compressional velocity
VPVS .                     :  Vp / Vs ratio
VS   .FT/S                 :  Shear velocity
YM   .                     :  Youngs' Modulus
YM_STAT.                     :  Youngs' Modulus (Static)
~Parameter Information Block
#MNEM.UNIT            Value   Description
#---------- ----------------  -----------
PROJECT.          RDG_13Jul21:  
SET  .              GEOMECH:  
~Other Information Block
~Ascii Log Data
# ...
    3259.07400 
       40.5946        62.6685        38.9773        86.3598      1242.8864 
       64.4973       117.2516     13237.7119      7281.7480        24.7001 
       24.7001        69.1893        18.9292    0.000570744       0.283068 
     -999.2500     10212.7227      5194.9063     10380.9531      6848.1133 
      0.254761      2738.4812         2.4779         1.6346     12373.1885 
     3100.5681      5403.7861     15504.5254         1.8179      8528.6680 
        7.0452         4.6479
    3259.22640 
       40.5546        61.5707        38.1012        85.0402      1241.1310 
       64.6160       117.9687     13173.1572      7215.4453        24.8535 
       24.8535        69.4068        18.6428    0.000560398       0.285696 
     -999.2500     10213.3086      5194.9868     10380.4658      6870.1641 
      0.257127      2545.7979         2.4776         1.6398     12031.9238 
     3053.0374      5391.1953     15476.0439         1.8257      8476.8252 
        6.9528         4.5681
    3259.37880 
       40.5244        61.1031        37.9249        84.2813      1239.8070 
       64.7057       118.2347     13107.9297      7173.5098        24.7602 
       24.7602        68.8993        18.4928    0.000553903       0.286225 
     -999.2500     10213.8936      5195.0674     10380.8496      6874.7817 
      0.257603      2588.8652         2.4776         1.6408     12127.2939 
     3025.8367      5381.7100     15454.5889         1.8273      8457.7539 
        6.8997         4.5225
    3259.53120 
       40.5083        61.1358        38.0623        84.2094      1239.1041 
       64.7534       118.2421     13094.5547      7171.0244        24.6668 
       24.6668        68.6202        18.4852    0.000553519       0.285813 
     -999.2500     10214.4805      5195.1484     10381.6260      6871.5825 
      0.257232      2673.5632         2.4776         1.6399     12290.2910 
     3023.2654      5376.6772     15443.2031         1.8260      8457.2246 
        6.8947         4.5182
    3259.68360 
       40.5084        61.4138        38.2896        84.5380      1239.1072 
       64.7532       118.1103     13115.9678      7190.7437        24.6248 
       24.6248        68.6150        18.5567    0.000556567       0.285131 
     -999.2500     10215.0664      5195.2285     10382.5117      6866.1631 
      0.256618      2737.7493         2.4777         1.6386     12407.8252 
     3035.0276      5376.6992     15443.2529         1.8240      8466.6621 
        6.9177         4.5379
    3259.83600 
       40.5087        61.8445        38.7553        84.9337      1239.1218 
       64.7522       117.8413     13123.0420      7210.9336        24.4699 
       24.4699        68.2191        18.6513    0.000559697       0.283734 
     -999.2500     10215.6523      5195.3086     10383.6953      6854.7969 
      0.255361      2853.9075         2.4779         1.6358     12617.4092 
     3049.2153      5376.8047     15443.4912         1.8199      8485.9893 
        6.9454         4.5617
    3259.98840 
       40.4981        62.4490        39.4208        85.4771      1238.6550 
       64.7839       117.5220     13137.5107      7242.0410        24.2450 
       24.2450        67.6999        18.7826    0.000564536       0.281738 
     -999.2500     10216.2393      5195.3892     10385.1260      6838.5137 
      0.253564      2769.3191         2.4781         1.6318     12415.6650 
     3068.7412      5373.4639     15435.9355         1.8141      8509.0449 
        6.9834         4.5945
    3260.14080 
       40.4840        62.4980        39.7053        85.2908      1238.0400 
       64.8257       117.4383     13094.5752      7228.1782        24.0485 
       24.0485        66.9748        18.7601    0.000562377       0.280884 
     -999.2500     10216.8252      5195.4692     10386.0830      6831.6851 
      0.252796      2794.3188         2.4782         1.6301     12452.0068 
     3062.0393      5369.0635     15425.9805         1.8116      8515.1094 
        6.9704         4.5832
    3260.29320 
       40.4696        61.5678        39.0005        84.1351      1237.4078 
       64.8687       117.9136     13017.4346      7161.3799        24.1418 
       24.1418        66.8829        18.5118    0.000552031       0.282999 
     -999.2500     10217.4111      5195.5503     10385.8135      6849.3730 
      0.254699      2897.3735         2.4780         1.6342     12693.4932 
     3020.6069      5364.5435     15415.7549         1.8177      8480.7861 
        6.8895         4.5137
    3260.44560 
       40.4569        59.9257        37.3165        82.5349      1236.8540 
       64.9064       118.9586     12975.1221      7079.5093        24.6523 
       24.6523        68.1149        18.1394    0.000539481       0.288050 
     -999.2500     10217.9980      5195.6309     10384.3105      6891.7505 
      0.259245      2992.2388         2.4775         1.6442     12967.9785 
     2963.6182      5360.5845     15406.7998         1.8328      8406.2852 
        6.7774         4.4181
    3260.59800 
       40.4569        58.6124        35.6756        81.5493      1236.8540 
       64.9064       119.9478     13007.8057      7038.8110        25.3118 
       25.3118        70.1133        17.8864    0.000533296       0.292973 
     -999.2500     10218.5840      5195.7109     10382.8330      6933.6084 
      0.263676      2928.3794         2.4770         1.6541     12923.9766 
     2928.7349      5360.5845     15406.7998         1.8480      8336.9600 
        6.7085         4.3595
    3260.75040 
       40.4846        57.9411        34.7480        81.1342      1238.0636 
       64.8241       120.3714     13031.6094      7017.9653        25.7328 
       25.7328        71.3192        17.7706    0.000530142       0.295756 
     -999.2500     10219.1699      5195.7915     10382.2480      6957.6196 
      0.266180      2768.5674         2.4768         1.6598     12652.3740 
     2914.0906      5369.2324     15426.3613         1.8569      8307.6221 
        6.6794         4.3350
    3260.90280 
       40.5517        58.0799        34.4977        81.6622      1241.0054 
       64.6245       120.1579     13090.0176      7040.2012        26.0216 
       26.0216        72.2197        17.8586    0.000533507       0.296507 
     -999.2500     10219.7559      5195.8721     10382.5254      6964.3735 
      0.266856      2611.2124         2.4767         1.6613     12351.1719 
     2932.7202      5390.2954     15474.0078         1.8593      8322.3818 
        6.7164         4.3662
    3261.05520 
       40.6124        58.8999        35.2494        82.5505      1243.6702 
       64.4444       119.3554     13094.5332      7070.2227        25.8220 
       25.8220        71.4907        18.0554    0.000538067       0.294252 
     -999.2500     10220.3438      5195.9521     10384.0918      6945.3813 
      0.264827      2525.7966         2.4769         1.6567     12142.3564 
     2964.1694      5409.4126     15517.2529         1.8521      8378.3389 
        6.7785         4.4190
    3261.20760 
       40.5961        60.2308        36.8511        83.6106      1242.9515 
       64.4929       118.4757     13082.2275      7121.3823        25.1859 
       25.1859        69.7165        18.3210    0.000545882       0.289447 
     -999.2500     10220.9297      5196.0322     10386.7305      6904.8965 
      0.260502      2531.3145         2.4774         1.6470     12072.4219 
     3001.8794      5404.2539     15505.5840         1.8370      8440.5498 
        6.8527         4.4823
    3261.36000 
       40.5156        61.0550        38.2668        83.8433      1239.4209 
       64.7319       118.0846     13021.6826      7138.2578        24.4640 
       24.4640        67.6548        18.4253    0.000548472       0.285200 
     -999.2500     10221.5156      5196.1128     10389.1172      6869.4727 
      0.256680      2606.6270         2.4779         1.6384     12152.1992 
     3010.1824      5378.9448     15448.3330         1.8242      8468.5049 
        6.8690         4.4962
