~Version Information Block
VERS .                  2.0:  CWLS LOG ASCII STANDARD - VERSION 2.0
WRAP .                   NO:  One line per depth step
~Well Information Block
#MNEM.UNIT        Data Type   Information
#---------- ----------------  -----------
STRT .M                0.00:  START DEPTH
STOP .M             3613.00:  STOP DEPTH
STEP .M                0.50:  STEP
NULL .              -999.25:  NULL VALUE
COMP .                     :  COMPANY
WELL .      RAAG-100-07-213:  WELL
FLD  .                     :  FIELD
LOC  .                     :  LOCATION
CTRY .                     :  COUNTRY
STAT .                     :  STATE
CNTY .                     :  COUNTY
SRVC .                     :  SERVICE COMPANY
DATE .                     :  DATE
API  .                     :  API NUMBER
UWI  .                     :  UNIQUE WELL ID
~Curve Information Block
#MNEM.UNIT         API CODE   Curve Description
#---------- ----------------  -----------------
DEPTH.M                    :  
OBG  .G/CC                 :  2.174+0.00008962*TVDSS
PP   .G/CC                 :  2.1087-0.00029524*TVDSS
~Parameter Information Block
#MNEM.UNIT            Value   Description
#---------- ----------------  -----------
PROJECT.          RDG_13Jul21:  
SET  .              GEOMECH:  
~Other Information Block
# 
~A       DEPTH            OBG             PP 
# ...
       1157.00         2.2700         1.7924
       1157.50         2.2701         1.7922
       1158.00         2.2701         1.7921
       1158.50         2.2701         1.7920
       1159.00         2.2702         1.7918
       1159.50         2.2702         1.7917
       1160.00         2.2703         1.7915
       1160.50         2.2703         1.7914
       1161.00         2.2704         1.7912
       1161.50         2.2704         1.7911
       1162.00         2.2705         1.7909
       1162.50         2.2705         1.7908
       1163.00         2.2705         1.7907
       1163.50         2.2706         1.7905
       1164.00         2.2706         1.7904
       1164.50         2.2707         1.7902
       1165.00         2.2707         1.7901
       1165.50         2.2708         1.7899
       1166.00         2.2708         1.7898
       1166.50         2.2708         1.7896
       1167.00         2.2709         1.7895
       1167.50         2.2709         1.7894
       1168.00         2.2710         1.7892
       1168.50         2.2710         1.7891
       1169.00         2.2711         1.7889
       1169.50         2.2711         1.7888
       1170.00         2.2712         1.7886
       1170.50         2.2712         1.7885
       1171.00         2.2712         1.7883
       1171.50         2.2713         1.7882
       1172.00         2.2713         1.7881
       1172.50         2.2714         1.7879
       1173.00         2.2714         1.7878
       1173.50         2.2715         1.7876
       1174.00         2.2715         1.7875
       1174.50         2.2716         1.7873
       1175.00         2.2716         1.7872
       1175.50         2.2716         1.7870
       1176.00         2.2717         1.7869
       1176.50         2.2717         1.7868
       1177.00         2.2718         1.7866
       1177.50         2.2718         1.7865
       1178.00         2.2719         1.7863
       1178.50         2.2719         1.7862
       1179.00         2.2719         1.7860
       1179.50         2.2720         1.7859
       1180.00         2.2720         1.7857
       1180.50         2.2721         1.7856
       1181.00         2.2721         1.7855
       1181.50         2.2722         1.7853
       1182.00         2.2722         1.7852
       1182.50         2.2723         1.7850
       1183.00         2.2723         1.7849
       1183.50         2.2723         1.7847
       1184.00         2.2724         1.7846
       1184.50         2.2724         1.7844
       1185.00         2.2725         1.7843
       1185.50         2.2725         1.7842
       1186.00         2.2726         1.7840
       1186.50         2.2726         1.7839
       1187.00         2.2726         1.7837
       1187.50         2.2727         1.7836
       1188.00         2.2727         1.7834
       1188.50         2.2728         1.7833
       1189.00         2.2728         1.7831
       1189.50         2.2729         1.7830
       1190.00         2.2729         1.7829
       1190.50         2.2730         1.7827
       1191.00         2.2730         1.7826
       1191.50         2.2730         1.7824
       1192.00         2.2731         1.7823
       1192.50         2.2731         1.7821
       1193.00         2.2732         1.7820
       1193.50         2.2732         1.7818
       1194.00         2.2733         1.7817
       1194.50         2.2733         1.7816
       1195.00         2.2734         1.7814
       1195.50         2.2734         1.7813
       1196.00         2.2734         1.7811
       1196.50         2.2735         1.7810
       1197.00         2.2735         1.7808
       1197.50         2.2736         1.7807
       1198.00         2.2736         1.7805
       1198.50         2.2737         1.7804
       1199.00         2.2737         1.7802
       1199.50         2.2737         1.7801
       1200.00         2.2738         1.7800
       1200.50         2.2738         1.7798
       1201.00         2.2739         1.7797
       1201.50         2.2739         1.7795
       1202.00         2.2740         1.7794
       1202.50         2.2740         1.7792
       1203.00         2.2741         1.7791
       1203.50         2.2741         1.7789
       1204.00         2.2741         1.7788
       1204.50         2.2742         1.7787
       1205.00         2.2742         1.7785
       1205.50         2.2743         1.7784
       1206.00         2.2743         1.7782
       1206.50         2.2744         1.7781
       1207.00         2.2744         1.7779
       1207.50         2.2744         1.7778
       1208.00         2.2745         1.7776
       1208.50         2.2745         1.7775
       1209.00         2.2746         1.7774
       1209.50         2.2746         1.7772
       1210.00         2.2747         1.7771
       1210.50         2.2747         1.7769
       1211.00         2.2748         1.7768
       1211.50         2.2748         1.7766
       1212.00         2.2748         1.7765
       1212.50         2.2749         1.7763
       1213.00         2.2749         1.7762
       1213.50         2.2750         1.7761
       1214.00         2.2750         1.7759
       1214.50         2.2751         1.7758
       1215.00         2.2751         1.7756
       1215.50         2.2752         1.7755
       1216.00         2.2752         1.7753
       1216.50         2.2752         1.7752
       1217.00         2.2753         1.7750
       1217.50         2.2753         1.7749
       1218.00         2.2754         1.7747
       1218.50         2.2754         1.7746
       1219.00         2.2755         1.7745
       1219.50         2.2755         1.7743
       1220.00         2.2755         1.7742
       1220.50         2.2756         1.7740
       1221.00         2.2756         1.7739
       1221.50         2.2757         1.7737
       1222.00         2.2757         1.7736
       1222.50         2.2758         1.7734
       1223.00         2.2758         1.7733
       1223.50         2.2759         1.7732
       1224.00         2.2759         1.7730
       1224.50         2.2759         1.7729
       1225.00         2.2760         1.7727
       1225.50         2.2760         1.7726
       1226.00         2.2761         1.7724
       1226.50         2.2761         1.7723
       1227.00         2.2762         1.7721
       1227.50         2.2762         1.7720
       1228.00         2.2763         1.7718
       1228.50         2.2763         1.7717
       1229.00         2.2763         1.7716
       1229.50         2.2764         1.7714
       1230.00         2.2764         1.7713
       1230.50         2.2765         1.7711
       1231.00         2.2765         1.7710
       1231.50         2.2766         1.7708
       1232.00         2.2766         1.7707
       1232.50         2.2766         1.7705
       1233.00         2.2767         1.7704
       1233.50         2.2767         1.7703
       1234.00         2.2768         1.7701
       1234.50         2.2768         1.7700
       1235.00         2.2769         1.7698
       1235.50         2.2769         1.7697
       1236.00         2.2770         1.7695
       1236.50         2.2770         1.7694
       1237.00         2.2770         1.7692
       1237.50         2.2771         1.7691
       1238.00         2.2771         1.7689
       1238.50         2.2772         1.7688
       1239.00         2.2772         1.7687
       1239.50         2.2773         1.7685
       1240.00         2.2773         1.7684
       1240.50         2.2774         1.7682
       1241.00         2.2774         1.7681
       1241.50         2.2774         1.7679
       1242.00         2.2775         1.7678
       1242.50         2.2775         1.7676
       1243.00         2.2776         1.7675
       1243.50         2.2776         1.7673
       1244.00         2.2777         1.7672
       1244.50         2.2777         1.7671
       1245.00         2.2778         1.7669
       1245.50         2.2778         1.7668
