~Version Information Block
VERS .                  2.0:  CWLS LOG ASCII STANDARD - VERSION 2.0
WRAP .                  YES:  Multiple lines per depth step
~Well Information Block
#MNEM.UNIT        Data Type   Information
#---------- ----------------  -----------
STRT .M          2676.97280:  START DEPTH
STOP .M          3838.10840:  STOP DEPTH
STEP .M             0.15240:  STEP
NULL .              -999.25:  NULL VALUE
COMP .                     :  COMPANY
WELL .      RAAG-107-07-210:  WELL
FLD  .                     :  FIELD
LOC  .                     :  LOCATION
CTRY .                     :  COUNTRY
STAT .                     :  STATE
CNTY .                     :  COUNTY
SRVC .                     :  SERVICE COMPANY
DATE .                     :  DATE
API  .                     :  API NUMBER
UWI  .                     :  UNIQUE WELL ID
~Curve Information Block
#MNEM.UNIT         API CODE   Curve Description
#---------- ----------------  -----------------
DEPTH.M                    :  
ANGLE_FAIL.DEG                  :  Fail Angle
BRIT_IND.                     :  Brittleness Index
BRIT_PR.                     :  Brittleness Index from Poisson's Ratio
BRIT_YM.                     :  Brittleness Index from Young's Modulus
CS   .M/MIN                 :  Compressive Strength
DTCO .US/F                 :  Compressional slowness
DTSM .US/F                 :  Fast Shear Slowness
IP   .RAYL/M2                 :  P Impedence
IS   .RAYL/M2                 :  S Impedance
KBULK.                     :  Bulk Mudulus
LAMBDA.                     :  Lambda
LAMRHO.                     :  
MU   .CP                   :  Mu
MURHO.(GF/C3S)2                 :  Mu*Rho
PR   .                     :  Poisson's ratio
PRESS_FG.PSI                  :  Fracture Gradient Pressure
PRESS_OB.PSI                  :  Over-burden Pressure
PRESS_PP.PSI                  :  Pore Pressure
PRESS_SHMAX.PSI                  :  Horizontal Stress (Max)
PRESS_SHMIN.PSI                  :  Horizontal Stress (Min)
PR_STAT.                     :  Poisson's ratio (Static)
PZS  .PSI                  :  Processed Zone Stress
SHMAX_GRAD.                     :  Horizontal Stress Gradient (Max)
SHMIN_GRAD.                     :  Horizontal Stress Gradient (Min)
STRESS_CUM.PSI                  :  Cumulative stress (SHPZ)
UCS_BF.PSI                  :  Uniaxial Compressive Strength (BF)
UCS_LAL.PSI                  :  Uniaxial Compressive Strength (lal)
VP   .FT/S                 :  Compressional velocity
VPVS .                     :  Vp / Vs ratio
VS   .FT/S                 :  Shear velocity
YM   .                     :  Youngs' Modulus
YM_STAT.                     :  Youngs' Modulus (Static)
~Parameter Information Block
#MNEM.UNIT            Value   Description
#---------- ----------------  -----------
PROJECT.          RDG_13Jul21:  
SET  .              GEOMECH:  
~Other Information Block
~Ascii Log Data
# ...
    3050.04800 
       39.4755        57.0904        40.3719        73.8090      1194.5590 
       67.8734       122.5723     12071.9014      6684.7153        20.9657 
       20.9657        56.3600        16.6229    0.000480990       0.278884 
     -999.2500      9383.5518      5060.3018      9530.3799      6446.9785 
      0.250996      3059.9958         2.4561         1.6615     12213.9482 
     2660.5544      5062.8525     14733.3135         1.8059      8158.4502 
        6.1666         3.9095
    3050.20040 
       38.7085        53.7426        40.6640        66.8212      1162.3252 
       70.2557       126.7007     11480.8291      6366.1343        19.1792 
       19.1792        50.7541        15.3148    0.000436236       0.278008 
     -999.2500      9384.1221      5060.4087      9531.3037      6440.4961 
      0.250207      2983.9895         2.4562         1.6597     12048.9707 
     2427.2566      4841.9951     14233.7207         1.8034      7892.6162 
        5.6775         3.5181
    3050.35280 
       38.4256        49.2138        36.7503        61.6772      1150.6090 
       71.1488       130.7689     11207.5342      6097.7998        19.5870 
       19.5870        51.2425        14.2129    0.000400236       0.289749 
     -999.2500      9384.6924      5060.5156      9527.6865      6524.8149 
      0.260774      2830.3672         2.4551         1.6813     11910.3643 
     2260.8533      4763.0093     14055.0508         1.8380      7647.0781 
        5.3174         3.2388
    3050.50520 
       38.3997        45.7833        32.5936        58.9730      1149.5430 
       71.2308       133.7936     11193.0938      5959.1265        20.7444 
       20.7444        54.2630        13.5757    0.000382239       0.302219 
     -999.2500      9385.2637      5060.6226      9523.6641      6617.2549 
      0.271997      2732.5278         2.4539         1.7051     11899.5664 
     2175.1907      4755.8569     14038.8711         1.8783      7474.1992 
        5.1281         3.0951
    3050.65760 
       38.2568        45.2636        32.2526        58.2747      1143.6644 
       71.6852       134.8977     11189.9082      5946.3638        20.7071 
       20.7071        54.4956        13.4357    0.000380604       0.303242 
     -999.2500      9385.8340      5060.7300      9523.8672      6625.1885 
      0.272918      2715.0979         2.4539         1.7070     11880.5723 
     2153.2747      4716.5161     13949.8799         1.8818      7413.0249 
        5.0792         3.0583
    3050.81000 
       38.0302        46.6185        34.5438        58.6933      1134.3921 
       72.4097       134.6006     11151.6465      5999.1362        19.7717 
       19.7717        52.3799        13.5849    0.000387389       0.296369 
     -999.2500      9386.4043      5060.8364      9527.0195      6574.0967 
      0.266732      2758.9851         2.4545         1.6937     11866.1631 
     2166.4023      4654.8135     13810.3047         1.8589      7429.3872 
        5.1085         3.0803
    3050.96240 
       37.9546        47.7054        36.0342        59.3767      1131.3091 
       72.6527       134.0174     11159.9131      6049.9448        19.3000 
       19.3000        51.3400        13.7596    0.000393979       0.291897 
     -999.2500      9386.9756      5060.9434      9529.2520      6541.4438 
      0.262708      2865.9709         2.4550         1.6852     12014.8301 
     2187.9004      4634.3931     13764.1133         1.8446      7461.7178 
        5.1564         3.1164
    3051.11480 
       38.0927        48.3918        36.2313        60.5522      1136.9435 
       72.2094       133.0663     11251.4170      6105.6636        19.5218 
       19.5218        52.0361        13.9856    0.000401269       0.291306 
     -999.2500      9387.5459      5061.0503      9530.0498      6537.4629 
      0.262175      2989.8972         2.4550         1.6841     12254.7197 
     2225.0642      4671.7485     13848.6123         1.8428      7515.0503 
        5.2387         3.1788
    3051.26720 
       38.3561        49.3130        36.2745        62.3515      1147.7460 
       71.3693       131.4894     11384.0322      6178.9805        19.9718 
       19.9718        53.2366        14.3232    0.000410964       0.291176 
     -999.2500      9388.1162      5061.1567      9530.6768      6536.9146 
      0.262059      3023.0635         2.4551         1.6839     12319.9561 
     2282.4065      4743.8130     14011.6260         1.8424      7605.1758 
        5.3646         3.2750
    3051.41960 
       38.5281        50.6854        37.2993        64.0716      1154.8448 
       70.8242       129.8157     11459.7217      6252.1377        19.9589 
       19.9589        53.1468        14.6797    0.000420753       0.288102 
     -999.2500      9388.6865      5061.2642      9532.3770      6514.8760 
      0.259292      2981.2163         2.4554         1.6781     12192.1836 
     2337.7446      4791.4863     14119.4658         1.8329      7703.2280 
        5.4850         3.3679
    3051.57200 
       38.5398        52.2298        39.3059        65.1536      1155.3267 
       70.7874       128.4834     11440.1055      6302.8789        19.3549 
       19.3549        51.4234        14.9523    0.000427610       0.282082 
     -999.2500      9389.2578      5061.3706      9535.1318      6471.7700 
      0.253874      2934.9695         2.4559         1.6669     12013.4785 
     2372.8152      4794.7319     14126.8076         1.8151      7783.1069 
        5.5608         3.4267
    3051.72440 
       38.5726        53.3457        40.7172        65.9741      1156.6875 
       70.6836       127.4407     11425.8584      6337.2285        18.9568 
       18.9568        50.2293        15.1568    0.000432284       0.277848 
     -999.2500      9389.8271      5061.4780      9537.2236      6441.9043 
      0.250064      2934.8606         2.4563         1.6591     11953.5303 
     2399.5425      4803.9023     14147.5537         1.8030      7846.7871 
        5.6182         3.4716
    3051.87680 
       38.7488        54.2148        41.1719        67.2577      1163.9991 
       70.1293       126.1739     11481.1475      6381.3901        19.0688 
       19.0688        50.3725        15.4156    0.000438329       0.276484 
     -999.2500      9390.3984      5061.5845      9538.2881      6432.5967 
      0.248836      2942.3032         2.4565         1.6566     11949.7998 
     2441.5850      4853.3359     14259.3740         1.7992      7925.5698 
        5.7080         3.5421
    3052.02920 
       39.0309        55.2381        41.3065        69.1697      1175.7872 
       69.2476       124.5099     11591.8193      6446.9224        19.4584 
       19.4584        51.2447        15.7821    0.000447378       0.276081 
     -999.2500      9390.9697      5061.6919      9539.0107      6430.1421 
      0.248472      2926.6489         2.4565         1.6559     11913.5820 
     2504.7312      4933.5991     14440.9336         1.7980      8031.4897 
        5.8419         3.6481
    3052.18160 
       39.2988        55.9803        41.1109        70.8497      1187.0713 
       68.4172       123.1284     11699.1895      6500.7402        19.9354 
       19.9354        52.3518        16.0924    0.000454879       0.276667 
     -999.2500      9391.5391      5061.7983      9539.3828      6434.6758 
      0.249001      2917.4573         2.4565         1.6570     11904.2656 
     2560.7334      5011.0830     14616.2070         1.7997      8121.6030 
        5.9595         3.7420
    3052.33400 
       39.4978        56.2205        40.4895        71.9515      1195.5049 
       67.8051       122.3813     11795.6846      6535.3740        20.4707 
       20.4707        53.7160        16.2768    0.000459739       0.278532 
     -999.2500      9392.1104      5061.9048      9539.3037      6448.2402 
      0.250678      2931.0049         2.4563         1.6604     11958.4912 
     2597.7236      5069.4131     14748.1543         1.8049      8171.1831 
        6.0366         3.8041
