~Version Information Block
VERS .                  2.0:  CWLS LOG ASCII STANDARD - VERSION 2.0
WRAP .                  YES:  Multiple lines per depth step
~Well Information Block
#MNEM.UNIT        Data Type   Information
#---------- ----------------  -----------
STRT .M          2676.97280:  START DEPTH
STOP .M          3838.10840:  STOP DEPTH
STEP .M             0.15240:  STEP
NULL .              -999.25:  NULL VALUE
COMP .                     :  COMPANY
WELL .      RAAG-107-07-210:  WELL
FLD  .                     :  FIELD
LOC  .                     :  LOCATION
CTRY .                     :  COUNTRY
STAT .                     :  STATE
CNTY .                     :  COUNTY
SRVC .                     :  SERVICE COMPANY
DATE .                     :  DATE
API  .                     :  API NUMBER
UWI  .                     :  UNIQUE WELL ID
~Curve Information Block
#MNEM.UNIT         API CODE   Curve Description
#---------- ----------------  -----------------
DEPTH.M                    :  
ANGLE_FAIL.DEG                  :  Fail Angle
BRIT_IND.                     :  Brittleness Index
BRIT_PR.                     :  Brittleness Index from Poisson's Ratio
BRIT_YM.                     :  Brittleness Index from Young's Modulus
CS   .M/MIN                 :  Compressive Strength
DTCO .US/F                 :  Compressional slowness
DTSM .US/F                 :  Fast Shear Slowness
IP   .RAYL/M2                 :  P Impedence
IS   .RAYL/M2                 :  S Impedance
KBULK.                     :  Bulk Mudulus
LAMBDA.                     :  Lambda
LAMRHO.                     :  
MU   .CP                   :  Mu
MURHO.(GF/C3S)2                 :  Mu*Rho
PR   .                     :  Poisson's ratio
PRESS_FG.PSI                  :  Fracture Gradient Pressure
PRESS_OB.PSI                  :  Over-burden Pressure
PRESS_PP.PSI                  :  Pore Pressure
PRESS_SHMAX.PSI                  :  Horizontal Stress (Max)
PRESS_SHMIN.PSI                  :  Horizontal Stress (Min)
PR_STAT.                     :  Poisson's ratio (Static)
PZS  .PSI                  :  Processed Zone Stress
SHMAX_GRAD.                     :  Horizontal Stress Gradient (Max)
SHMIN_GRAD.                     :  Horizontal Stress Gradient (Min)
STRESS_CUM.PSI                  :  Cumulative stress (SHPZ)
UCS_BF.PSI                  :  Uniaxial Compressive Strength (BF)
UCS_LAL.PSI                  :  Uniaxial Compressive Strength (lal)
VP   .FT/S                 :  Compressional velocity
VPVS .                     :  Vp / Vs ratio
VS   .FT/S                 :  Shear velocity
YM   .                     :  Youngs' Modulus
YM_STAT.                     :  Youngs' Modulus (Static)
~Parameter Information Block
#MNEM.UNIT            Value   Description
#---------- ----------------  -----------
PROJECT.          RDG_13Jul21:  
SET  .              GEOMECH:  
~Other Information Block
~Ascii Log Data
# ...
    3710.85440 
       40.7701        65.6747        48.3421        83.0072      1250.6111 
       63.9784       111.5611     11940.1846      6847.4937        19.4678 
       19.4678        48.7917        18.7083    0.000504700       0.254974 
     -999.2500     11907.2939      5345.2007     12141.1484      7230.2178 
      0.229476      2223.0471         2.5253         1.5038     12106.5303 
     2980.3931      5459.3770     15630.2754         1.7437      8963.6982 
        6.8105         4.4462
    3711.00680 
       41.4260        64.2620        41.8540        86.6700      1279.8511 
       62.0637       111.3120     12520.7627      6981.1426        23.2583 
       23.2583        59.2968        19.1161    0.000524594       0.274438 
     -999.2500     11907.8896      5345.2246     12131.6738      7432.2100 
      0.246994      2118.6831         2.5232         1.5458     12301.7861 
     3111.7861      5672.5464     16112.4775         1.7935      8983.7578 
        7.0669         4.6667
    3711.15920 
       42.0325        65.2181        38.8836        91.5526      1307.4143 
       60.3280       109.7217     13029.7646      7164.1221        26.0284 
       26.0284        67.1255        19.9015    0.000552454       0.283349 
     -999.2500     11908.4844      5345.2495     12127.4961      7528.2505 
      0.255014      2055.4856         2.5222         1.5657     12367.4717 
     3290.5051      5877.4810     16576.0508         1.8188      9113.9678 
        7.4087         4.9666
    3711.31160 
       42.6388        66.5993        37.0425        96.1561      1335.5033 
       58.6252       107.5934     13396.2305      7299.3013        28.2925 
       28.2925        72.8994        20.6781    0.000573499       0.288872 
     -999.2500     11909.0801      5345.2739     12125.0811      7589.0537 
      0.259985      2029.3392         2.5216         1.5783     12436.7861 
     3462.7419      6090.3228     17057.5117         1.8353      9294.2500 
        7.7309         5.2556
    3711.46400 
       42.9636        67.7646        36.9606        98.5685      1350.7791 
       57.7261       105.9867     13487.3896      7345.9634        28.9633 
       28.9633        73.9833        21.1258    0.000580855       0.289118 
     -999.2500     11909.6758      5345.2983     12125.5498      7592.1841 
      0.260206      1943.6278         2.5216         1.5788     12271.6240 
     3554.4524      6207.7705     17323.1875         1.8360      9435.1465 
        7.8998         5.4095
    3711.61640 
       43.0870        68.0684        37.1705        98.9664      1356.6200 
       57.3872       105.2541     13433.8623      7324.4819        28.9299 
       28.9299        73.1726        21.2106    0.000577463       0.288489 
     -999.2500     11910.2695      5345.3232     12126.5068      7585.5342 
      0.259640      1767.3273         2.5217         1.5774     11905.7227 
     3569.6721      6252.9961     17425.4883         1.8341      9500.8184 
        7.9276         5.4350
    3711.76880 
       42.9804        68.3218        38.5377        98.1059      1351.5691 
       57.6801       105.0818     13262.9219      7280.1060        27.8522 
       27.8522        69.9052        21.1167    0.000570487       0.284387 
     -999.2500     11910.8643      5345.3477     12129.3604      7540.9336 
      0.255948      1480.9211         2.5221         1.5680     11243.7100 
     3536.7871      6213.8784     17337.0020         1.8218      9516.3955 
        7.8674         5.3799
    3711.92120 
       42.6151        69.1100        42.1080        96.1121      1334.3943 
       58.6912       105.1412     12925.4736      7215.1694        25.2927 
       25.2927        62.9505        20.9165    0.000560355       0.273676 
     -999.2500     11911.4600      5345.3721     12135.7236      7426.1870 
      0.246308      1248.7856         2.5233         1.5441     10549.9453 
     3461.0791      6081.8428     17038.3301         1.7914      9511.0195 
        7.7278         5.2528
    3712.07360 
       42.1012        70.1190        46.9009        93.3371      1310.5720 
       60.1333       105.4864     12520.6260      7137.4756        22.2167 
       22.2167        54.8790        20.6235    0.000548352       0.259297 
     -999.2500     11912.0537      5345.3965     12143.8271      7276.5850 
      0.233367      1133.9901         2.5249         1.5129     10021.1504 
     3356.8391      5901.2070     16629.7207         1.7542      9479.8955 
        7.5336         5.0779
    3712.22600 
       41.4903        70.8369        51.6789        89.9950      1282.7476 
       61.8782       106.4683     12148.4951      7060.5713        19.4148 
       19.4148        47.8826        20.2132    0.000536599       0.244963 
     -999.2500     11912.6494      5345.4214     12151.6650      7132.3340 
      0.220467      1101.4271         2.5264         1.4829      9667.5225 
     3233.0461      5693.8999     16160.7793         1.7206      9392.4668 
        7.2996         4.8702
    3712.37840 
       40.8408        71.1211        55.7766        86.4655      1253.7369 
       63.7700       108.0398     11844.7773      6991.3257        17.1666 
       17.1666        42.5415        19.7238    0.000526125       0.232670 
     -999.2500     11913.2451      5345.4453     12158.2910      7012.3354 
      0.209403      1079.0457         2.5277         1.4579      9382.7617 
     3104.3901      5481.9580     15681.3545         1.6942      9255.8486 
        7.0526         4.6543
    3712.53080 
       40.4054        70.9541        57.7811        84.1272      1234.6022 
       65.0600       109.4324     11691.7344      6950.9956        16.0537 
       16.0537        40.0640        19.3605    0.000520073       0.226657 
     -999.2500     11913.8398      5345.4697     12161.7871      6954.8848 
      0.203991      1048.1437         2.5283         1.4459      9206.0566 
     3020.3242      5344.5049     15370.4277         1.6820      9138.0615 
        6.8889         4.5132
    3712.68320 
       40.2840        70.7542        58.0646        83.4438      1229.3125 
       65.4227       109.9321     11659.9443      6939.0562        15.8442 
       15.8442        39.6533        19.2394    0.000518288       0.225806 
     -999.2500     11914.4355      5345.4937     12162.8096      6946.9429 
      0.203226      1024.0325         2.5284         1.4441      9141.9502 
     2995.9324      5306.8345     15285.2148         1.6803      9096.5244 
        6.8411         4.4723
    3712.83560 
       40.2708        70.7491        58.3048        83.1935      1228.7372 
       65.4623       109.9055     11624.2607      6923.6831        15.7211 
       15.7211        39.2487        19.2014    0.000515994       0.225086 
     -999.2500     11915.0303      5345.5186     12163.7676      6940.2739 
      0.202577      1011.6915         2.5285         1.4427      9103.9307 
     2987.0200      5302.7461     15275.9668         1.6789      9098.7256 
        6.8235         4.4573
    3712.98800 
       40.1527        70.3171        58.8013        81.8329      1223.6130 
       65.8165       110.3079     11497.9395      6860.3799        15.3348 
       15.3348        38.0730        18.9564    0.000506601       0.223596 
     -999.2500     11915.6250      5345.5425     12165.0928      6926.2803 
      0.201237      1003.7513         2.5287         1.4397      9060.0635 
     2938.7542      5266.4038     15193.7588         1.6760      9065.5342 
        6.7283         4.3764
    3713.14040 
       39.9513        69.0572        58.5722        79.5422      1214.9099 
       66.4239       111.4152     11339.3135      6760.3110        15.0443 
       15.0443        37.1764        18.4943    0.000491930       0.224283 
     -999.2500     11916.2197      5345.5669     12165.3926      6932.7607 
      0.201855       990.1513         2.5286         1.4410      9045.8242 
     2858.2087      5204.9839     15054.8223         1.6773      8975.4355 
        6.5680         4.2412
