~Version Information Block
VERS .                  2.0:  CWLS LOG ASCII STANDARD - VERSION 2.0
WRAP .                  YES:  Multiple lines per depth step
~Well Information Block
#MNEM.UNIT        Data Type   Information
#---------- ----------------  -----------
STRT .M          2738.62800:  START DEPTH
STOP .M          3798.57000:  STOP DEPTH
STEP .M             0.15240:  STEP
NULL .              -999.25:  NULL VALUE
COMP .                     :  COMPANY
WELL .      RAAG-106-07-211:  WELL
FLD  .                     :  FIELD
LOC  .                     :  LOCATION
CTRY .                     :  COUNTRY
STAT .                     :  STATE
CNTY .                     :  COUNTY
SRVC .                     :  SERVICE COMPANY
DATE .                     :  DATE
API  .                     :  API NUMBER
UWI  .                     :  UNIQUE WELL ID
~Curve Information Block
#MNEM.UNIT         API CODE   Curve Description
#---------- ----------------  -----------------
DEPTH.M                    :  
ANGLE_FAIL.DEG                  :  Fail Angle
BRIT_IND.                     :  Brittleness Index
BRIT_PR.                     :  Brittleness Index from Poisson's Ratio
BRIT_YM.                     :  Brittleness Index from Young's Modulus
CS   .M/MIN                 :  Compressive Strength
DTCO .US/F                 :  Compressional slowness
DTSM .US/F                 :  Fast Shear Slowness
IP   .RAYL/M2                 :  P Impedence
IS   .RAYL/M2                 :  S Impedance
KBULK.                     :  Bulk Mudulus
LAMBDA.                     :  Lambda
LAMRHO.                     :  
MU   .CP                   :  Mu
MURHO.(GF/C3S)2                 :  Mu*Rho
PR   .                     :  Poisson's ratio
PRESS_FG.PSI                  :  Fracture Gradient Pressure
PRESS_OB.PSI                  :  Over-burden Pressure
PRESS_PP.PSI                  :  Pore Pressure
PRESS_SHMAX.PSI                  :  Horizontal Stress (Max)
PRESS_SHMIN.PSI                  :  Horizontal Stress (Min)
PR_STAT.                     :  Poisson's ratio (Static)
PZS  .PSI                  :  Processed Zone Stress
SHMAX_GRAD.                     :  Horizontal Stress Gradient (Max)
SHMIN_GRAD.                     :  Horizontal Stress Gradient (Min)
STRESS_CUM.PSI                  :  Cumulative stress (SHPZ)
UCS_BF.PSI                  :  Uniaxial Compressive Strength (BF)
UCS_LAL.PSI                  :  Uniaxial Compressive Strength (lal)
VP   .FT/S                 :  Compressional velocity
VPVS .                     :  Vp / Vs ratio
VS   .FT/S                 :  Shear velocity
YM   .                     :  Youngs' Modulus
YM_STAT.                     :  Youngs' Modulus (Static)
~Parameter Information Block
#MNEM.UNIT            Value   Description
#---------- ----------------  -----------
PROJECT.          RDG_13Jul21:  
SET  .              GEOMECH:  
~Other Information Block
~Ascii Log Data
# ...
    3484.77840 
       43.0445        69.5256        40.9678        98.0835      1354.6085 
       57.5036       103.5564     12991.3525      7213.9390        26.3952 
       26.3952        64.6934        21.2330    0.000560164       0.277097 
     -999.2500     11241.2266      5306.6514     11442.5537      7214.6763 
      0.249387      1588.2721         2.5055         1.5797     10805.8965 
     3535.9316      6237.4023     17390.2148         1.8009      9656.5742 
        7.8658         5.3784
    3484.93080 
       42.8494        69.9645        42.6497        97.2794      1345.3877 
       58.0413       103.7215     12870.5273      7202.1919        25.2594 
       25.2594        61.9073        21.1646    0.000558341       0.272051 
     -999.2500     11241.8135      5306.6973     11445.5850      7166.3906 
      0.244846      1558.7042         2.5060         1.5691     10650.1895 
     3505.3201      6166.1821     17229.1113         1.7870      9641.2031 
        7.8096         5.3271
    3485.08320 
       42.7643        70.2608        43.5192        97.0025      1341.3851 
       58.2768       103.7369     12816.7910      7200.1528        24.7235 
       24.7235        60.5857        21.1555    0.000558025       0.269443 
     -999.2500     11242.4014      5306.7432     11447.4336      7141.7705 
      0.242498      1521.3240         2.5063         1.5636     10526.1895 
     3494.8071      6135.4038     17159.4883         1.7801      9639.7715 
        7.7902         5.3094
    3485.23560 
       42.8225        70.0934        42.9011        97.2858      1344.1243 
       58.1155       103.7364     12866.1572      7207.9155        25.1227 
       25.1227        61.6299        21.1784    0.000559229       0.271297 
     -999.2500     11242.9902      5306.7891     11447.1582      7159.6406 
      0.244167      1538.2181         2.5061         1.5675     10595.7178 
     3505.5642      6156.4575     17207.1133         1.7850      9639.8184 
        7.8100         5.3275
    3485.38800 
       42.9372        69.6279        41.4809        97.7749      1349.5303 
       57.7989       103.8410     12976.0781      7222.6099        26.0284 
       26.0284        64.0464        21.2002    0.000561511       0.275557 
     -999.2500     11243.5771      5306.8350     11445.7217      7200.7056 
      0.248002      1557.6897         2.5057         1.5764     10716.7910 
     3524.1729      6198.1250     17301.3672         1.7966      9630.1064 
        7.8442         5.3587
    3485.54040 
       42.9795        69.1262        40.4174        97.8350      1351.5297 
       57.6824       104.1461     13053.1719      7229.6348        26.6570 
       26.6570        65.8501        21.1587    0.000562604       0.278748 
     -999.2500     11244.1660      5306.8809     11444.7861      7231.7651 
      0.250873      1587.8251         2.5054         1.5831     10839.1807 
     3526.4629      6213.5728     17336.3105         1.8055      9601.8955 
        7.8485         5.3625
    3485.69280 
       42.8812        68.6819        40.4077        96.9561      1346.8889 
       57.9533       104.6400     13012.5615      7206.8130        26.4537 
       26.4537        65.4505        20.9923    0.000559058       0.278777 
     -999.2500     11244.7529      5306.9268     11445.3809      7232.2002 
      0.250899      1646.5966         2.5054         1.5831     10957.5938 
     3493.0452      6177.7476     17255.2734         1.8056      9556.5752 
        7.7869         5.3065
    3485.84520 
       42.6434        68.5704        41.6513        95.4895      1335.7186 
       58.6124       105.2199     12875.2832      7172.1343        25.4025 
       25.4025        62.8939        20.7762    0.000553690       0.275046 
     -999.2500     11245.3418      5306.9727     11447.7959      7196.2646 
      0.247541      1695.1877         2.5058         1.5752     10982.9053 
     3437.5769      6091.9692     17061.2363         1.7952      9503.9053 
        7.6843         5.2134
    3485.99760 
       42.3232        68.8622        43.7936        93.9308      1320.8182 
       59.5073       105.7982     12703.4268      7145.1748        23.8978 
       23.8978        59.2700        20.5849    0.000549536       0.268619 
     -999.2500     11245.9297      5307.0186     11451.4746      7135.0205 
      0.241757      1750.9264         2.5065         1.5617     10971.8936 
     3379.0317      5978.5435     16804.6602         1.7779      9451.9561 
        7.5752         5.1151
    3486.15000 
       42.0179        69.1726        45.9573        92.3879      1306.7461 
       60.3693       106.3249     12530.8223      7114.7681        22.4756 
       22.4756        55.7817        20.3958    0.000544868       0.262128 
     -999.2500     11246.5166      5307.0640     11455.1377      7074.0996 
      0.235915      1799.5232         2.5072         1.5483     10947.2451 
     3321.4868      5872.4678     16564.7109         1.7612      9405.1348 
        7.4672         5.0186
    3486.30240 
       41.8061        69.5066        47.5466        91.4666      1297.0654 
       60.9720       106.6691     12426.5039      7102.9829        21.5277 
       21.5277        53.5133        20.2963    0.000543065       0.257360 
     -999.2500     11247.1055      5307.1099     11457.9600      7030.0127 
      0.231624      1839.4172         2.5077         1.5386     10938.8594 
     3287.3193      5800.0825     16400.9707         1.7495      9374.7861 
        7.4027         4.9612
    3486.45480 
       41.7089        70.0254        48.5711        91.4797      1292.6447 
       61.2499       106.7031     12409.8828      7123.5430        21.0586 
       21.0586        52.5155        20.3486    0.000546213       0.254287 
     -999.2500     11247.6924      5307.1558     11459.9785      7001.9697 
      0.228858      1887.1010         2.5080         1.5324     10978.1416 
     3287.8052      5767.1860     16326.5566         1.7421      9371.7988 
        7.4036         4.9621
    3486.60720 
       41.7058        70.5513        49.0467        92.0560      1292.5004 
       61.2590       106.5122     12445.2080      7157.6870        20.9568 
       20.9568        52.4182        20.4828    0.000551462       0.252860 
     -999.2500     11248.2813      5307.2012     11461.2363      6989.1748 
      0.227574      1969.4387         2.5082         1.5295     11117.2275 
     3309.1624      5766.1138     16324.1328         1.7387      9388.5957 
        7.4439         4.9979
    3486.75960 
       41.7681        70.5230        48.8561        92.1899      1295.3347 
       61.0806       106.2844     12438.1924      7148.1069        21.0698 
       21.0698        52.5178        20.4992    0.000549987       0.253432 
     -999.2500     11248.8682      5307.2476     11461.5811      6994.6157 
      0.228089      2019.0258         2.5081         1.5306     11227.2822 
     3314.1311      5787.1909     16371.8105         1.7401      9408.7188 
        7.4533         5.0062
    3486.91200 
       41.8760        69.9473        47.9900        91.9046      1300.2542 
       60.7726       106.1249     12404.6338      7103.5337        21.4105 
       21.4105        52.9546        20.4020    0.000543149       0.256030 
     -999.2500     11249.4561      5307.2935     11460.9971      7018.6255 
      0.230427      1979.7330         2.5079         1.5358     11196.7168 
     3303.5464      5823.8721     16454.7852         1.7463      9422.8594 
        7.4333         4.9885
    3487.06440 
       42.0066        68.9547        46.5602        91.3492      1306.2273 
       60.4014       106.1091     12369.6484      7041.2817        21.9678 
       21.9678        53.8489        20.2262    0.000533671       0.260319 
     -999.2500     11250.0439      5307.3389     11459.6240      7058.4473 
      0.234287      1918.5313         2.5074         1.5444     11153.9570 
     3282.9773      5868.5757     16555.9082         1.7567      9424.2627 
        7.3944         4.9540
