~Version Information Block
VERS .                  2.0:  CWLS LOG ASCII STANDARD - VERSION 2.0
WRAP .                  YES:  Multiple lines per depth step
~Well Information Block
#MNEM.UNIT        Data Type   Information
#---------- ----------------  -----------
STRT .M          2556.50000:  START DEPTH
STOP .M          3600.74480:  STOP DEPTH
STEP .M             0.15240:  STEP
NULL .              -999.25:  NULL VALUE
COMP .                     :  COMPANY
WELL .      RAAG-100-07-213:  WELL
FLD  .                     :  FIELD
LOC  .                     :  LOCATION
CTRY .                     :  COUNTRY
STAT .                     :  STATE
CNTY .                     :  COUNTY
SRVC .                     :  SERVICE COMPANY
DATE .                     :  DATE
API  .                     :  API NUMBER
UWI  .                     :  UNIQUE WELL ID
~Curve Information Block
#MNEM.UNIT         API CODE   Curve Description
#---------- ----------------  -----------------
DEPTH.M                    :  
ANGLE_FAIL.DEG                  :  Fail Angle
BRIT_IND.                     :  Brittleness Index
BRIT_PR.                     :  Brittleness Index from Poisson's Ratio
BRIT_YM.                     :  Brittleness Index from Young's Modulus
CS   .M/MIN                 :  Compressive Strength
DTCO .US/F                 :  Compressional slowness
DTSM .US/F                 :  Description
IP   .RAYL/M2                 :  P Impedence
IS   .RAYL/M2                 :  S Impedance
KBULK.                     :  Bulk Mudulus
LAMBDA.                     :  Lambda
LAMRHO.                     :  
MU   .CP                   :  Mu
MURHO.(GF/C3S)2                 :  Mu*Rho
PR   .                     :  Poisson's ratio
PRESS_FG.PSI                  :  Fracture Gradient Pressure
PRESS_OB.PSI                  :  Over-burden Pressure
PRESS_PP.PSI                  :  Pore Pressure
PRESS_SHMAX.PSI                  :  Horizontal Stress (Max)
PRESS_SHMIN.PSI                  :  Horizontal Stress (Min)
PR_STAT.                     :  Poisson's ratio (Static)
PZS  .PSI                  :  Processed Zone Stress
SHMAX_GRAD.                     :  Horizontal Stress Gradient (Max)
SHMIN_GRAD.                     :  Horizontal Stress Gradient (Min)
STRESS_CUM.PSI                  :  Cumulative stress (SHPZ)
UCS_BF.PSI                  :  Uniaxial Compressive Strength (BF)
UCS_LAL.PSI                  :  Uniaxial Compressive Strength (lal)
VP   .FT/S                 :  Compressional velocity
VPVS .                     :  Vp / Vs ratio
VS   .FT/S                 :  Shear velocity
YM   .                     :  Youngs' Modulus
YM_STAT.                     :  Youngs' Modulus (Static)
~Parameter Information Block
#MNEM.UNIT            Value   Description
#---------- ----------------  -----------
PROJECT.          RDG_13Jul21:  
SET  .              GEOMECH:  
~Other Information Block
~Ascii Log Data
# ...
    3261.19760 
       37.8180        60.4877        58.9438        62.0317      1125.7600 
       73.0928       122.4420     10132.0029      6048.3877        12.1379 
       12.1379        29.4915        15.0565    0.000393776       0.223169 
     -999.2500     11105.5781      5294.3765     11326.8711      6679.7212 
      0.200852      1691.5031         2.5073         1.4786      9942.4482 
     2272.1741      4597.7568     13681.2383         1.6752      8167.1343 
        5.3422         3.2578
    3261.35000 
       38.0266        55.0865        50.0004        60.1727      1134.2421 
       72.4215       125.4375     10246.2236      5915.6689        14.3743 
       14.3743        34.9948        14.3745    0.000376685       0.249999 
     -999.2500     11106.1748      5294.4277     11315.9521      6910.6279 
      0.224999      2147.6470         2.5048         1.5297     11316.5498 
     2213.0400      4653.8184     13808.0537         1.7320      7972.0957 
        5.2121         3.1586
    3261.50240 
       38.1791        53.3116        46.2591        60.3641      1140.4794 
       71.9330       126.5285     10429.3623      5929.2202        15.6258 
       15.6258        38.4603        14.2832    0.000378412       0.261223 
     -999.2500     11106.7695      5294.4785     11311.5205      7011.7495 
      0.235100      2436.4102         2.5037         1.5520     12096.3193 
     2219.1013      4695.2725     13901.8252         1.7590      7903.3584 
        5.2255         3.1688
    3261.65480 
       37.9759        53.0766        46.5984        59.5548      1132.1757 
       72.5843       127.4906     10388.1768      5914.3071        15.3432 
       15.3432        37.9562        14.1397    0.000376511       0.260205 
     -999.2500     11107.3643      5294.5298     11312.5996      7002.6499 
      0.234184      2661.3235         2.5038         1.5499     12527.9463 
     2193.5146      4640.1279     13777.0850         1.7564      7843.7158 
        5.1688         3.1258
    3261.80720 
       37.5836        54.0927        49.8096        58.3758      1116.2815 
       73.8526       128.0140     10207.4561      5888.7852        14.0853 
       14.0853        34.8366        14.0211    0.000373269       0.250571 
     -999.2500     11107.9600      5294.5801     11317.5479      6916.2109 
      0.225514      2843.8730         2.5048         1.5307     12720.1680 
     2156.4412      4535.5327     13540.4844         1.7334      7811.6431 
        5.0863         3.0636
    3261.95960 
       37.1983        54.8849        52.8901        56.8798      1100.8306 
       75.1134       128.6384      9999.5000      5838.8193        12.9072 
       12.9072        31.8064        13.8347    0.000366961       0.241330 
     -999.2500     11108.5547      5294.6313     11322.2295      6835.0654 
      0.217197      2898.8909         2.5057         1.5127     12667.9121 
     2109.7417      4435.0571     13313.2031         1.7126      7773.7275 
        4.9816         2.9853
    3262.11200 
       37.4829        54.6257        50.9075        58.3440      1112.2278 
       74.1807       128.0225     10186.0361      5902.1426        13.7492 
       13.7492        34.0847        14.0520    0.000374964       0.247277 
     -999.2500     11109.1494      5294.6826     11320.2344      6887.4658 
      0.222550      2636.3940         2.5051         1.5242     12247.7197 
     2155.4443      4509.0571     13480.5947         1.7258      7811.1245 
        5.0841         3.0620
    3262.26440 
       39.9321        57.1561        41.8618        72.4505      1214.0844 
       66.4819       119.2318     11522.3955      6424.7163        19.9790 
       19.9790        50.2116        16.4239    0.000444302       0.274415 
     -999.2500     11109.7451      5294.7334     11308.4404      7135.8311 
      0.246973      2641.0381         2.5024         1.5791     12753.7393 
     2614.5437      5199.1772     15041.6885         1.7934      8387.0215 
        6.0715         3.8323
    3262.41680 
       41.7475        64.4798        40.3193        88.6403      1294.3993 
       61.1394       110.4387     12709.6563      7036.1274        24.5238 
       24.5238        62.5212        19.4190    0.000532890       0.279042 
     -999.2500     11110.3398      5294.7847     11306.8018      7181.0938 
      0.251138      2774.0090         2.5019         1.5890     13110.2061 
     3183.4119      5780.2305     16356.0654         1.8063      9054.7959 
        7.2048         4.7869
    3262.56920 
       43.0647        69.9579        38.0676       101.8482      1355.5652 
       57.4482       104.8998     13697.1953      7501.2461        29.0808 
       29.0808        75.0758        21.7958    0.000605671       0.285797 
     -999.2500     11110.9346      5294.8354     11304.1191      7247.2300 
      0.257218      2880.9590         2.5012         1.6036     13456.3779 
     3680.7261      6244.8164     17406.9863         1.8260      9532.9063 
        8.1294         5.6214
    3262.72160 
       44.6928        72.9465        30.8793       115.0138      1434.9049 
       53.0925       100.6735     14947.5732      7882.9448        38.0800 
       38.0800        99.1483        23.8665    0.000668878       0.307362 
     -999.2500     11111.5293      5294.8862     11293.9648      7462.8198 
      0.276626      2777.8262         2.4988         1.6512     13681.2910 
     4206.1543      6876.1289     18835.0527         1.8962      9933.0957 
        9.0510         6.5031
    3262.87400 
       43.0344        77.5575        46.0885       109.0264      1354.1273 
       57.5315       101.2701     13793.2656      7835.9453        25.9075 
       25.9075        67.4501        23.5844    0.000660926       0.261735 
     -999.2500     11112.1250      5294.9365     11316.6211      7022.2056 
      0.235561      2789.1179         2.5037         1.5536     12822.6465 
     3963.5256      6233.6743     17381.7813         1.7603      9874.5791 
        8.6318         6.0959
    3263.02640 
       40.9743        78.3303        62.1665        94.4941      1259.6505 
       63.3782       105.0092     12347.9561      7452.6001        16.1202 
       16.1202        41.3895        21.6319    0.000597841       0.213500 
     -999.2500     11112.7197      5294.9878     11338.1348      6604.4243 
      0.192150      2830.5793         2.5084         1.4611     12070.0068 
     3400.1423      5524.8135     15778.2959         1.6569      9522.9795 
        7.6146         5.1506
    3263.17880 
       39.9368        72.1586        61.9698        82.3473      1214.2878 
       66.4676       110.2001     11513.3252      6944.3042        14.3824 
       14.3824        36.1099        19.2071    0.000519072       0.214091 
     -999.2500     11113.3154      5295.0381     11338.5557      6608.5117 
      0.192682      2805.9702         2.5083         1.4620     12028.9639 
     2956.9656      5200.6079     15044.9238         1.6580      9074.4014 
        6.7643         4.4069
    3263.33120 
       38.9381        65.3993        59.2267        71.5718      1171.9004 
       69.5367       116.3703     10830.1865      6471.5435        13.5711 
       13.5711        33.5312        16.9504    0.000450802       0.222320 
     -999.2500     11113.9111      5295.0894     11335.8115      6675.9102 
      0.200088      2563.4749         2.5076         1.4768     11678.7705 
     2584.9539      4907.0576     14380.8955         1.6735      8593.2578 
        6.0100         3.7827
    3263.48360 
       38.1048        60.7643        56.8260        64.7026      1137.4362 
       72.1708       121.8079     10456.5547      6195.4736        13.1555 
       13.1555        32.5718        15.5029    0.000413161       0.229522 
     -999.2500     11114.5059      5295.1401     11333.4229      6736.1699 
      0.206570      1987.3451         2.5070         1.4901     10647.0303 
     2358.1733      4675.0229     13856.0205         1.6878      8209.6455 
        5.5292         3.4021
