~Version Information Block
VERS .                  2.0:  CWLS LOG ASCII STANDARD - VERSION 2.0
WRAP .                  YES:  Multiple lines per depth step
~Well Information Block
#MNEM.UNIT        Data Type   Information
#---------- ----------------  -----------
STRT .M          2738.62800:  START DEPTH
STOP .M          3798.57000:  STOP DEPTH
STEP .M             0.15240:  STEP
NULL .              -999.25:  NULL VALUE
COMP .                     :  COMPANY
WELL .      RAAG-106-07-211:  WELL
FLD  .                     :  FIELD
LOC  .                     :  LOCATION
CTRY .                     :  COUNTRY
STAT .                     :  STATE
CNTY .                     :  COUNTY
SRVC .                     :  SERVICE COMPANY
DATE .                     :  DATE
API  .                     :  API NUMBER
UWI  .                     :  UNIQUE WELL ID
~Curve Information Block
#MNEM.UNIT         API CODE   Curve Description
#---------- ----------------  -----------------
DEPTH.M                    :  
ANGLE_FAIL.DEG                  :  Fail Angle
BRIT_IND.                     :  Brittleness Index
BRIT_PR.                     :  Brittleness Index from Poisson's Ratio
BRIT_YM.                     :  Brittleness Index from Young's Modulus
CS   .M/MIN                 :  Compressive Strength
DTCO .US/F                 :  Compressional slowness
DTSM .US/F                 :  Fast Shear Slowness
IP   .RAYL/M2                 :  P Impedence
IS   .RAYL/M2                 :  S Impedance
KBULK.                     :  Bulk Mudulus
LAMBDA.                     :  Lambda
LAMRHO.                     :  
MU   .CP                   :  Mu
MURHO.(GF/C3S)2                 :  Mu*Rho
PR   .                     :  Poisson's ratio
PRESS_FG.PSI                  :  Fracture Gradient Pressure
PRESS_OB.PSI                  :  Over-burden Pressure
PRESS_PP.PSI                  :  Pore Pressure
PRESS_SHMAX.PSI                  :  Horizontal Stress (Max)
PRESS_SHMIN.PSI                  :  Horizontal Stress (Min)
PR_STAT.                     :  Poisson's ratio (Static)
PZS  .PSI                  :  Processed Zone Stress
SHMAX_GRAD.                     :  Horizontal Stress Gradient (Max)
SHMIN_GRAD.                     :  Horizontal Stress Gradient (Min)
STRESS_CUM.PSI                  :  Cumulative stress (SHPZ)
UCS_BF.PSI                  :  Uniaxial Compressive Strength (BF)
UCS_LAL.PSI                  :  Uniaxial Compressive Strength (lal)
VP   .FT/S                 :  Compressional velocity
VPVS .                     :  Vp / Vs ratio
VS   .FT/S                 :  Shear velocity
YM   .                     :  Youngs' Modulus
YM_STAT.                     :  Youngs' Modulus (Static)
~Parameter Information Block
#MNEM.UNIT            Value   Description
#---------- ----------------  -----------
PROJECT.          RDG_13Jul21:  
SET  .              GEOMECH:  
~Other Information Block
~Ascii Log Data
# ...
    2872.74000 
     -999.2500      -999.2500      -999.2500      -999.2500      -999.2500 
       86.1461       152.9044      -999.2500      -999.2500      -999.2500 
     -999.2500      -999.2500      -999.2500 -999.250000000    -999.250000 
     -999.2500      -999.2500      -999.2500      -999.2500      -999.2500 
   -999.250000      -999.2500      -999.2500      -999.2500      -999.2500 
     -999.2500      -999.2500      -999.2500      -999.2500      -999.2500 
     -999.2500      -999.2500
    2872.89240 
     -999.2500      -999.2500      -999.2500      -999.2500      -999.2500 
       85.6712       153.5255      -999.2500      -999.2500      -999.2500 
     -999.2500      -999.2500      -999.2500 -999.250000000    -999.250000 
     -999.2500      -999.2500      -999.2500      -999.2500      -999.2500 
   -999.250000      -999.2500      -999.2500      -999.2500      -999.2500 
     -999.2500      -999.2500      -999.2500      -999.2500      -999.2500 
     -999.2500      -999.2500
    2873.04480 
     -999.2500      -999.2500      -999.2500      -999.2500      -999.2500 
       85.3992       154.3091      -999.2500      -999.2500      -999.2500 
     -999.2500      -999.2500      -999.2500 -999.250000000    -999.250000 
     -999.2500      -999.2500      -999.2500      -999.2500      -999.2500 
   -999.250000      -999.2500      -999.2500      -999.2500      -999.2500 
     -999.2500      -999.2500      -999.2500      -999.2500      -999.2500 
     -999.2500      -999.2500
    2873.19720 
       34.1397        38.3766        39.5655        37.1877       983.4457 
       85.6657       155.2955      8953.9268      4939.2573        12.4696 
       12.4696        31.3803         9.6943    0.000262599       0.281304 
     -999.2500      8932.5322      4970.3301      9066.6338      6250.4995 
      0.253173      2522.4531         2.4436         1.6846     10745.9053 
     1530.7366      3710.0896     11673.2832         1.8128      6439.3369 
        3.6031         2.0137
    2873.34960 
       33.8894        38.3358        40.2763        36.3953       974.2224 
       86.5736       156.4133      8864.4277      4906.3950        12.0870 
       12.0870        30.4327         9.5610    0.000259117       0.279171 
     -999.2500      8933.0967      4970.4521      9067.9131      6236.7729 
      0.251254      2409.1702         2.4438         1.6808     10491.8857 
     1508.8278      3655.9717     11550.8652         1.8067      6393.3179 
        3.5477         1.9769
    2873.50200 
       33.5035        38.9679        42.3152        35.6207       960.1119 
       87.9865       157.4730      8747.3701      4887.5073        11.3821 
       11.3821        28.7410         9.4601    0.000257125       0.273054 
     -999.2500      8933.6621      4970.5737      9070.4766      6197.3735 
      0.245749      2349.0398         2.4444         1.6701     10292.8262 
     1487.5127      3573.9731     11365.3799         1.7897      6350.2949 
        3.4934         1.9412
    2873.65440 
       33.0743        39.7968        44.9444        34.6492       944.5629 
       89.5777       158.4581      8583.6514      4852.4102        10.5394 
       10.5394        26.5873         9.3338    0.000253446       0.265167 
     -999.2500      8934.2256      4970.6958      9073.5703      6147.3286 
      0.238650      2311.4336         2.4451         1.6565     10117.5244 
     1460.9261      3484.7241     11163.4932         1.7689      6310.8164 
        3.4254         1.8965
    2873.80680 
       32.7553        40.1635        46.5960        33.7309       933.1053 
       90.7737       159.4410      8448.1260      4809.7271         9.9778 
        9.9778        25.1039         9.1947    0.000249007       0.260212 
     -999.2500      8934.7900      4970.8174      9075.7080      6116.4414 
      0.234191      2261.1028         2.4455         1.6481      9955.0889 
     1435.9453      3419.7012     11016.4072         1.7565      6271.9126 
        3.3612         1.8546
    2873.95920 
       32.6875        39.4662        45.7775        33.1550       930.6806 
       91.0294       160.4482      8412.4414      4772.7524        10.0346 
       10.0346        25.2108         9.0667    0.000245193       0.262668 
     -999.2500      8935.3545      4970.9390      9075.5205      6132.0273 
      0.236401      2232.8098         2.4453         1.6522      9929.6738 
     1420.3496      3406.0208     10985.4619         1.7626      6232.5415 
        3.3208         1.8285
    2874.11160 
       32.8259        37.8633        42.9308        32.7957       935.6331 
       90.5081       161.5357      8453.8564      4736.6772        10.5945 
       10.5945        26.5955         8.9376    0.000241500       0.271208 
     -999.2500      8935.9180      4971.0610      9073.3936      6186.4053 
      0.244087      2240.2759         2.4446         1.6668     10053.3623 
     1410.6504      3433.9922     11048.7344         1.7848      6190.5815 
        3.2957         1.8122
    2874.26400 
       32.9325        36.4426        40.4116        32.4737       939.4597 
       90.1079       162.6951      8504.2568      4710.0420        11.1186 
       11.1186        27.9534         8.8240    0.000238792       0.278765 
     -999.2500      8936.4824      4971.1821      9071.5322      6235.4956 
      0.250889      2248.0386         2.4439         1.6799     10167.0684 
     1401.9756      3455.6855     11097.8057         1.8056      6146.4663 
        3.2732         1.7976
    2874.41640 
       32.8148        35.9145        39.9623        31.8666       935.2366 
       90.5497       163.8398      8461.9229      4676.6689        11.0832 
       11.0832        27.8617         8.7003    0.000235420       0.280113 
     -999.2500      8937.0469      4971.3042      9071.6719      6244.5332 
      0.252102      2264.9475         2.4438         1.6822     10218.9609 
     1385.6693      3431.7485     11043.6592         1.8094      6103.5234 
        3.2307         1.7703
    2874.56880 
       32.5005        36.1299        41.1985        31.0612       924.0100 
       91.7376       165.0303      8350.4893      4641.8979        10.5981 
       10.5981        26.6362         8.5733    0.000231932       0.276404 
     -999.2500      8937.6104      4971.4258      9073.4609      6220.5908 
      0.248764      2294.4915         2.4442         1.6757     10230.1641 
     1364.1350      3368.5303     10900.6553         1.7989      6059.4932 
        3.1743         1.7341
    2874.72120 
       32.1719        36.3191        42.3909        30.2472       912.3571 
       92.9916       166.3736      8245.3555      4608.5967        10.1398 
       10.1398        25.5076         8.4430    0.000228616       0.272827 
     -999.2500      8938.1748      4971.5479      9075.1992      6197.7036 
      0.245545      2292.1343         2.4445         1.6694     10179.6758 
     1342.4832      3303.5469     10753.6592         1.7891      6010.5693 
        3.1173         1.6978
    2874.87360 
       31.9643        36.0746        42.4361        29.7131       905.0411 
       93.7900       167.7676      8213.9033      4591.9595        10.0083 
       10.0083        25.2960         8.3427    0.000226969       0.272692 
     -999.2500      8938.7393      4971.6689      9075.8232      6197.0630 
      0.245422      2210.3542         2.4445         1.6692     10014.8350 
     1328.3363      3263.0784     10662.1182         1.7888      5960.6270 
        3.0799         1.6741
    2875.02600 
       31.8574        35.5889        41.7884        29.3893       901.2866 
       94.2031       169.0052      8225.3496      4584.7905        10.0763 
       10.0763        25.6158         8.2686    0.000226261       0.274635 
     -999.2500      8939.3037      4971.7910      9075.7773      6209.8340 
      0.247171      2107.9253         2.4444         1.6725      9835.5186 
     1319.7842      3242.4089     10615.3613         1.7941      5916.9775 
        3.0573         1.6597
