~Version Information Block
VERS .                  2.0:  CWLS LOG ASCII STANDARD - VERSION 2.0
WRAP .                  YES:  Multiple lines per depth step
~Well Information Block
#MNEM.UNIT        Data Type   Information
#---------- ----------------  -----------
STRT .M          2686.96440:  START DEPTH
STOP .M          3645.86520:  STOP DEPTH
STEP .M             0.15240:  STEP
NULL .              -999.25:  NULL VALUE
COMP .                     :  COMPANY
WELL .      RAAG-105-07-212:  WELL
FLD  .                     :  FIELD
LOC  .                     :  LOCATION
CTRY .                     :  COUNTRY
STAT .                     :  STATE
CNTY .                     :  COUNTY
SRVC .                     :  SERVICE COMPANY
DATE .                     :  DATE
API  .                     :  API NUMBER
UWI  .                     :  UNIQUE WELL ID
~Curve Information Block
#MNEM.UNIT         API CODE   Curve Description
#---------- ----------------  -----------------
DEPTH.M                    :  
ANGLE_FAIL.DEG                  :  Fail Angle
BRIT_IND.                     :  Brittleness Index
BRIT_PR.                     :  Brittleness Index from Poisson's Ratio
BRIT_YM.                     :  Brittleness Index from Young's Modulus
CS   .M/MIN                 :  Compressive Strength
DTCO .US/F                 :  Compressional slowness
DTSM .US/F                 :  Shear slowness
IP   .RAYL/M2                 :  P Impedence
IS   .RAYL/M2                 :  S Impedance
KBULK.                     :  Bulk Mudulus
LAMBDA.                     :  Lambda
LAMRHO.                     :  
MU   .CP                   :  Mu
MURHO.(GF/C3S)2                 :  Mu*Rho
PR   .                     :  Poisson's ratio
PRESS_FG.PSI                  :  Fracture Gradient Pressure
PRESS_OB.PSI                  :  Over-burden Pressure
PRESS_PP.PSI                  :  Pore Pressure
PRESS_SHMAX.PSI                  :  Horizontal Stress (Max)
PRESS_SHMIN.PSI                  :  Horizontal Stress (Min)
PR_STAT.                     :  Poisson's ratio (Static)
PZS  .PSI                  :  Processed Zone Stress
SHMAX_GRAD.                     :  Horizontal Stress Gradient (Max)
SHMIN_GRAD.                     :  Horizontal Stress Gradient (Min)
STRESS_CUM.PSI                  :  Cumulative stress (SHPZ)
UCS_BF.PSI                  :  Uniaxial Compressive Strength (BF)
UCS_LAL.PSI                  :  Uniaxial Compressive Strength (lal)
VP   .FT/S                 :  Compressional velocity
VPVS .                     :  Vp / Vs ratio
VS   .FT/S                 :  Shear velocity
YM   .                     :  Youngs' Modulus
YM_STAT.                     :  Youngs' Modulus (Static)
~Parameter Information Block
#MNEM.UNIT            Value   Description
#---------- ----------------  -----------
ALPHA.                 0.98:  Biot's Constant
CALIB_SHMINPZS.                 6800:  Calibration Factor for processing zones
EXT_FACT.                1e-06:  Extension Factor
PR_FAC.                  0.9:  Poisson's ratio factor
PR_MAX.                  0.4:  Maximum Poisson's ratio
PR_MIN.                  0.1:  Minimum Poisson's ratio
TECT_FACT.                 1.05:  Techtonic Factor
YM_MAX.                    8:  Maximum Youngs' Modulus
YM_MIN.                    1:  Minimum Youngs' Modulus
PROJECT.          RDG_13Jul21:  
SET  .              GEOMECH:  
~Other Information Block
~Ascii Log Data
# ...
    2750.36280 
       30.0029        12.4906        11.6991        13.2821       837.4747 
      101.5880       220.2618      7636.7422      3522.1785        13.1649 
       13.1649        33.5084         4.8740    0.000133534       0.364903 
     -999.2500      8795.4424      4939.1655      8896.4189      6775.9072 
      0.328412      2746.7119         2.4319         1.8522     12245.2383 
      917.0152      2901.2688      9843.6826         2.1682      4540.0522 
        1.9297         0.9839
    2750.51520 
       30.7600        14.1624        12.5402        15.7846       863.2263 
       98.5232       212.0694      7976.8257      3705.8738        14.0252 
       14.0252        36.1627         5.3263    0.000147826       0.362379 
     -999.2500      8796.0146      4939.2935      8897.9883      6756.5459 
      0.326141      2822.8564         2.4321         1.8468     12358.8047 
      976.6804      3036.6372     10149.8936         2.1525      4715.4375 
        2.1049         1.0840
    2750.66760 
       31.3735        15.9652        13.7551        18.1753       884.3935 
       96.0905       204.7300      8250.5234      3872.4026        14.6404 
       14.6404        38.0801         5.7652    0.000161410       0.358735 
     -999.2500      8796.5859      4939.4219      8899.9863      6728.5840 
      0.322861      2994.6382         2.4326         1.8391     12646.4443 
     1034.6770      3150.2339     10406.8564         2.1306      4884.4819 
        2.2723         1.1813
    2750.82000 
       31.9499        18.0109        15.3386        20.6831       904.5346 
       93.8456       197.3947      8489.7852      4036.2224        15.1091 
       15.1091        39.4943         6.2324    0.000175356       0.353984 
     -999.2500      8797.1572      4939.5498      8902.3945      6692.4038 
      0.318586      2997.0481         2.4331         1.8291     12578.9043 
     1096.5690      3260.2861     10655.8008         2.1034      5065.9922 
        2.4478         1.2852
    2750.97240 
       32.5949        21.3066        18.3949        24.2183       927.3738 
       91.3796       187.7616      8745.4102      4256.2065        15.3521 
       15.3521        40.2516         6.9092    0.000194991       0.344815 
     -999.2500      8797.7295      4939.6782      8906.4434      6623.4536 
      0.310334      2951.5247         2.4340         1.8101     12349.9570 
     1185.6434      3387.4094     10943.3613         2.0547      5325.9028 
        2.6953         1.4346
    2751.12480 
       32.9460        23.9349        21.1404        26.7293       939.9441 
       90.0574       181.4512      8882.2012      4408.3921        15.2515 
       15.2515        40.0257         7.4052    0.000209185       0.336579 
     -999.2500      8798.3008      4939.8066      8910.0713      6562.8936 
      0.302921      2954.5027         2.4349         1.7935     12234.7930 
     1250.2091      3458.4365     11104.0293         2.0148      5511.1235 
        2.8711         1.5430
    2751.27720 
       32.8243        24.3089        22.0458        26.5720       935.5740 
       90.5143       181.2447      8801.3350      4395.4204        14.8542 
       14.8542        38.8241         7.3918    0.000207956       0.333863 
     -999.2500      8798.8721      4939.9351      8911.6484      6543.3545 
      0.300476      2838.4014         2.4352         1.7880     11963.5117 
     1246.1328      3433.6580     11047.9785         2.0024      5517.4028 
        2.8600         1.5361
    2751.42960 
       32.3316        23.6427        22.4080        24.8774       918.0089 
       92.3807       184.5304      8575.2480      4292.9912        14.1111 
       14.1111        36.6753         7.0910    0.000198376       0.332776 
     -999.2500      8799.4443      4940.0630      8912.6338      6535.6665 
      0.299499      2629.0654         2.4353         1.7858     11529.4639 
     1202.4858      3334.9839     10824.7715         1.9975      5419.1611 
        2.7414         1.4629
    2751.58200 
       31.4766        19.5536        18.6437        20.4635       887.9785 
       95.6860       196.2506      8238.8955      4017.0422        13.7665 
       13.7665        35.6061         6.2389    0.000173693       0.344069 
     -999.2500      8800.0166      4940.1914      8909.0703      6618.9404 
      0.309662      2516.0090         2.4342         1.8084     11469.8984 
     1091.1057      3169.6824     10450.8506         2.0510      5095.5259 
        2.4324         1.2760
    2751.73440 
       30.4166        15.6930        15.4226        15.9635       851.4959 
       99.9047       209.9993      7809.1328      3715.1033        13.0405 
       13.0405        33.3786         5.3922    0.000148563       0.353732 
     -999.2500      8800.5879      4940.3198      8906.0078      6692.1914 
      0.318359      2468.1736         2.4332         1.8284     11520.7305 
      980.9850      2974.5898     10009.5391         2.1020      4761.9209 
        2.1174         1.0912
    2751.88680 
       29.7722        14.1727        14.5332        13.8122       829.7054 
      102.5360       217.0740      7536.9746      3560.1282        12.4068 
       12.4068        31.4570         4.9989    0.000136427       0.356401 
     -999.2500      8801.1592      4940.4478      8905.5703      6712.9414 
      0.320760      2661.7893         2.4329         1.8339     11949.4609 
      929.5643      2861.0354      9752.6719         2.1171      4606.7236 
        1.9669         1.0049
    2752.03920 
       29.7543        12.8109        12.7499        12.8719       829.1044 
      102.6098       220.4713      7479.6592      3481.1169        12.5929 
       12.5929        31.7090         4.8126    0.000130439       0.361750 
     -999.2500      8801.7314      4940.5762      8904.0752      6754.8540 
      0.325575      2870.8611         2.4324         1.8453     12451.4307 
      907.3390      2857.9346      9745.6572         2.1486      4535.7378 
        1.9010         0.9676
    2752.19160 
       29.8843        12.6067        12.0975        13.1159       833.4747 
      102.0747       220.5517      7581.0693      3508.6350        12.9397 
       12.9397        32.8516         4.8489    0.000132509       0.363707 
     -999.2500      8802.3027      4940.7046      8903.8887      6770.5898 
      0.327337      2975.4150         2.4322         1.8494     12692.0098 
      913.0927      2880.5198      9796.7471         2.1607      4534.0845 
        1.9181         0.9773
    2752.34400 
       30.1747        14.6821        14.3504        15.0137       843.2823 
      100.8865       213.8997      7752.7446      3656.6074        13.0016 
       13.0016        33.3635         5.2105    0.000143922       0.356949 
     -999.2500      8802.8740      4940.8320      8907.1055      6718.2622 
      0.321254      2997.0481         2.4329         1.8350     12630.6201 
      958.1867      2931.5273      9912.1299         2.1202      4675.0884 
        2.0510         1.0529
    2752.49640 
       30.7212        16.9616        16.4735        17.4497       861.8983 
       98.6784       205.7216      7978.7363      3827.1572        13.3042 
       13.3042        34.3660         5.6704    0.000157660       0.350579 
     -999.2500      8803.4473      4940.9604      8910.1270      6669.8516 
      0.315521      2932.5234         2.4336         1.8217     12404.7500 
     1016.9719      3029.5801     10133.9307         2.0848      4860.9385 
        2.2215         1.1516
    2752.64880 
       31.2290        17.5250        16.3704        18.6795       879.3843 
       96.6593       201.6731      8129.4458      3896.3381        13.8574 
       13.8574        35.7250         5.8888    0.000163412       0.350889 
     -999.2500      8804.0186      4941.0884      8910.5889      6672.6118 
      0.315800      2834.3647         2.4336         1.8224     12213.9531 
     1047.0353      3123.1611     10345.6162         2.0864      4958.5195 
        2.3076         1.2020
