~Version Information Block
VERS .                  2.0:  CWLS LOG ASCII STANDARD - VERSION 2.0
WRAP .                  YES:  Multiple lines per depth step
~Well Information Block
#MNEM.UNIT        Data Type   Information
#---------- ----------------  -----------
STRT .M          2686.96440:  START DEPTH
STOP .M          3645.86520:  STOP DEPTH
STEP .M             0.15240:  STEP
NULL .              -999.25:  NULL VALUE
COMP .                     :  COMPANY
WELL .      RAAG-105-07-212:  WELL
FLD  .                     :  FIELD
LOC  .                     :  LOCATION
CTRY .                     :  COUNTRY
STAT .                     :  STATE
CNTY .                     :  COUNTY
SRVC .                     :  SERVICE COMPANY
DATE .                     :  DATE
API  .                     :  API NUMBER
UWI  .                     :  UNIQUE WELL ID
~Curve Information Block
#MNEM.UNIT         API CODE   Curve Description
#---------- ----------------  -----------------
DEPTH.M                    :  
ANGLE_FAIL.DEG                  :  Fail Angle
BRIT_IND.                     :  Brittleness Index
BRIT_PR.                     :  Brittleness Index from Poisson's Ratio
BRIT_YM.                     :  Brittleness Index from Young's Modulus
CS   .M/MIN                 :  Compressive Strength
DTCO .US/F                 :  Compressional slowness
DTSM .US/F                 :  Shear slowness
IP   .RAYL/M2                 :  P Impedence
IS   .RAYL/M2                 :  S Impedance
KBULK.                     :  Bulk Mudulus
LAMBDA.                     :  Lambda
LAMRHO.                     :  
MU   .CP                   :  Mu
MURHO.(GF/C3S)2                 :  Mu*Rho
PR   .                     :  Poisson's ratio
PRESS_FG.PSI                  :  Fracture Gradient Pressure
PRESS_OB.PSI                  :  Over-burden Pressure
PRESS_PP.PSI                  :  Pore Pressure
PRESS_SHMAX.PSI                  :  Horizontal Stress (Max)
PRESS_SHMIN.PSI                  :  Horizontal Stress (Min)
PR_STAT.                     :  Poisson's ratio (Static)
PZS  .PSI                  :  Processed Zone Stress
SHMAX_GRAD.                     :  Horizontal Stress Gradient (Max)
SHMIN_GRAD.                     :  Horizontal Stress Gradient (Min)
STRESS_CUM.PSI                  :  Cumulative stress (SHPZ)
UCS_BF.PSI                  :  Uniaxial Compressive Strength (BF)
UCS_LAL.PSI                  :  Uniaxial Compressive Strength (lal)
VP   .FT/S                 :  Compressional velocity
VPVS .                     :  Vp / Vs ratio
VS   .FT/S                 :  Shear velocity
YM   .                     :  Youngs' Modulus
YM_STAT.                     :  Youngs' Modulus (Static)
~Parameter Information Block
#MNEM.UNIT            Value   Description
#---------- ----------------  -----------
ALPHA.                 0.98:  Biot's Constant
CALIB_SHMINPZS.                 6800:  Calibration Factor for processing zones
EXT_FACT.                1e-06:  Extension Factor
PR_FAC.                  0.9:  Poisson's ratio factor
PR_MAX.                  0.4:  Maximum Poisson's ratio
PR_MIN.                  0.1:  Minimum Poisson's ratio
TECT_FACT.                 1.05:  Techtonic Factor
YM_MAX.                    8:  Maximum Youngs' Modulus
YM_MIN.                    1:  Minimum Youngs' Modulus
PROJECT.          RDG_13Jul21:  
SET  .              GEOMECH:  
~Other Information Block
~Ascii Log Data
# ...
    2813.76120 
       35.2805        39.5297        37.2317        41.8276      1026.1832 
       81.6147       149.6442      9461.7373      5160.3530        14.3145 
       14.3145        36.2660        10.5108    0.000286635       0.288305 
     -999.2500      9033.7676      4990.8755      9168.1738      6345.6450 
      0.259474      2148.6880         2.4458         1.6928     10188.6660 
     1661.1890      3966.2329     12252.6943         1.8335      6682.5176 
        3.9279         2.2326
    2813.91360 
       34.2755        39.1456        39.6234        38.6678       988.4717 
       85.1761       154.3653      9154.9395      5051.5371        12.8118 
       12.8118        32.7769         9.9744    0.000274674       0.281130 
     -999.2500      9034.3428      4990.9956      9171.1934      6297.3301 
      0.253017      2209.3972         2.4465         1.6798     10213.4551 
     1571.9508      3739.7524     11740.3818         1.8123      6478.1401 
        3.7067         2.0828
    2814.06600 
       33.1760        40.5383        45.1444        35.9323       948.2314 
       89.1990       157.6514      8760.4336      4956.6440        10.7689 
       10.7689        27.6085         9.5831    0.000264451       0.264567 
     -999.2500      9034.9160      4991.1162      9177.2197      6188.8496 
      0.238110      2332.9590         2.4479         1.6508     10243.6172 
     1496.0753      3505.6765     11210.8887         1.7674      6343.1089 
        3.5153         1.9555
    2814.21840 
       32.9073        39.9715        45.2671        34.6759       938.5523 
       90.2026       159.3405      8630.6934      4885.8325        10.4716 
       10.4716        26.7462         9.3460    0.000256949       0.264199 
     -999.2500      9035.4902      4991.2363      9177.9316      6186.6675 
      0.237779      2497.2034         2.4480         1.6501     10567.7412 
     1461.6547      3450.5349     11086.1553         1.7665      6275.8682 
        3.4273         1.8978
    2814.37080 
       32.6409        41.2157        48.2634        34.1681       929.0158 
       91.2055       159.0893      8480.9502      4862.1074         9.7118 
        9.7118        24.6463         9.3153    0.000254460       0.255210 
     -999.2500      9036.0645      4991.3564      9181.3789      6129.7661 
      0.229689      2480.0637         2.4488         1.6349     10419.6602 
     1447.8196      3396.6443     10964.2510         1.7443      6285.7778 
        3.3918         1.8746
    2814.52320 
       32.5449        44.1393        53.2789        34.9998       925.5903 
       91.5692       156.5883      8425.2295      4926.8784         8.8641 
        8.8641        22.4362         9.5902    0.000261285       0.240163 
     -999.2500      9036.6387      4991.4771      9186.6182      6037.0664 
      0.216147      2352.2583         2.4500         1.6100      9978.6494 
     1470.5027      3377.3926     10920.7021         1.7101      6386.1729 
        3.4500         1.9126
    2814.67560 
       32.8132        45.2368        54.3281        36.1455       935.1775 
       90.5559       154.2445      8480.0566      4978.5835         8.8666 
        8.8666        22.3388         9.8381    0.000266797       0.237016 
     -999.2500      9037.2129      4991.5967      9188.1572      6018.3247 
      0.213314      2108.8103         2.4503         1.6050      9454.2695 
     1501.9421      3431.4141     11042.9023         1.7033      6483.2134 
        3.5302         1.9654
    2814.82800 
       33.1290        45.7480        54.3883        37.1077       946.5366 
       89.3737       152.1966      8526.4414      5006.9424         9.0240 
        9.0240        22.5612        10.0273    0.000269846       0.236835 
     -999.2500      9037.7871      4991.7168      9188.7998      6017.5322 
      0.213152      1694.5272         2.4503         1.6047      8624.1191 
     1528.5201      3495.9885     11188.9736         1.7029      6570.4492 
        3.5975         2.0100
    2814.98040 
       33.4291        47.5371        56.7482        38.3261       957.4059 
       88.2608       149.0060      8520.7158      5047.0801         8.7773 
        8.7773        21.6566        10.3241    0.000274189       0.229756 
     -999.2500      9038.3613      4991.8369      9191.5049      5975.4966 
      0.206780      1268.5970         2.4509         1.5933      7688.1875 
     1562.4021      3558.3582     11330.0576         1.6882      6711.1396 
        3.6828         2.0668
    2815.13280 
       33.7032        49.2445        59.0883        39.4008       967.3978 
       87.2533       146.0895      8502.7773      5078.3628         8.5116 
        8.5116        20.7177        10.5955    0.000277599       0.222735 
     -999.2500      9038.9355      4991.9565      9194.1592      5934.4629 
      0.200462       991.9866         2.4515         1.5823      7052.8994 
     1592.4987      3616.1934     11460.8848         1.6743      6845.1191 
        3.7581         2.1173
    2815.28520 
       34.3130        48.4959        55.9780        41.0138       989.8631 
       85.0412       143.9718      8661.3379      5116.0747         9.3812 
        9.3812        22.6703        10.8311    0.000281737       0.232066 
     -999.2500      9039.5098      4992.0771      9191.9912      5989.8799 
      0.208859       827.4547         2.4507         1.5970      6834.6694 
     1638.0421      3747.9858     11759.0068         1.6930      6945.8047 
        3.8710         2.1938
    2815.43760 
       34.8630        48.1879        53.4198        42.9560      1010.4053 
       83.0810       141.9971      8871.7822      5190.7856        10.2637 
       10.2637        24.8200        11.1421    0.000290026       0.239741 
     -999.2500      9040.0840      4992.1973      9190.2666      6036.4375 
      0.215767       782.2026         2.4501         1.6093      6837.2798 
     1693.4695      3870.6350     12036.4463         1.7091      7042.3975 
        4.0069         2.2868
    2815.59000 
       34.7311        50.1547        56.4627        43.8467      1005.4531 
       83.5482       141.1954      8924.2832      5280.6807         9.7586 
        9.7586        23.8717        11.3995    0.000300158       0.230612 
     -999.2500      9040.6582      4992.3169      9193.5977      5981.8633 
      0.207551       920.2502         2.4509         1.5947      7004.2271 
     1719.1057      3840.8799     11969.1387         1.6900      7082.3833 
        4.0693         2.3298
    2815.74240 
       34.4836        51.2314        58.3970        44.0658       996.2045 
       84.4298       141.7043      8970.7002      5344.8940         9.3918 
        9.3918        23.3377        11.4966    0.000307502       0.224809 
     -999.2500      9041.2324      4992.4370      9195.9033      5947.8188 
      0.202328      1107.2341         2.4514         1.5855      7310.1060 
     1725.4336      3785.6296     11844.1592         1.6784      7056.9487 
        4.0846         2.3404
    2815.89480 
       34.3390        51.1915        58.2285        44.1546       990.8281 
       84.9478       142.6583      9046.4619      5386.8374         9.4407 
        9.4407        23.8024        11.5094    0.000312347       0.225315 
     -999.2500      9041.8066      4992.5571      9196.3447      5951.0278 
      0.202783      1168.5999         2.4513         1.5863      7439.2559 
     1727.9984      3753.7012     11771.9355         1.6794      7009.7573 
        4.0908         2.3447
    2816.04720 
       34.0262        47.3915        53.5434        41.2395       979.2590 
       86.0763       147.0476      8910.3301      5215.7817         9.9293 
        9.9293        24.9852        10.8113    0.000292826       0.239370 
     -999.2500      9042.3809      4992.6772      9192.7480      6035.0518 
      0.215433      1119.5154         2.4502         1.6086      7509.1348 
     1644.4501      3685.4734     11617.5996         1.7083      6800.5186 
        3.8868         2.2045
