~Version Information Block
VERS .                  2.0:  CWLS LOG ASCII STANDARD - VERSION 2.0
WRAP .                  YES:  Multiple lines per depth step
~Well Information Block
#MNEM.UNIT        Data Type   Information
#---------- ----------------  -----------
STRT .M          2686.96440:  START DEPTH
STOP .M          3645.86520:  STOP DEPTH
STEP .M             0.15240:  STEP
NULL .              -999.25:  NULL VALUE
COMP .                     :  COMPANY
WELL .      RAAG-105-07-212:  WELL
FLD  .                     :  FIELD
LOC  .                     :  LOCATION
CTRY .                     :  COUNTRY
STAT .                     :  STATE
CNTY .                     :  COUNTY
SRVC .                     :  SERVICE COMPANY
DATE .                     :  DATE
API  .                     :  API NUMBER
UWI  .                     :  UNIQUE WELL ID
~Curve Information Block
#MNEM.UNIT         API CODE   Curve Description
#---------- ----------------  -----------------
DEPTH.M                    :  
ANGLE_FAIL.DEG                  :  Fail Angle
BRIT_IND.                     :  Brittleness Index
BRIT_PR.                     :  Brittleness Index from Poisson's Ratio
BRIT_YM.                     :  Brittleness Index from Young's Modulus
CS   .M/MIN                 :  Compressive Strength
DTCO .US/F                 :  Compressional slowness
DTSM .US/F                 :  Shear slowness
IP   .RAYL/M2                 :  P Impedence
IS   .RAYL/M2                 :  S Impedance
KBULK.                     :  Bulk Mudulus
LAMBDA.                     :  Lambda
LAMRHO.                     :  
MU   .CP                   :  Mu
MURHO.(GF/C3S)2                 :  Mu*Rho
PR   .                     :  Poisson's ratio
PRESS_FG.PSI                  :  Fracture Gradient Pressure
PRESS_OB.PSI                  :  Over-burden Pressure
PRESS_PP.PSI                  :  Pore Pressure
PRESS_SHMAX.PSI                  :  Horizontal Stress (Max)
PRESS_SHMIN.PSI                  :  Horizontal Stress (Min)
PR_STAT.                     :  Poisson's ratio (Static)
PZS  .PSI                  :  Processed Zone Stress
SHMAX_GRAD.                     :  Horizontal Stress Gradient (Max)
SHMIN_GRAD.                     :  Horizontal Stress Gradient (Min)
STRESS_CUM.PSI                  :  Cumulative stress (SHPZ)
UCS_BF.PSI                  :  Uniaxial Compressive Strength (BF)
UCS_LAL.PSI                  :  Uniaxial Compressive Strength (lal)
VP   .FT/S                 :  Compressional velocity
VPVS .                     :  Vp / Vs ratio
VS   .FT/S                 :  Shear velocity
YM   .                     :  Youngs' Modulus
YM_STAT.                     :  Youngs' Modulus (Static)
~Parameter Information Block
#MNEM.UNIT            Value   Description
#---------- ----------------  -----------
ALPHA.                 0.98:  Biot's Constant
CALIB_SHMINPZS.                 6800:  Calibration Factor for processing zones
EXT_FACT.                1e-06:  Extension Factor
PR_FAC.                  0.9:  Poisson's ratio factor
PR_MAX.                  0.4:  Maximum Poisson's ratio
PR_MIN.                  0.1:  Minimum Poisson's ratio
TECT_FACT.                 1.05:  Techtonic Factor
YM_MAX.                    8:  Maximum Youngs' Modulus
YM_MIN.                    1:  Minimum Youngs' Modulus
PROJECT.          RDG_13Jul21:  
SET  .              GEOMECH:  
~Other Information Block
~Ascii Log Data
# ...
    2940.55800 
       35.0373        45.4634        52.6321        38.2946      1016.9714 
       82.4667       141.3712      8122.3384      4738.0400         9.5898 
        9.5898        21.0743        10.2153    0.000241639       0.242104 
     -999.2500      9513.4951      5084.1582      9676.7969      6247.4487 
      0.217893       400.4604         2.4629         1.5901      6495.8184 
     1561.5247      3910.2717     12126.1064         1.7143      7073.5767 
        3.6806         2.0654
    2940.71040 
       35.1762        43.9664        49.5801        38.3527      1022.2261 
       81.9793       142.2318      8218.9629      4737.2305        10.2546 
       10.2546        22.6686        10.1518    0.000241557       0.251260 
     -999.2500      9514.0732      5084.2622      9674.3066      6309.4106 
      0.226134       434.8239         2.4621         1.6057      6688.4697 
     1563.1464      3942.1428     12198.2012         1.7350      7030.7769 
        3.6847         2.0681
    2940.86280 
       35.3692        42.6081        46.7241        38.4922      1029.5548 
       81.3057       142.7335      8310.8213      4734.1177        10.9368 
       10.9368        24.2460        10.1095    0.000241239       0.259828 
     -999.2500      9514.6523      5084.3667      9671.9531      6368.6304 
      0.233845       492.0308         2.4614         1.6207      6921.3218 
     1567.0410      3986.8186     12299.2598         1.7555      7006.0640 
        3.6945         2.0746
    2941.01520 
       35.3135        43.0380        47.5414        38.5346      1027.4362 
       81.4997       142.5849      8296.5742      4742.2153        10.7537 
       10.7537        23.8559        10.1373    0.000242065       0.257376 
     -999.2500      9515.2324      5084.4702      9673.3994      6351.8828 
      0.231638       546.5578         2.4616         1.6164      6996.8813 
     1568.2253      3973.8760     12269.9834         1.7495      7013.3657 
        3.6974         2.0766
    2941.16760 
       35.5943        41.8174        44.7580        38.8767      1038.1509 
       80.5247       142.5595      8392.6777      4740.6021        11.4964 
       11.4964        25.4904        10.1357    0.000241901       0.265726 
     -999.2500      9515.8105      5084.5742      9671.0791      6410.4478 
      0.239153       563.9198         2.4609         1.6312      7148.7354 
     1577.7983      4039.5537     12418.5498         1.7704      7014.6152 
        3.7214         2.0927
    2941.32000 
       35.3964        43.0580        47.3863        38.7296      1030.5927 
       81.2109       142.1715      8305.3604      4744.1704        10.8296 
       10.8296        23.9647        10.1710    0.000242265       0.257841 
     -999.2500      9516.3896      5084.6782      9674.4287      6355.6045 
      0.232057       510.9173         2.4616         1.6171      6933.0435 
     1573.6796      3993.1658     12313.6182         1.7506      7033.7588 
        3.7111         2.0858
    2941.47240 
       35.3323        44.2414        49.6103        38.8726      1028.1541 
       81.4339       141.2684      8243.5039      4751.9521        10.3491 
       10.3491        22.7933        10.2528    0.000243060       0.251169 
     -999.2500      9516.9697      5084.7817      9677.3164      6310.0327 
      0.226052       455.5323         2.4622         1.6055      6731.1304 
     1577.6818      3978.2590     12279.8984         1.7348      7078.7236 
        3.7211         2.0925
    2941.62480 
       35.5395        44.2824        49.2315        39.3332      1036.0530 
       80.7144       140.2345      8259.2100      4753.7319        10.5246 
       10.5246        23.0186        10.3322    0.000243242       0.252305 
     -999.2500      9517.5488      5084.8857      9677.5234      6318.0562 
      0.227075       395.3083         2.4621         1.6074      6626.7290 
     1590.6002      4026.6506     12389.3633         1.7374      7130.9126 
        3.7533         2.1141
    2941.77720 
       35.5238        45.5447        51.4815        39.6078      1035.4515 
       80.7689       139.0789      8203.9756      4764.3892        10.0767 
       10.0767        21.9064        10.4415    0.000244334       0.245555 
     -999.2500      9518.1270      5084.9897      9680.4063      6272.5400 
      0.221000       379.3611         2.4627         1.5957      6503.8022 
     1598.3207      4022.9551     12381.0029         1.7219      7190.1631 
        3.7725         2.1271
    2941.92960 
       35.5903        45.5910        51.3973        39.7848      1037.9958 
       80.5387       138.7282      8211.1895      4767.0088        10.1282 
       10.1282        21.9749        10.4736    0.000244603       0.245808 
     -999.2500      9518.7070      5085.0933      9680.9180      6274.4893 
      0.221227       414.7516         2.4627         1.5961      6578.4814 
     1603.3004      4038.5994     12416.3916         1.7225      7208.3398 
        3.7849         2.1355
    2942.08200 
       35.7972        46.3584        51.6960        41.0208      1045.9393 
       79.8254       137.3393      8311.0996      4830.6411        10.2931 
       10.2931        22.4042        10.7207    0.000251177       0.244912 
     -999.2500      9519.2861      5085.1973      9681.8115      6268.7720 
      0.220421       478.8261         2.4628         1.5946      6695.1963 
     1638.2413      4087.6472     12527.3408         1.7205      7281.2368 
        3.8715         2.1941
    2942.23440 
       36.2053        45.8687        49.1725        42.5649      1061.7201 
       78.4324       136.3023      8512.2979      4898.2295        11.1732 
       11.1732        24.4739        10.9534    0.000258255       0.252482 
     -999.2500      9519.8643      5085.3013      9679.8359      6320.4341 
      0.227234       526.1707         2.4621         1.6077      6893.2100 
     1682.2581      4186.0054     12749.8320         1.7378      7336.6333 
        3.9795         2.2679
    2942.38680 
       36.4106        47.8091        50.9705        44.6477      1069.7230 
       77.7380       134.1285      8658.5576      5018.3145        11.1413 
       11.1413        24.6037        11.4039    0.000271073       0.247089 
     -999.2500      9520.4434      5085.4048      9682.2588      6284.1372 
      0.222380       573.8079         2.4626         1.5983      6915.8901 
     1742.2773      4236.3530     12863.7227         1.7254      7455.5371 
        4.1253         2.3687
    2942.53920 
       36.7375        47.9154        49.5829        46.2479      1082.5565 
       76.6410       132.9685      8836.1025      5092.9932        11.7920 
       11.7920        26.1995        11.6745    0.000279201       0.251251 
     -999.2500      9521.0234      5085.5088      9681.4375      6312.7388 
      0.226126       619.8646         2.4623         1.6055      7065.2070 
     1788.8927      4317.7500     13047.8467         1.7350      7520.5781 
        4.2374         2.4469
    2942.69160 
       37.3380        46.2449        44.5795        47.9103      1106.4125 
       74.6547       132.2704      9113.3750      5143.6777        13.5022 
       13.5022        30.1388        11.8529    0.000284785       0.266261 
     -999.2500      9521.6025      5085.6123      9676.8164      6417.3208 
      0.239635       662.6828         2.4610         1.6320      7360.0078 
     1837.7834      4471.2192     13395.0039         1.7718      7560.2700 
        4.3537         2.5289
    2942.84400 
       37.6325        45.8332        42.7315        48.9350      1118.2520 
       73.6938       131.6443      9255.1602      5180.9907        14.2882 
       14.2882        31.9727        11.9957    0.000288932       0.271805 
     -999.2500      9522.1807      5085.7163      9675.4355      6457.0869 
      0.244625       701.0231         2.4605         1.6421      7516.2202 
     1868.1567      4548.4316     13569.6631         1.7864      7596.2271 
        4.4254         2.5799
