~Version Information Block
VERS .                  2.0:  CWLS LOG ASCII STANDARD - VERSION 2.0
WRAP .                   NO:  One line per depth step
~Well Information Block
#MNEM.UNIT        Data Type   Information
#---------- ----------------  -----------
STRT .M                0.00:  START DEPTH
STOP .M             3613.00:  STOP DEPTH
STEP .M                0.50:  STEP
NULL .              -999.25:  NULL VALUE
COMP .                     :  COMPANY
WELL .      RAAG-100-07-213:  WELL
FLD  .                     :  FIELD
LOC  .                     :  LOCATION
CTRY .                     :  COUNTRY
STAT .                     :  STATE
CNTY .                     :  COUNTY
SRVC .                     :  SERVICE COMPANY
DATE .                     :  DATE
API  .                     :  API NUMBER
UWI  .                     :  UNIQUE WELL ID
~Curve Information Block
#MNEM.UNIT         API CODE   Curve Description
#---------- ----------------  -----------------
DEPTH.M                    :  
OBG  .G/CC                 :  2.174+0.00008962*TVDSS
PP   .G/CC                 :  2.1087-0.00029524*TVDSS
~Parameter Information Block
#MNEM.UNIT            Value   Description
#---------- ----------------  -----------
PROJECT.          RDG_13Jul21:  
SET  .              GEOMECH:  
~Other Information Block
# 
~A       DEPTH            OBG             PP 
# ...
       3115.00         2.4452         1.2151
       3115.50         2.4453         1.2150
       3116.00         2.4453         1.2148
       3116.50         2.4454         1.2147
       3117.00         2.4454         1.2145
       3117.50         2.4455         1.2144
       3118.00         2.4455         1.2142
       3118.50         2.4456         1.2141
       3119.00         2.4456         1.2140
       3119.50         2.4456         1.2138
       3120.00         2.4457         1.2137
       3120.50         2.4457         1.2135
       3121.00         2.4458         1.2134
       3121.50         2.4458         1.2132
       3122.00         2.4459         1.2131
       3122.50         2.4459         1.2129
       3123.00         2.4460         1.2128
       3123.50         2.4460         1.2126
       3124.00         2.4460         1.2125
       3124.50         2.4461         1.2123
       3125.00         2.4461         1.2122
       3125.50         2.4462         1.2120
       3126.00         2.4462         1.2119
       3126.50         2.4463         1.2117
       3127.00         2.4463         1.2116
       3127.50         2.4464         1.2114
       3128.00         2.4464         1.2113
       3128.50         2.4465         1.2111
       3129.00         2.4465         1.2110
       3129.50         2.4465         1.2109
       3130.00         2.4466         1.2107
       3130.50         2.4466         1.2106
       3131.00         2.4467         1.2104
       3131.50         2.4467         1.2103
       3132.00         2.4468         1.2101
       3132.50         2.4468         1.2100
       3133.00         2.4469         1.2098
       3133.50         2.4469         1.2097
       3134.00         2.4469         1.2095
       3134.50         2.4470         1.2094
       3135.00         2.4470         1.2092
       3135.50         2.4471         1.2091
       3136.00         2.4471         1.2089
       3136.50         2.4472         1.2088
       3137.00         2.4472         1.2086
       3137.50         2.4473         1.2085
       3138.00         2.4473         1.2083
       3138.50         2.4473         1.2082
       3139.00         2.4474         1.2080
       3139.50         2.4474         1.2079
       3140.00         2.4475         1.2078
       3140.50         2.4475         1.2076
       3141.00         2.4476         1.2075
       3141.50         2.4476         1.2073
       3142.00         2.4477         1.2072
       3142.50         2.4477         1.2070
       3143.00         2.4478         1.2069
       3143.50         2.4478         1.2067
       3144.00         2.4478         1.2066
       3144.50         2.4479         1.2064
       3145.00         2.4479         1.2063
       3145.50         2.4480         1.2061
       3146.00         2.4480         1.2060
       3146.50         2.4481         1.2058
       3147.00         2.4481         1.2057
       3147.50         2.4482         1.2055
       3148.00         2.4482         1.2054
       3148.50         2.4482         1.2052
       3149.00         2.4483         1.2051
       3149.50         2.4483         1.2049
       3150.00         2.4484         1.2048
       3150.50         2.4484         1.2047
       3151.00         2.4485         1.2045
       3151.50         2.4485         1.2044
       3152.00         2.4486         1.2042
       3152.50         2.4486         1.2041
       3153.00         2.4486         1.2039
       3153.50         2.4487         1.2038
       3154.00         2.4487         1.2036
       3154.50         2.4488         1.2035
       3155.00         2.4488         1.2033
       3155.50         2.4489         1.2032
       3156.00         2.4489         1.2030
       3156.50         2.4490         1.2029
       3157.00         2.4490         1.2027
       3157.50         2.4491         1.2026
       3158.00         2.4491         1.2024
       3158.50         2.4491         1.2023
       3159.00         2.4492         1.2021
       3159.50         2.4492         1.2020
       3160.00         2.4493         1.2018
       3160.50         2.4493         1.2017
       3161.00         2.4494         1.2016
       3161.50         2.4494         1.2014
       3162.00         2.4495         1.2013
       3162.50         2.4495         1.2011
       3163.00         2.4495         1.2010
       3163.50         2.4496         1.2008
       3164.00         2.4496         1.2007
       3164.50         2.4497         1.2005
       3165.00         2.4497         1.2004
       3165.50         2.4498         1.2002
       3166.00         2.4498         1.2001
       3166.50         2.4499         1.1999
       3167.00         2.4499         1.1998
       3167.50         2.4499         1.1996
       3168.00         2.4500         1.1995
       3168.50         2.4500         1.1993
       3169.00         2.4501         1.1992
       3169.50         2.4501         1.1990
       3170.00         2.4502         1.1989
       3170.50         2.4502         1.1987
       3171.00         2.4503         1.1986
       3171.50         2.4503         1.1985
       3172.00         2.4504         1.1983
       3172.50         2.4504         1.1982
       3173.00         2.4504         1.1980
       3173.50         2.4505         1.1979
       3174.00         2.4505         1.1977
       3174.50         2.4506         1.1976
       3175.00         2.4506         1.1974
       3175.50         2.4507         1.1973
       3176.00         2.4507         1.1971
       3176.50         2.4508         1.1970
       3177.00         2.4508         1.1968
       3177.50         2.4508         1.1967
       3178.00         2.4509         1.1965
       3178.50         2.4509         1.1964
       3179.00         2.4510         1.1962
       3179.50         2.4510         1.1961
       3180.00         2.4511         1.1959
       3180.50         2.4511         1.1958
       3181.00         2.4512         1.1956
       3181.50         2.4512         1.1955
       3182.00         2.4512         1.1954
       3182.50         2.4513         1.1952
       3183.00         2.4513         1.1951
       3183.50         2.4514         1.1949
       3184.00         2.4514         1.1948
       3184.50         2.4515         1.1946
       3185.00         2.4515         1.1945
       3185.50         2.4516         1.1943
       3186.00         2.4516         1.1942
       3186.50         2.4516         1.1940
       3187.00         2.4517         1.1939
       3187.50         2.4517         1.1937
       3188.00         2.4518         1.1936
       3188.50         2.4518         1.1934
       3189.00         2.4519         1.1933
       3189.50         2.4519         1.1931
       3190.00         2.4520         1.1930
       3190.50         2.4520         1.1928
       3191.00         2.4521         1.1927
       3191.50         2.4521         1.1925
       3192.00         2.4521         1.1924
       3192.50         2.4522         1.1923
       3193.00         2.4522         1.1921
       3193.50         2.4523         1.1920
       3194.00         2.4523         1.1918
       3194.50         2.4524         1.1917
       3195.00         2.4524         1.1915
       3195.50         2.4525         1.1914
       3196.00         2.4525         1.1912
       3196.50         2.4525         1.1911
       3197.00         2.4526         1.1909
       3197.50         2.4526         1.1908
       3198.00         2.4527         1.1906
       3198.50         2.4527         1.1905
       3199.00         2.4528         1.1903
       3199.50         2.4528         1.1902
       3200.00         2.4529         1.1900
       3200.50         2.4529         1.1899
       3201.00         2.4529         1.1897
       3201.50         2.4530         1.1896
       3202.00         2.4530         1.1894
       3202.50         2.4531         1.1893
       3203.00         2.4531         1.1892
       3203.50         2.4532         1.1890
