~Version Information Block
VERS .                  2.0:  CWLS LOG ASCII STANDARD - VERSION 2.0
WRAP .                  YES:  Multiple lines per depth step
~Well Information Block
#MNEM.UNIT        Data Type   Information
#---------- ----------------  -----------
STRT .M          2776.00000:  START DEPTH
STOP .M          3750.44560:  STOP DEPTH
STEP .M             0.15240:  STEP
NULL .              -999.25:  NULL VALUE
COMP .                     :  COMPANY
WELL .      RAAG-102-07-105:  WELL
FLD  .                     :  FIELD
LOC  .                     :  LOCATION
CTRY .                     :  COUNTRY
STAT .                     :  STATE
CNTY .                     :  COUNTY
SRVC .                     :  SERVICE COMPANY
DATE .                     :  DATE
API  .                     :  API NUMBER
UWI  .                     :  UNIQUE WELL ID
~Curve Information Block
#MNEM.UNIT         API CODE   Curve Description
#---------- ----------------  -----------------
DEPTH.M                    :  
ANGLE_FAIL.DEG                  :  Fail Angle
BRIT_IND.                     :  Brittleness Index
BRIT_PR.                     :  Brittleness Index from Poisson's Ratio
BRIT_YM.                     :  Brittleness Index from Young's Modulus
CS   .M/MIN                 :  Compressive Strength
DTCO .US/F                 :  Compressional slowness
DTSM .US/F                 :  Fast Shear Slowness
IP   .RAYL/M2                 :  P Impedence
IS   .RAYL/M2                 :  S Impedance
KBULK.                     :  Bulk Mudulus
LAMBDA.                     :  Lambda
LAMRHO.                     :  
MU   .CP                   :  Mu
MURHO.(GF/C3S)2                 :  Mu*Rho
PR   .                     :  Poisson's ratio
PRESS_FG.PSI                  :  Fracture Gradient Pressure
PRESS_OB.PSI                  :  Over-burden Pressure
PRESS_PP.PSI                  :  Pore Pressure
PRESS_SHMAX.PSI                  :  Horizontal Stress (Max)
PRESS_SHMIN.PSI                  :  Horizontal Stress (Min)
PR_STAT.                     :  Poisson's ratio (Static)
PZS  .PSI                  :  Processed Zone Stress
SHMAX_GRAD.                     :  Horizontal Stress Gradient (Max)
SHMIN_GRAD.                     :  Horizontal Stress Gradient (Min)
STRESS_CUM.PSI                  :  Cumulative stress (SHPZ)
UCS_BF.PSI                  :  Uniaxial Compressive Strength (BF)
UCS_LAL.PSI                  :  Uniaxial Compressive Strength (lal)
VP   .FT/S                 :  Compressional velocity
VPVS .                     :  Vp / Vs ratio
VS   .FT/S                 :  Shear velocity
YM   .                     :  Youngs' Modulus
YM_STAT.                     :  Youngs' Modulus (Static)
~Parameter Information Block
#MNEM.UNIT            Value   Description
#---------- ----------------  -----------
PROJECT.          RDG_13Jul21:  
SET  .              GEOMECH:  
~Other Information Block
~Ascii Log Data
# ...
    3310.00960 
       41.6998        63.7011        38.0955        89.3067      1292.2292 
       61.2761       111.8742     13029.4053      7136.5083        25.9243 
       25.9243        67.9059        19.4433    0.000548203       0.285713 
     -999.2500     10733.9844      5258.5747     10916.1016      7091.6348 
      0.257142      2052.8796         2.4914         1.6185     11489.0283 
     3207.7891      5764.1001     16319.5771         1.8257      8938.6113 
        7.2515         4.8278
    3310.16200 
       41.5706        62.7691        37.5666        87.9715      1286.3770 
       61.6468       112.8445     12990.8242      7096.8701        25.8923 
       25.8923        68.0304        19.1691    0.000542130       0.287300 
     -999.2500     10734.5752      5258.6382     10915.9912      7106.2534 
      0.258570      2130.2246         2.4912         1.6218     11672.9561 
     3159.0269      5720.7168     16221.4414         1.8305      8861.7529 
        7.1580         4.7460
    3310.31440 
       41.9629        63.5926        35.9257        91.2595      1304.2249 
       60.5255       111.7089     13332.4688      7223.7251        27.7207 
       27.7207        73.3903        19.7101    0.000561685       0.292223 
     -999.2500     10735.1660      5258.7017     10914.3213      7152.0674 
      0.263001      2234.7612         2.4907         1.6321     11973.6572 
     3279.6614      5853.5693     16521.9629         1.8457      8951.8379 
        7.3882         4.9484
    3310.46680 
       42.3306        64.0582        33.9220        94.1945      1321.1578 
       59.4867       110.9410     13687.8135      7339.4219        29.8053 
       29.8053        79.6220        20.1644    0.000579821       0.298234 
     -999.2500     10735.7588      5258.7646     10912.1152      7208.6294 
      0.268411      2281.9746         2.4901         1.6450     12181.2080 
     3388.9072      5981.1162     16810.4805         1.8650      9013.7998 
        7.5936         5.1317
    3310.61920 
       42.7329        65.0109        32.4469        97.5749      1339.9103 
       58.3639       109.7131     14021.3877      7458.9351        31.7812 
       31.7812        85.3279        20.7221    0.000598858       0.302659 
     -999.2500     10736.3496      5258.8281     10910.6182      7250.9878 
      0.272393      2301.4019         2.4896         1.6545     12304.7793 
     3516.5564      6124.0830     17133.8789         1.8798      9114.6816 
        7.8302         5.3459
    3310.77160 
       42.9024        66.7936        33.0304       100.5568      1347.8887 
       57.8948       108.4877     14208.5420      7582.4326        32.1978 
       32.1978        86.8961        21.3031    0.000618853       0.300909 
     -999.2500     10736.9404      5258.8916     10912.0420      7234.9170 
      0.270818      2331.1189         2.4898         1.6508     12332.0723 
     3630.7854      6185.4561     17272.7090         1.8739      9217.6348 
        8.0390         5.5376
    3310.92400 
       42.9185        67.7930        33.6816       101.9044      1348.6483 
       57.8504       108.0271     14285.8516      7650.3232        32.0978 
       32.0978        87.0307        21.5855    0.000629984       0.298955 
     -999.2500     10737.5322      5258.9546     10913.5654      7216.8545 
      0.269060      2398.5461         2.4900         1.6466     12430.8018 
     3682.9043      6191.3164     17285.9648         1.8674      9256.9365 
        8.1333         5.6250
    3311.07640 
       42.8951        68.2903        33.9711       102.6095      1347.5415 
       57.9151       107.9819     14354.0752      7698.6763        32.0817 
       32.0817        87.5003        21.7310    0.000637973       0.298087 
     -999.2500     10738.1240      5259.0176     10914.5801      7209.0054 
      0.268278      2494.8682         2.4901         1.6447     12607.7471 
     3710.2993      6182.7793     17266.6543         1.8645      9260.8115 
        8.1827         5.6710
    3311.22880 
       42.8488        68.9233        34.6282       103.2183      1345.3622 
       58.0428       107.8467     14382.9053      7740.8403        31.7741 
       31.7741        87.0267        21.8774    0.000644980       0.296115 
     -999.2500     10738.7158      5259.0806     10916.1094      7190.8364 
      0.266504      2589.3914         2.4904         1.6405     12760.4561 
     3734.0234      6165.9854     17228.6660         1.8581      9272.4209 
        8.2253         5.7108
    3311.38120 
       42.9797        67.9706        32.7623       103.1788      1351.5399 
       57.6818       108.2452     14512.5010      7733.4346        33.1343 
       33.1343        91.0007        21.7760    0.000643747       0.301713 
     -999.2500     10739.3066      5259.1440     10914.0820      7243.8022 
      0.271542      2661.2207         2.4898         1.6525     13010.0459 
     3732.4836      6213.6523     17336.4902         1.8766      9238.2842 
        8.2225         5.7082
    3311.53360 
       43.2564        66.7570        29.8350       103.6790      1364.6837 
       56.9237       108.5804     14760.4160      7738.2056        35.5908 
       35.5908        98.1102        21.7222    0.000644541       0.310495 
     -999.2500     10739.8984      5259.2070     10910.4785      7328.3047 
      0.279445      2720.7935         2.4888         1.6717     13298.1963 
     3752.0154      6315.7207     17567.3750         1.9075      9209.7656 
        8.2575         5.7410
    3311.68600 
       43.5470        66.4089        27.9415       104.8763      1378.6205 
       56.1344       108.2679     14968.1006      7760.6133        37.5782 
       37.5782       103.5898        21.8480    0.000648279       0.316175 
     -999.2500     10740.4902      5259.2700     10908.3076      7384.1406 
      0.284558      2793.1025         2.4882         1.6843     13554.4863 
     3798.9502      6424.9189     17814.3887         1.9287      9236.3486 
        8.3413         5.8198
    3311.83840 
       43.6896        66.8808        27.7252       106.0364      1385.5072 
       55.7498       107.6653     15041.7393      7788.7114        38.1378 
       38.1378       104.9258        22.0498    0.000652982       0.316824 
     -999.2500     10741.0811      5259.3330     10908.5898      7390.9072 
      0.285142      2873.3511         2.4882         1.6858     13728.5166 
     3844.6584      6479.2476     17937.2832         1.9312      9288.0439 
        8.4226         5.8965
    3311.99080 
       43.6123        67.5620        28.9389       106.1850      1381.7677 
       55.9582       107.2942     14942.2891      7792.9990        37.1130 
       37.1130       101.8103        22.1383    0.000653701       0.313183 
     -999.2500     10741.6738      5259.3960     10910.9824      7355.4883 
      0.281865      2919.7852         2.4886         1.6776     13750.5469 
     3850.5291      6449.7168     17870.4824         1.9174      9320.1689 
        8.4330         5.9063
    3312.14320 
       43.3033        68.6549        31.7690       105.5407      1366.9243 
       56.7958       107.1632     14702.5166      7792.2383        34.5761 
       34.5761        94.7260        22.1632    0.000653574       0.304693 
     -999.2500     10742.2646      5259.4590     10915.6934      7273.6895 
      0.274224      2946.2368         2.4895         1.6589     13639.8525 
     3825.0999      6333.2095     17606.9355         1.8868      9331.5615 
        8.3879         5.8636
    3312.29560 
       42.9890        68.9730        33.7448       104.2012      1351.9766 
       57.6564       107.6287     14511.7744      7773.9180        32.6855 
       32.6855        89.7240        22.0154    0.000650504       0.298766 
     -999.2500     10742.8555      5259.5220     10919.1191      7217.5874 
      0.268889      2944.8870         2.4902         1.6460     13524.9492 
     3772.4568      6217.0288     17344.1289         1.8667      9291.2021 
        8.2941         5.7753
