~Version Information Block
VERS .                  2.0:  CWLS LOG ASCII STANDARD - VERSION 2.0
WRAP .                  YES:  Multiple lines per depth step
~Well Information Block
#MNEM.UNIT        Data Type   Information
#---------- ----------------  -----------
STRT .M          2676.97280:  START DEPTH
STOP .M          3838.10840:  STOP DEPTH
STEP .M             0.15240:  STEP
NULL .              -999.25:  NULL VALUE
COMP .                     :  COMPANY
WELL .      RAAG-107-07-210:  WELL
FLD  .                     :  FIELD
LOC  .                     :  LOCATION
CTRY .                     :  COUNTRY
STAT .                     :  STATE
CNTY .                     :  COUNTY
SRVC .                     :  SERVICE COMPANY
DATE .                     :  DATE
API  .                     :  API NUMBER
UWI  .                     :  UNIQUE WELL ID
~Curve Information Block
#MNEM.UNIT         API CODE   Curve Description
#---------- ----------------  -----------------
DEPTH.M                    :  
ANGLE_FAIL.DEG                  :  Fail Angle
BRIT_IND.                     :  Brittleness Index
BRIT_PR.                     :  Brittleness Index from Poisson's Ratio
BRIT_YM.                     :  Brittleness Index from Young's Modulus
CS   .M/MIN                 :  Compressive Strength
DTCO .US/F                 :  Compressional slowness
DTSM .US/F                 :  Fast Shear Slowness
IP   .RAYL/M2                 :  P Impedence
IS   .RAYL/M2                 :  S Impedance
KBULK.                     :  Bulk Mudulus
LAMBDA.                     :  Lambda
LAMRHO.                     :  
MU   .CP                   :  Mu
MURHO.(GF/C3S)2                 :  Mu*Rho
PR   .                     :  Poisson's ratio
PRESS_FG.PSI                  :  Fracture Gradient Pressure
PRESS_OB.PSI                  :  Over-burden Pressure
PRESS_PP.PSI                  :  Pore Pressure
PRESS_SHMAX.PSI                  :  Horizontal Stress (Max)
PRESS_SHMIN.PSI                  :  Horizontal Stress (Min)
PR_STAT.                     :  Poisson's ratio (Static)
PZS  .PSI                  :  Processed Zone Stress
SHMAX_GRAD.                     :  Horizontal Stress Gradient (Max)
SHMIN_GRAD.                     :  Horizontal Stress Gradient (Min)
STRESS_CUM.PSI                  :  Cumulative stress (SHPZ)
UCS_BF.PSI                  :  Uniaxial Compressive Strength (BF)
UCS_LAL.PSI                  :  Uniaxial Compressive Strength (lal)
VP   .FT/S                 :  Compressional velocity
VPVS .                     :  Vp / Vs ratio
VS   .FT/S                 :  Shear velocity
YM   .                     :  Youngs' Modulus
YM_STAT.                     :  Youngs' Modulus (Static)
~Parameter Information Block
#MNEM.UNIT            Value   Description
#---------- ----------------  -----------
PROJECT.          RDG_13Jul21:  
SET  .              GEOMECH:  
~Other Information Block
~Ascii Log Data
# ...
    2991.52640 
       38.5377        56.9688        46.7706        67.1671      1155.2402 
       70.7940       124.2557     11164.8105      6361.0894        16.8619 
       16.8619        43.7261        15.6038    0.000435545       0.259688 
     -999.2500      9164.4678      5017.7114      9311.8232      6217.3638 
      0.233720      1358.1979         2.4518         1.6371      8351.1230 
     2438.6072      4794.1494     14125.4912         1.7552      8047.9204 
        5.7017         3.5371
    2991.67880 
       38.7075        51.4041        38.4685        64.3397      1162.2842 
       70.2588       128.0408     11307.4570      6204.6494        19.5143 
       19.5143        50.8632        14.7701    0.000414386       0.284594 
     -999.2500      9165.0381      5017.8262      9304.0615      6384.5815 
      0.256135      1502.3187         2.4497         1.6810      8973.8008 
     2346.4148      4841.7178     14233.0928         1.8224      7810.0107 
        5.5038         3.3824
    2991.83120 
       38.0633        44.4775        32.1382        56.8168      1135.7397 
       72.3038       136.1470     11070.6387      5879.3013        20.3441 
       20.3441        53.4267        13.1623    0.000372067       0.303585 
     -999.2500      9165.6084      5017.9409      9297.9541      6518.7095 
      0.273227      1663.8829         2.4479         1.7162      9565.1846 
     2107.7844      4663.7554     13830.5313         1.8830      7345.0020 
        4.9772         2.9820
    2991.98360 
       36.4492        37.5825        29.0647        46.1003      1071.2338 
       77.6078       148.6959     10375.3057      5415.1099        18.5484 
       18.5484        49.0001        11.1000    0.000315635       0.312806 
     -999.2500      9166.1797      5018.0557      9295.1982      6585.8057 
      0.281525      1860.3134         2.4471         1.7338     10092.2383 
     1784.5752      4245.8931     12885.3027         1.9160      6725.1348 
        4.2270         2.4396
    2992.13600 
       34.3603        30.7901        26.6026        34.9777       991.6174 
       84.8715       165.0254      9479.8018      4875.4009        16.0353 
       16.0353        42.3276         9.0048    0.000255853       0.320192 
     -999.2500      9166.7500      5018.1704      9293.0566      6640.6177 
      0.288173      2092.2566         2.4464         1.7481     10665.7480 
     1469.8988      3758.3799     11782.5186         1.9444      6059.6729 
        3.4484         1.9116
    2992.28840 
       32.8131        24.9140        22.8321        26.9959       935.1727 
       90.5564       180.3738      8818.8867      4427.5088        14.7197 
       14.7197        38.5671         7.4817    0.000211003       0.331504 
     -999.2500      9167.3193      5018.2852      9289.3330      6727.0596 
      0.298353      2314.3706         2.4452         1.7708     11282.8604 
     1257.1268      3431.3875     11042.8428         1.9918      5544.0425 
        2.8897         1.5546
    2992.44080 
       32.1833        21.2555        19.3759        23.1351       912.7626 
       92.9476       189.6223      8541.1250      4186.6230        14.5494 
       14.5494        37.8952         6.7296    0.000188668       0.341872 
     -999.2500      9167.8906      5018.3994      9285.8447      6808.7998 
      0.307685      2467.1675         2.4442         1.7922     11751.9346 
     1158.1234      3305.7974     10758.7500         2.0401      5273.6411 
        2.6195         1.3884
    2992.59320 
       31.8322        19.4890        17.6275        21.3504       900.3998 
       94.3010       194.8745      8434.3418      4081.4312        14.4941 
       14.4941        37.8220         6.3837    0.000179306       0.347118 
     -999.2500      9168.4609      5018.5142      9284.3252      6851.1689 
      0.312406      2605.5447         2.4436         1.8032     12113.4277 
     1113.2194      3237.5371     10604.3408         2.0665      5131.5078 
        2.4945         1.3131
    2992.74560 
       31.0658        17.5558        16.3171        18.7945       873.7437 
       97.3049       203.1040      8218.1064      3937.2046        13.9254 
       13.9254        36.5341         5.9086    0.000166858       0.351049 
     -999.2500      9169.0303      5018.6289      9283.3164      6883.3174 
      0.315944      2752.3445         2.4432         1.8116     12471.3232 
     1049.8594      3092.8164     10276.9746         2.0873      4923.5859 
        2.3156         1.2068
    2992.89800 
       29.9225        13.9875        13.3494        14.6256       834.7632 
      101.9176       217.8797      7839.7319      3667.1919        13.1856 
       13.1856        34.5648         5.1302    0.000144756       0.359952 
     -999.2500      9169.6016      5018.7437      9280.2275      6957.0728 
      0.323957      2868.0547         2.4423         1.8309     12850.2549 
      948.9146      2887.1956      9811.8477         2.1378      4589.6890 
        2.0238         1.0374
    2993.05040 
       29.0229        10.2537         9.6380        10.8693       804.7150 
      105.6611       233.3784      7487.5229      3389.9448        12.7445 
       12.7445        33.0795         4.4274    0.000123696       0.371086 
     -999.2500      9170.1719      5018.8579      9276.0889      7051.8281 
      0.333977      2884.6084         2.4411         1.8557     13072.8730 
      860.5061      2733.5183      9464.2207         2.2087      4284.8867 
        1.7609         0.8890
    2993.20280 
       28.7529         8.3116         7.4751         9.1481       795.7987 
      106.8047       240.8233      7313.1880      3243.3857        12.6604 
       12.6604        32.4436         4.1050    0.000113231       0.377575 
     -999.2500      9170.7412      5018.9727      9273.8506      7108.5566 
      0.339817      2837.9304         2.4403         1.8706     13092.9746 
      820.8031      2688.7197      9362.8838         2.2548      4152.4219 
        1.6404         0.8224
    2993.35520 
       29.0610         8.3328         7.2011         9.4645       805.9759 
      105.5006       238.5278      7356.7993      3253.9048        12.9385 
       12.9385        32.9467         4.1580    0.000113967       0.378397 
     -999.2500      9171.3125      5019.0874      9274.0703      7116.1509 
      0.340557      2852.7708         2.4402         1.8724     13137.8438 
      828.0638      2739.8833      9478.6191         2.2609      4192.3833 
        1.6625         0.8346
    2993.50760 
       29.6302         9.9296         8.5623        11.2968       824.9396 
      103.1230       230.0854      7565.7686      3390.9355        13.3780 
       13.3780        34.2440         4.4921    0.000123768       0.374313 
     -999.2500      9171.8828      5019.2017      9276.4346      7080.8545 
      0.336882      2928.2168         2.4407         1.8631     13218.1426 
      870.4471      2836.4939      9697.1572         2.2312      4346.2119 
        1.7908         0.9057
    2993.66000 
       30.0496        12.7113        11.5816        13.8411       839.0518 
      101.3969       220.0738      7790.9624      3589.6111        13.4766 
       13.4766        34.9285         4.9716    0.000138696       0.365255 
     -999.2500      9172.4531      5019.3164      9280.9043      7003.4346 
      0.328730      3009.5811         2.4418         1.8426     13226.0313 
      930.2509      2909.4705      9862.2354         2.1704      4543.9302 
        1.9689         1.0061
    2993.81240 
       30.4314        16.0285        15.3570        16.7000       852.0012 
       99.8447       209.9825      8001.6509      3804.7097        13.3815 
       13.3815        35.0748         5.5227    0.000155816       0.353929 
     -999.2500      9173.0244      5019.4307      9286.2188      6909.1221 
      0.318536      3041.8892         2.4430         1.8177     13102.0225 
      998.7727      2977.2488     10015.5537         2.1031      4762.3018 
        2.1690         1.1211
