~Version Information Block
VERS .                  2.0:  CWLS LOG ASCII STANDARD - VERSION 2.0
WRAP .                  YES:  Multiple lines per depth step
~Well Information Block
#MNEM.UNIT        Data Type   Information
#---------- ----------------  -----------
STRT .M          2945.58720:  START DEPTH
STOP .M          3894.88680:  STOP DEPTH
STEP .M             0.15240:  STEP
NULL .              -999.25:  NULL VALUE
COMP .                     :  COMPANY
WELL .       RAAG-97-02-106:  WELL
FLD  .                     :  FIELD
LOC  .                     :  LOCATION
CTRY .                     :  COUNTRY
STAT .                     :  STATE
CNTY .                     :  COUNTY
SRVC .                     :  SERVICE COMPANY
DATE .                     :  DATE
API  .                     :  API NUMBER
UWI  .                     :  UNIQUE WELL ID
~Curve Information Block
#MNEM.UNIT         API CODE   Curve Description
#---------- ----------------  -----------------
DEPTH.M                    :  
ANGLE_FAIL.DEG                  :  Fail Angle
BRIT_IND.                     :  Brittleness Index
BRIT_PR.                     :  Brittleness Index from Poisson's Ratio
BRIT_YM.                     :  Brittleness Index from Young's Modulus
CS   .M/MIN                 :  Compressive Strength
DEN  .G/C3                 :  (HDRS-H)                (2in)                   Standard Resolution Formation Density
DTCO .US/F                 :  Compressional slowness
DTSM .US/F                 :  Description
IP   .RAYL/M2                 :  P Impedence
IS   .RAYL/M2                 :  S Impedance
KBULK.                     :  Bulk Mudulus
LAMBDA.                     :  Lambda
LAMRHO.                     :  
MU   .CP                   :  Mu
MURHO.(GF/C3S)2                 :  Mu*Rho
PR   .                     :  Poisson's ratio
PRESS_FG.PSI                  :  Fracture Gradient Pressure
PRESS_OB.PSI                  :  Over-burden Pressure
PRESS_PP.PSI                  :  Pore Pressure
PRESS_SHMAX.PSI                  :  Horizontal Stress (Max)
PRESS_SHMIN.PSI                  :  Horizontal Stress (Min)
PR_STAT.                     :  Poisson's ratio (Static)
PZS  .PSI                  :  Processed Zone Stress
SHMAX_GRAD.                     :  Horizontal Stress Gradient (Max)
SHMIN_GRAD.                     :  Horizontal Stress Gradient (Min)
STRESS_CUM.PSI                  :  Cumulative stress (SHPZ)
UCS_BF.PSI                  :  Uniaxial Compressive Strength (BF)
UCS_LAL.PSI                  :  Uniaxial Compressive Strength (lal)
VP   .FT/S                 :  Compressional velocity
VPVS .                     :  Vp / Vs ratio
VS   .FT/S                 :  Shear velocity
YM   .                     :  Youngs' Modulus
YM_STAT.                     :  Youngs' Modulus (Static)
~Parameter Information Block
#MNEM.UNIT            Value   Description
#---------- ----------------  -----------
PROJECT.          RDG_13Jul21:  
SET  .              GEOMECH:  
~Other Information Block
~Ascii Log Data
# ...
    3045.56160 
       30.0656        12.6548        11.8901        13.4195       839.5905 
        2.5377       101.3317       219.3406      7633.2002      3526.4121 
       13.1595        13.1595        33.3946         4.9004         0.0001 
      0.364330      -999.2500      9228.4033      5030.4492      9338.4014 
     7028.4380       0.327897      3034.9861         2.4433         1.8390 
    13326.8477       920.2637      2912.2739      9868.5762         2.1646 
     4559.1191         1.9394         0.9893
    3045.71400 
       30.1587        12.8921        12.0482        13.7361       842.7420 
        2.5414       100.9515       218.2180      7673.0605      3549.6931 
       13.2509        13.2509        33.6752         4.9581         0.0001 
      0.363855      -999.2500      9228.9795      5030.5630      9339.1914 
     7024.7339       0.327470      3075.6340         2.4434         1.8379 
    13400.7363       927.7609      2928.7056      9905.7461         2.1616 
     4582.5732         1.9615         1.0019
    3045.86640 
       30.0589        12.1195        11.1285        13.1104       839.3635 
        2.5403       101.3592       220.8731      7639.0161      3505.5630 
       13.2963        13.2963        33.7766         4.8376         0.0001 
      0.366614      -999.2500      9229.5557      5030.6768      9338.5977 
     7048.7314       0.329953      3079.2891         2.4431         1.8441 
    13456.0410       912.9617      2911.0923      9865.9033         2.1791 
     4527.4868         1.9177         0.9771
    3046.01880 
       29.7812        11.0984        10.0466        12.1503       830.0060 
        2.5500       102.4991       225.5453      7582.9717      3446.0842 
       13.2353        13.2353        33.7505         4.6570         0.0001 
      0.369860      -999.2500      9230.1318      5030.7900      9337.7822 
     7077.1226       0.332874      3069.0483         2.4428         1.8514 
    13492.3418       890.3848      2862.5864      9756.1807         2.2005 
     4433.6997         1.8505         0.9392
    3046.17120 
       29.4502        10.5049         9.6512        11.3585       818.9216 
        2.5566       103.8702       229.3948      7502.1455      3396.9800 
       12.9873        12.9873        33.2032         4.5136         0.0001 
      0.371046      -999.2500      9230.7080      5030.9038      9337.8555 
     7087.7520       0.333942      2983.2241         2.4426         1.8541 
    13341.9521       871.8832      2805.6553      9627.3984         2.2085 
     4359.2969         1.7951         0.9081
    3046.32360 
       29.2974        10.5245         9.8467        11.2022       813.8282 
        2.5641       104.5079       230.3874      7478.3950      3392.3364 
       12.8349        12.8349        32.9105         4.4880         0.0001 
      0.370460      -999.2500      9231.2842      5031.0176      9338.7002 
     7082.9731       0.333414      2725.1350         2.4427         1.8527 
    12816.2158       868.2439      2779.6851      9568.6533         2.2045 
     4340.5156         1.7842         0.9020
    3046.47600 
       29.3953        11.5123        11.1002        11.9243       817.0901 
        2.5646       104.0990       226.9005      7509.1665      3445.1067 
       12.7309        12.7309        32.6501         4.6279         0.0001 
      0.366700      -999.2500      9231.8604      5031.1309      9340.9160 
     7050.7563       0.330030      2453.9539         2.4432         1.8442 
    12209.4209       885.0939      2796.3027      9606.2432         2.1797 
     4407.2183         1.8347         0.9303
    3046.62840 
       29.7422        12.7388        12.3261        13.1515       828.6969 
        2.5625       102.6599       221.3795      7608.2119      3528.1416 
       12.8737        12.8737        32.9893         4.8576         0.0001 
      0.363022      -999.2500      9232.4365      5031.2441      9343.0781 
     7019.5957       0.326720      2590.5576         2.4436         1.8359 
    12420.3076       913.9309      2855.8333      9740.9043         2.1564 
     4517.1309         1.9206         0.9787
    3046.78080 
       30.2368        13.2110        12.2310        14.1909       845.3876 
        2.5593       100.6337       217.1878      7751.6597      3591.7224 
       13.3971        13.3971        34.2873         5.0406         0.0001 
      0.363307      -999.2500      9233.0137      5031.3579      9343.5420 
     7022.4321       0.326976      2854.8323         2.4436         1.8366 
    12954.5293       938.5602      2942.5352      9937.0293         2.1582 
     4604.3105         1.9934         1.0200
    3046.93320 
       30.7358        13.8266        12.2643        15.3888       862.3960 
        2.5600        98.6202       212.7811      7912.1484      3667.1375 
       13.9476        13.9476        35.7063         5.2530         0.0001 
      0.363207      -999.2500      9233.5889      5031.4712      9344.1689 
     7021.9854       0.326886      3001.8569         2.4436         1.8363 
    13247.6846       967.1718      3032.2239     10139.9111         2.1576 
     4699.6650         2.0772         1.0680
    3047.08560 
       30.9623        14.3777        12.5990        16.1564       870.1770 
        2.5655        97.7159       210.2262      8002.2749      3719.5642 
       14.1753        14.1753        36.3661         5.3929         0.0001 
      0.362203      -999.2500      9234.1650      5031.5850      9345.1836 
     7013.7959       0.325983      3033.6685         2.4437         1.8341 
    13294.9277       985.6354      3073.7065     10233.7471         2.1514 
     4756.7822         2.1309         1.0990
    3047.23800 
       30.9195        15.0066        13.4876        16.5256       868.7026 
        2.5719        97.8865       209.0206      8008.4180      3750.4238 
       13.9987        13.9987        36.0034         5.4690         0.0002 
      0.359537      -999.2500      9234.7412      5031.6982      9346.9033 
     6991.5005       0.323584      3024.8850         2.4440         1.8281 
    13232.7705       994.5518      3065.8247     10215.9180         2.1353 
     4784.2188         2.1568         1.1140
    3047.39040 
       30.7715        15.1458        13.9042        16.3873       863.6198 
        2.5759        98.4773       209.5569      7972.6831      3746.6111 
       13.7776        13.7776        35.4895         5.4494         0.0002 
      0.358287      -999.2500      9235.3184      5031.8115      9348.0205 
     6981.2578       0.322459      3064.7393         2.4442         1.8254 
    13291.9941       991.2083      3038.7295     10154.6260         2.1280 
     4771.9741         2.1471         1.1084
    3047.54280 
       30.6518        15.0446        13.9123        16.1770       859.5208 
        2.5829        98.9570       210.5638      7955.6812      3738.8691 
       13.6802        13.6802        35.3346         5.4122         0.0002 
      0.358263      -999.2500      9235.8936      5031.9248      9348.6201 
     6981.3740       0.322437      3079.2891         2.4442         1.8253 
    13321.3262       986.1317      3016.9673     10105.3994         2.1278 
     4749.1558         2.1324         1.0998
    3047.69520 
       30.6109        15.2843        14.2634        16.3052       858.1232 
        2.5894        99.1212       210.3062      7962.6133      3752.9280 
       13.6069        13.6069        35.2343         5.4392         0.0002 
      0.357210      -999.2500      9236.4697      5032.0386      9349.6514 
     6972.8345       0.321489      3079.2891         2.4443         1.8230 
    13304.2471       989.2267      3009.5652     10088.6553         2.1217 
     4754.9712         2.1414         1.1050
    3047.84760 
       30.7247        16.9269        16.3152        17.5386       862.0176 
        2.5950        98.6644       205.9448      8016.7578      3840.6843 
       13.3974        13.3974        34.7667         5.6842         0.0002 
      0.351054      -999.2500      9237.0469      5032.1514      9352.8076 
     6921.8345       0.315949      3079.2891         2.4450         1.8095 
    13202.2471      1019.1350      3030.2136     10135.3633         2.0873 
     4855.6704         2.2277         1.1552
