~Version Information Block
VERS .                  2.0:  CWLS LOG ASCII STANDARD - VERSION 2.0
WRAP .                   NO:  One line per depth step
~Well Information Block
#MNEM.UNIT        Data Type   Information
#---------- ----------------  -----------
STRT .M          2889.76360:  START DEPTH
STOP .M          3614.73040:  STOP DEPTH
STEP .M             0.15240:  STEP
NULL .              -999.25:  NULL VALUE
COMP .                     :  COMPANY
WELL .       RAAG-89-05-105:  WELL
FLD  .                     :  FIELD
LOC  .                     :  LOCATION
CTRY .                     :  COUNTRY
STAT .                     :  STATE
CNTY .                     :  COUNTY
SRVC .                     :  SERVICE COMPANY
DATE .                     :  DATE
API  .                     :  API NUMBER
UWI  .                     :  UNIQUE WELL ID
~Curve Information Block
#MNEM.UNIT         API CODE   Curve Description
#---------- ----------------  -----------------
DEPTH.M                    :  
PRESS_PP.PSI                  :  Pore Pressure
PZS  .PSI                  :  Processed Zone Stress
~Parameter Information Block
#MNEM.UNIT            Value   Description
#---------- ----------------  -----------
PROJECT.          RDG_13Jul21:  
SET  .              GEOMECH:  
~Other Information Block
# 
~A       DEPTH       PRESS_PP            PZS 
# ...
    3350.92600      5315.6211      2777.7639
    3351.07840      5315.6626      2829.1814
    3351.23080      5315.7041      2904.7925
    3351.38320      5315.7456      2952.1201
    3351.53560      5315.7871      2922.4688
    3351.68800      5315.8286      2855.1741
    3351.84040      5315.8701      2928.3799
    3351.99280      5315.9116      2741.0959
    3352.14520      5315.9531      2704.8167
    3352.29760      5315.9946      2704.8167
    3352.45000      5316.0356      2693.7312
    3352.60240      5316.0771      2743.9028
    3352.75480      5316.1182      2763.6147
    3352.90720      5316.1592      2940.2307
    3353.05960      5316.2007      3079.2959
    3353.21200      5316.2422      3079.2959
    3353.36440      5316.2832      3079.2959
    3353.51680      5316.3247      2811.9583
    3353.66920      5316.3657      2668.9221
    3353.82160      5316.4072      2590.2224
    3353.97400      5316.4478      2592.9050
    3354.12640      5316.4888      2881.3574
    3354.27880      5316.5303      2707.5935
    3354.43120      5316.5713      2497.7241
    3354.58360      5316.6123      2296.2009
    3354.73600      5316.6533      2184.0151
    3354.88840      5316.6943      2382.7004
    3355.04080      5316.7354      2523.8782
    3355.19320      5316.7764      2552.8999
    3355.34560      5316.8179      2552.8999
    3355.49800      5316.8584      2582.1882
    3355.65040      5316.8994      2663.4341
    3355.80280      5316.9399      2671.6697
    3355.95520      5316.9810      2746.7119
    3356.10760      5317.0220      2783.4397
    3356.26000      5317.0630      2724.3037
    3356.41240      5317.1035      2619.8523
    3356.56480      5317.1445      2735.4895
    3356.71720      5317.1855      2721.5129
    3356.86960      5317.2261      2674.4194
    3357.02200      5317.2666      2652.4846
    3357.17440      5317.3076      2595.5898
    3357.32680      5317.3486      2724.3037
    3357.47920      5317.3892      2849.3813
    3357.63160      5317.4297      2887.2019
    3357.78400      5317.4702      2829.1814
    3357.93640      5317.5107      2774.9294
    3358.08880      5317.5518      2679.9258
    3358.24120      5317.5923      2492.5195
    3358.39360      5317.6328      2405.3591
    3358.54600      5317.6733      2487.3235
    3358.69840      5317.7144      2625.2688
    3358.85080      5317.7549      2636.1282
    3359.00320      5317.7954      2619.8523
    3359.15560      5317.8359      2584.8640
    3359.30800      5317.8765      2563.5195
    3359.46040      5317.9160      2617.1477
    3359.61280      5317.9565      2598.2766
    3359.76520      5317.9976      2510.7739
    3359.91760      5318.0381      2415.4849
    3360.07000      5318.0786      2325.5701
    3360.22240      5318.1191      2170.0151
    3360.37480      5318.1592      2123.8660
    3360.52720      5318.1997      2174.6738
    3360.67960      5318.2397      2291.3352
    3360.83200      5318.2798      2451.1936
    3360.98440      5318.3203      2630.6938
    3361.13680      5318.3604      2738.2915
    3361.28920      5318.4009      2724.3037
    3361.44160      5318.4409      2606.3508
    3361.59400      5318.4810      2433.2869
    3361.74640      5318.5215      2291.3352
    3361.89880      5318.5615      2340.3669
    3362.05120      5318.6016      2407.8875
    3362.20360      5318.6416      2550.2507
    3362.35600      5318.6821      2715.9382
    3362.50840      5318.7222      2609.0466
    3362.66080      5318.7622      2537.0371
    3362.81320      5318.8022      2617.1477
    3362.96560      5318.8423      2674.4194
    3363.11800      5318.8823      2614.4451
    3363.27040      5318.9224      2510.7739
    3363.42280      5318.9624      2340.3669
    3363.57520      5319.0024      2281.6282
    3363.72760      5319.0420      2320.6545
    3363.88000      5319.0820      2456.3291
    3364.03240      5319.1221      2729.8918
    3364.18480      5319.1616      2774.9294
    3364.33720      5319.2017      2724.3037
    3364.48960      5319.2412      2649.7529
    3364.64200      5319.2808      2609.0466
    3364.79440      5319.3208      2674.4194
    3364.94680      5319.3604      2668.9221
    3365.09920      5319.4009      2630.6938
    3365.25160      5319.4404      2574.1741
    3365.40400      5319.4805      2531.7668
    3365.55640      5319.5200      2582.1882
    3365.70880      5319.5596      2474.3713
    3365.86120      5319.5991      2415.4849
    3366.01360      5319.6392      2362.7031
    3366.16600      5319.6787      2313.2966
    3366.31840      5319.7178      2357.7249
    3366.47080      5319.7573      2274.3696
    3366.62320      5319.7969      2264.7202
    3366.77560      5319.8364      2252.7043
    3366.92800      5319.8760      2250.3074
    3367.08040      5319.9155      2456.3291
    3367.23280      5319.9551      2542.3159
    3367.38520      5319.9941      2685.4412
    3367.53760      5320.0337      2794.8193
    3367.69000      5320.0737      2791.9709
    3367.84240      5320.1133      2682.6824
    3367.99480      5320.1528      2685.4412
    3368.14720      5320.1919      2693.7312
    3368.29960      5320.2314      2718.7244
    3368.45200      5320.2705      2732.6895
    3368.60440      5320.3101      2652.4846
    3368.75680      5320.3491      2466.6260
    3368.90920      5320.3887      2301.0752
    3369.06160      5320.4277      2247.9124
    3369.21400      5320.4673      2310.8481
    3369.36640      5320.5063      2357.7249
    3369.51880      5320.5454      2568.8423
    3369.67120      5320.5845      2508.1597
    3369.82360      5320.6240      2395.2676
    3369.97600      5320.6631      2315.7473
    3370.12840      5320.7021      2051.6631
    3370.28080      5320.7412      1974.9536
    3370.43320      5320.7803      1879.7168
    3370.58560      5320.8193      1890.1134
    3370.73800      5320.8584      2036.1337
    3370.89040      5320.8975      2174.6738
    3371.04280      5320.9365      2325.5701
    3371.19520      5320.9756      2390.2344
    3371.34760      5321.0142      2446.0667
    3371.50000      5321.0532      2523.8782
    3371.65240      5321.0923      2537.0371
    3371.80480      5321.1313      2487.3235
    3371.95720      5321.1699      2603.6572
    3372.10960      5321.2090      2786.2810
    3372.26200      5321.2476      2858.0740
    3372.41440      5321.2866      2560.8613
    3372.56680      5321.3252      2271.9541
    3372.71920      5321.3643      2269.5408
    3372.87160      5321.4033      2390.2344
    3373.02400      5321.4424      2500.3298
    3373.17640      5321.4810      2523.8782
    3373.32880      5321.5195      2649.7529
    3373.48120      5321.5581      2904.7925
    3373.63360      5321.5972      3063.9302
    3373.78600      5321.6357      3045.5725
    3373.93840      5321.6743      3079.2959
    3374.09080      5321.7129      3079.2959
    3374.24320      5321.7515      2869.6968
    3374.39560      5321.7900      2840.7102
    3374.54800      5321.8286      3073.1423
    3374.70040      5321.8672      3079.2959
    3374.85280      5321.9058      2946.1707
    3375.00520      5321.9443      2655.2185
    3375.15760      5321.9824      2420.5605
    3375.31000      5322.0210      2291.3352
    3375.46240      5322.0601      2087.5149
    3375.61480      5322.0986      2047.2164
    3375.76720      5322.1367      2214.5967
    3375.91960      5322.1753      2372.6851
    3376.07200      5322.2134      2382.7004
    3376.22440      5322.2520      2347.7935
    3376.37680      5322.2900      2402.8330
    3376.52920      5322.3286      2372.6851
    3376.68160      5322.3667      2385.2097
    3376.83400      5322.4058      2476.9575
    3376.98640      5322.4438      2495.1206
    3377.13880      5322.4819      2516.0090
    3377.29120      5322.5200      2558.2053
    3377.44360      5322.5586      2633.4099
    3377.59600      5322.5967      2727.0967
    3377.74840      5322.6348      2760.7917
    3377.90080      5322.6729      2663.4341
