~Version Information Block
VERS .                  2.0:  CWLS LOG ASCII STANDARD - VERSION 2.0
WRAP .                   NO:  One line per depth step
~Well Information Block
#MNEM.UNIT        Data Type   Information
#---------- ----------------  -----------
STRT .M                0.00:  START DEPTH
STOP .M             3613.00:  STOP DEPTH
STEP .M                0.50:  STEP
NULL .              -999.25:  NULL VALUE
COMP .                     :  COMPANY
WELL .      RAAG-100-07-213:  WELL
FLD  .                     :  FIELD
LOC  .                     :  LOCATION
CTRY .                     :  COUNTRY
STAT .                     :  STATE
CNTY .                     :  COUNTY
SRVC .                     :  SERVICE COMPANY
DATE .                     :  DATE
API  .                     :  API NUMBER
UWI  .                     :  UNIQUE WELL ID
~Curve Information Block
#MNEM.UNIT         API CODE   Curve Description
#---------- ----------------  -----------------
DEPTH.M                    :  
OBG  .G/CC                 :  2.174+0.00008962*TVDSS
PP   .G/CC                 :  2.1087-0.00029524*TVDSS
~Parameter Information Block
#MNEM.UNIT            Value   Description
#---------- ----------------  -----------
PROJECT.          RDG_13Jul21:  
SET  .              GEOMECH:  
~Other Information Block
# 
~A       DEPTH            OBG             PP 
          0.00         2.1680         2.1284
          0.50         2.1681         2.1283
          1.00         2.1681         2.1281
          1.50         2.1681         2.1280
          2.00         2.1682         2.1278
          2.50         2.1682         2.1277
          3.00         2.1683         2.1275
          3.50         2.1683         2.1274
          4.00         2.1684         2.1272
          4.50         2.1684         2.1271
          5.00         2.1685         2.1269
          5.50         2.1685         2.1268
          6.00         2.1686         2.1267
          6.50         2.1686         2.1265
          7.00         2.1686         2.1264
          7.50         2.1687         2.1262
          8.00         2.1687         2.1261
          8.50         2.1688         2.1259
          9.00         2.1688         2.1258
          9.50         2.1689         2.1256
         10.00         2.1689         2.1255
         10.50         2.1690         2.1253
         11.00         2.1690         2.1252
         11.50         2.1690         2.1250
         12.00         2.1691         2.1249
         12.50         2.1691         2.1247
         13.00         2.1692         2.1246
         13.50         2.1692         2.1244
         14.00         2.1693         2.1243
         14.50         2.1693         2.1241
         15.00         2.1694         2.1240
         15.50         2.1694         2.1238
         16.00         2.1694         2.1237
         16.50         2.1695         2.1236
         17.00         2.1695         2.1234
         17.50         2.1696         2.1233
         18.00         2.1696         2.1231
         18.50         2.1697         2.1230
         19.00         2.1697         2.1228
         19.50         2.1698         2.1227
         20.00         2.1698         2.1225
         20.50         2.1699         2.1224
         21.00         2.1699         2.1222
         21.50         2.1699         2.1221
         22.00         2.1700         2.1219
         22.50         2.1700         2.1218
         23.00         2.1701         2.1216
         23.50         2.1701         2.1215
         24.00         2.1702         2.1213
         24.50         2.1702         2.1212
         25.00         2.1703         2.1210
         25.50         2.1703         2.1209
         26.00         2.1703         2.1207
         26.50         2.1704         2.1206
         27.00         2.1704         2.1205
         27.50         2.1705         2.1203
         28.00         2.1705         2.1202
         28.50         2.1706         2.1200
         29.00         2.1706         2.1199
         29.50         2.1707         2.1197
         30.00         2.1707         2.1196
         30.50         2.1707         2.1194
         31.00         2.1708         2.1193
         31.50         2.1708         2.1191
         32.00         2.1709         2.1190
         32.50         2.1709         2.1188
         33.00         2.1710         2.1187
         33.50         2.1710         2.1185
         34.00         2.1711         2.1184
         34.50         2.1711         2.1182
         35.00         2.1711         2.1181
         35.50         2.1712         2.1179
         36.00         2.1712         2.1178
         36.50         2.1713         2.1176
         37.00         2.1713         2.1175
         37.50         2.1714         2.1174
         38.00         2.1714         2.1172
         38.50         2.1715         2.1171
         39.00         2.1715         2.1169
         39.50         2.1716         2.1168
         40.00         2.1716         2.1166
         40.50         2.1716         2.1165
         41.00         2.1717         2.1163
         41.50         2.1717         2.1162
         42.00         2.1718         2.1160
         42.50         2.1718         2.1159
         43.00         2.1719         2.1157
         43.50         2.1719         2.1156
         44.00         2.1720         2.1154
         44.50         2.1720         2.1153
         45.00         2.1720         2.1151
         45.50         2.1721         2.1150
         46.00         2.1721         2.1148
         46.50         2.1722         2.1147
         47.00         2.1722         2.1145
         47.50         2.1723         2.1144
         48.00         2.1723         2.1143
         48.50         2.1724         2.1141
         49.00         2.1724         2.1140
         49.50         2.1724         2.1138
         50.00         2.1725         2.1137
         50.50         2.1725         2.1135
         51.00         2.1726         2.1134
         51.50         2.1726         2.1132
         52.00         2.1727         2.1131
         52.50         2.1727         2.1129
         53.00         2.1728         2.1128
         53.50         2.1728         2.1126
         54.00         2.1729         2.1125
         54.50         2.1729         2.1123
         55.00         2.1729         2.1122
         55.50         2.1730         2.1120
         56.00         2.1730         2.1119
         56.50         2.1731         2.1117
         57.00         2.1731         2.1116
         57.50         2.1732         2.1114
         58.00         2.1732         2.1113
         58.50         2.1733         2.1112
         59.00         2.1733         2.1110
         59.50         2.1733         2.1109
         60.00         2.1734         2.1107
         60.50         2.1734         2.1106
         61.00         2.1735         2.1104
         61.50         2.1735         2.1103
         62.00         2.1736         2.1101
         62.50         2.1736         2.1100
         63.00         2.1737         2.1098
         63.50         2.1737         2.1097
         64.00         2.1737         2.1095
         64.50         2.1738         2.1094
         65.00         2.1738         2.1092
         65.50         2.1739         2.1091
         66.00         2.1739         2.1089
         66.50         2.1740         2.1088
         67.00         2.1740         2.1086
         67.50         2.1741         2.1085
         68.00         2.1741         2.1083
         68.50         2.1742         2.1082
         69.00         2.1742         2.1081
         69.50         2.1742         2.1079
         70.00         2.1743         2.1078
         70.50         2.1743         2.1076
         71.00         2.1744         2.1075
         71.50         2.1744         2.1073
         72.00         2.1745         2.1072
         72.50         2.1745         2.1070
         73.00         2.1746         2.1069
         73.50         2.1746         2.1067
         74.00         2.1746         2.1066
         74.50         2.1747         2.1064
         75.00         2.1747         2.1063
         75.50         2.1748         2.1061
         76.00         2.1748         2.1060
         76.50         2.1749         2.1058
         77.00         2.1749         2.1057
         77.50         2.1750         2.1055
         78.00         2.1750         2.1054
         78.50         2.1750         2.1052
         79.00         2.1751         2.1051
         79.50         2.1751         2.1050
         80.00         2.1752         2.1048
         80.50         2.1752         2.1047
         81.00         2.1753         2.1045
         81.50         2.1753         2.1044
         82.00         2.1754         2.1042
         82.50         2.1754         2.1041
         83.00         2.1755         2.1039
         83.50         2.1755         2.1038
         84.00         2.1755         2.1036
         84.50         2.1756         2.1035
         85.00         2.1756         2.1033
         85.50         2.1757         2.1032
         86.00         2.1757         2.1030
         86.50         2.1758         2.1029
         87.00         2.1758         2.1027
         87.50         2.1759         2.1026
         88.00         2.1759         2.1024
         88.50         2.1759         2.1023
