~Version Information Block
VERS .                  2.0:  CWLS LOG ASCII STANDARD - VERSION 2.0
WRAP .                   NO:  One line per depth step
~Well Information Block
#MNEM.UNIT        Data Type   Information
#---------- ----------------  -----------
STRT .M          2889.76360:  START DEPTH
STOP .M          3614.73040:  STOP DEPTH
STEP .M             0.15240:  STEP
NULL .              -999.25:  NULL VALUE
COMP .                     :  COMPANY
WELL .       RAAG-89-05-105:  WELL
FLD  .                     :  FIELD
LOC  .                     :  LOCATION
CTRY .                     :  COUNTRY
STAT .                     :  STATE
CNTY .                     :  COUNTY
SRVC .                     :  SERVICE COMPANY
DATE .                     :  DATE
API  .                     :  API NUMBER
UWI  .                     :  UNIQUE WELL ID
~Curve Information Block
#MNEM.UNIT         API CODE   Curve Description
#---------- ----------------  -----------------
DEPTH.M                    :  
PRESS_PP.PSI                  :  Pore Pressure
PZS  .PSI                  :  Processed Zone Stress
~Parameter Information Block
#MNEM.UNIT            Value   Description
#---------- ----------------  -----------
PROJECT.          RDG_13Jul21:  
SET  .              GEOMECH:  
~Other Information Block
# 
~A       DEPTH       PRESS_PP            PZS 
# ...
    2944.01800      5138.3296      3079.2959
    2944.17040      5138.4214      3079.2959
    2944.32280      5138.5127      3079.2959
    2944.47520      5138.6040      3079.2959
    2944.62760      5138.6958      3079.2959
    2944.78000      5138.7871      3066.9985
    2944.93240      5138.8784      3021.2324
    2945.08480      5138.9702      3006.0989
    2945.23720      5139.0620      2973.0190
    2945.38960      5139.1528      2949.1443
    2945.54200      5139.2446      2946.1707
    2945.69440      5139.3359      2922.4688
    2945.84680      5139.4272      2946.1707
    2945.99920      5139.5186      2943.1995
    2946.15160      5139.6099      2955.0984
    2946.30400      5139.7007      2979.0117
    2946.45640      5139.7925      2907.7327
    2946.60880      5139.8838      2881.3574
    2946.76120      5139.9746      2800.5229
    2946.91360      5140.0659      2811.9583
    2947.06600      5140.1572      2928.3799
    2947.21840      5140.2480      2916.5671
    2947.37080      5140.3394      3033.3828
    2947.52320      5140.4307      2964.0479
    2947.67560      5140.5220      2890.1279
    2947.82800      5140.6128      2910.6750
    2947.98040      5140.7041      2946.1707
    2948.13280      5140.7944      2826.3049
    2948.28520      5140.8857      2755.1528
    2948.43760      5140.9766      2794.8193
    2948.59000      5141.0674      2925.4231
    2948.74240      5141.1582      2958.0791
    2948.89480      5141.2490      3051.6819
    2949.04720      5141.3403      2931.3391
    2949.19960      5141.4312      2887.2019
    2949.35200      5141.5220      2982.0117
    2949.50440      5141.6128      2866.7876
    2949.65680      5141.7036      2964.0479
    2949.80920      5141.7939      2890.1279
    2949.96160      5141.8848      2614.4451
    2950.11400      5141.9756      2310.8481
    2950.26640      5142.0669      2392.7500
    2950.41880      5142.1572      2342.8403
    2950.57120      5142.2480      2221.7021
    2950.72360      5142.3384      2065.0493
    2950.87600      5142.4292      1934.2830
    2951.02840      5142.5195      1957.7466
    2951.18080      5142.6104      1927.9230
    2951.33320      5142.7012      1826.3892
    2951.48560      5142.7915      1690.7117
    2951.63800      5142.8818      1590.2583
    2951.79040      5142.9727      1652.9319
    2951.94280      5143.0630      1768.3435
    2952.09520      5143.1533      1930.0411
    2952.24760      5143.2437      2096.5554
    2952.40000      5143.3340      2259.9077
    2952.55240      5143.4243      2469.2056
    2952.70480      5143.5146      2869.6968
    2952.85720      5143.6050      3042.5215
    2953.00960      5143.6953      3063.9302
    2953.16200      5143.7856      3006.0989
    2953.31440      5143.8760      2800.5229
    2953.46680      5143.9663      2587.5422
    2953.61920      5144.0562      2492.5195
    2953.77160      5144.1470      2433.2869
    2953.92400      5144.2368      2382.7004
    2954.07640      5144.3271      2380.1936
    2954.22880      5144.4175      2281.6282
    2954.38120      5144.5073      2271.9541
    2954.53360      5144.5972      2347.7935
    2954.68600      5144.6875      2469.2056
    2954.83840      5144.7773      2542.3159
    2954.99080      5144.8672      2582.1882
    2955.14320      5144.9575      2619.8523
    2955.29560      5145.0469      2614.4451
    2955.44800      5145.1372      2614.4451
    2955.60040      5145.2275      2837.8245
    2955.75280      5145.3169      3015.1716
    2955.90520      5145.4072      3073.1423
    2956.05760      5145.4971      3039.4727
    2956.21000      5145.5869      2991.0264
    2956.36240      5145.6768      3076.2180
    2956.51480      5145.7666      3079.2959
    2956.66720      5145.8564      3030.3416
    2956.81960      5145.9458      2961.0623
    2956.97200      5146.0356      2904.7925
    2957.12440      5146.1255      2913.6199
    2957.27680      5146.2153      2898.9194
    2957.42920      5146.3052      2916.5671
    2957.58160      5146.3945      2922.4688
    2957.73400      5146.4839      2904.7925
    2957.88640      5146.5732      2916.5671
    2958.03880      5146.6631      2952.1201
    2958.19120      5146.7529      2970.0261
    2958.34360      5146.8423      3006.0989
    2958.49600      5146.9321      3057.8013
    2958.64840      5147.0215      3079.2959
    2958.80080      5147.1108      3079.2959
    2958.95320      5147.2002      3012.1450
    2959.10560      5147.2900      2919.5168
    2959.25800      5147.3794      2826.3049
    2959.41040      5147.4683      2743.9028
    2959.56280      5147.5576      2786.2810
    2959.71520      5147.6475      2826.3049
    2959.86760      5147.7368      2884.2786
    2960.02000      5147.8262      2955.0984
    2960.17240      5147.9150      2988.0190
    2960.32480      5148.0044      3057.8013
    2960.47720      5148.0933      3079.2959
    2960.62960      5148.1826      3066.9985
    2960.78200      5148.2720      3036.4265
    2960.93440      5148.3613      3015.1716
    2961.08680      5148.4502      2817.6899
    2961.23920      5148.5396      2466.6260
    2961.39160      5148.6284      2098.8206
    2961.54400      5148.7178      1826.3892
    2961.69640      5148.8066      1768.3435
    2961.84880      5148.8955      1778.2445
    2962.00120      5148.9849      1723.3647
    2962.15360      5149.0737      1652.9319
    2962.30600      5149.1626      1623.1970
    2962.45840      5149.2520      1711.7830
    2962.61080      5149.3408      1900.5560
    2962.76320      5149.4297      2065.0493
    2962.91560      5149.5186      2080.7546
    2963.06800      5149.6074      1979.2743
    2963.22040      5149.6968      2051.6631
    2963.37280      5149.7852      2184.0151
    2963.52520      5149.8740      2163.0420
    2963.67760      5149.9629      2172.3435
    2963.83000      5150.0513      2279.2065
    2963.98240      5150.1406      2298.6370
    2964.13480      5150.2290      2318.1997
    2964.28720      5150.3179      2337.8955
    2964.43960      5150.4063      2350.2732
    2964.59200      5150.4946      2382.7004
    2964.74440      5150.5835      2534.4009
    2964.89680      5150.6724      2729.8918
    2965.04920      5150.7607      2869.6968
    2965.20160      5150.8496      2893.0559
    2965.35400      5150.9380      2786.2810
    2965.50640      5151.0269      2625.2688
    2965.65880      5151.1147      2568.8423
    2965.81120      5151.2031      2521.2529
    2965.96360      5151.2915      2544.9587
    2966.11600      5151.3804      2649.7529
    2966.26840      5151.4683      2729.8918
    2966.42080      5151.5571      2741.0959
    2966.57320      5151.6450      2752.3369
    2966.72560      5151.7334      2769.2673
    2966.87800      5151.8218      2789.1248
    2967.03040      5151.9102      2826.3049
    2967.18280      5151.9985      2752.3369
    2967.33520      5152.0864      2707.5935
    2967.48760      5152.1748      2715.9382
    2967.64000      5152.2627      2763.6147
    2967.79240      5152.3511      2797.6699
    2967.94480      5152.4390      2783.4397
    2968.09720      5152.5273      2724.3037
    2968.24960      5152.6152      2707.5935
    2968.40200      5152.7036      2763.6147
    2968.55440      5152.7920      2820.5593
    2968.70680      5152.8799      2780.6006
    2968.85920      5152.9678      2611.7449
    2969.01160      5153.0562      2510.7739
    2969.16400      5153.1440      2552.8999
    2969.31640      5153.2324      2666.1770
    2969.46880      5153.3198      2671.6697
    2969.62120      5153.4082      2560.8613
    2969.77360      5153.4956      2489.9204
    2969.92600      5153.5835      2568.8423
    2970.07840      5153.6714      2826.3049
    2970.23080      5153.7588      2928.3799
    2970.38320      5153.8467      3024.2664
    2970.53560      5153.9346      3012.1450
    2970.68800      5154.0225      2901.8547
    2970.84040      5154.1104      2907.7327
    2970.99280      5154.1978      2973.0190
