~Version Information Block
VERS .                  2.0:  CWLS LOG ASCII STANDARD - VERSION 2.0
WRAP .                  YES:  Multiple lines per depth step
~Well Information Block
#MNEM.UNIT        Data Type   Information
#---------- ----------------  -----------
STRT .M          2888.43720:  START DEPTH
STOP .M          3831.03120:  STOP DEPTH
STEP .M             0.15240:  STEP
NULL .              -999.25:  NULL VALUE
COMP .                     :  COMPANY
WELL .       RAAG-99-02-105:  WELL
FLD  .                     :  FIELD
LOC  .                     :  LOCATION
CTRY .                     :  COUNTRY
STAT .                     :  STATE
CNTY .                     :  COUNTY
SRVC .                     :  SERVICE COMPANY
DATE .                     :  DATE
API  .                     :  API NUMBER
UWI  .                     :  UNIQUE WELL ID
~Curve Information Block
#MNEM.UNIT         API CODE   Curve Description
#---------- ----------------  -----------------
DEPTH.M                    :  
ANGLE_FAIL.DEG                  :  Fail Angle
BRIT_IND.                     :  Brittleness Index
BRIT_PR.                     :  Brittleness Index from Poisson's Ratio
BRIT_YM.                     :  Brittleness Index from Young's Modulus
CS   .M/MIN                 :  Compressive Strength
DTCO .US/F                 :  Compressional slowness
DTSM .US/F                 :  Fast Shear Slowness
IP   .RAYL/M2                 :  P Impedence
IS   .RAYL/M2                 :  S Impedance
KBULK.                     :  Bulk Mudulus
LAMBDA.                     :  Lambda
LAMRHO.                     :  
MU   .CP                   :  Mu
MURHO.(GF/C3S)2                 :  Mu*Rho
PR   .                     :  Poisson's ratio
PRESS_FG.PSI                  :  Fracture Gradient Pressure
PRESS_OB.PSI                  :  Over-burden Pressure
PRESS_PP.PSI                  :  Pore Pressure
PRESS_SHMAX.PSI                  :  Horizontal Stress (Max)
PRESS_SHMIN.PSI                  :  Horizontal Stress (Min)
PR_STAT.                     :  Poisson's ratio (Static)
PZS  .PSI                  :  Processed Zone Stress
SHMAX_GRAD.                     :  Horizontal Stress Gradient (Max)
SHMIN_GRAD.                     :  Horizontal Stress Gradient (Min)
STRESS_CUM.PSI                  :  Cumulative stress (SHPZ)
UCS_BF.PSI                  :  Uniaxial Compressive Strength (BF)
UCS_LAL.PSI                  :  Uniaxial Compressive Strength (lal)
VP   .FT/S                 :  Compressional velocity
VPVS .                     :  Vp / Vs ratio
VS   .FT/S                 :  Shear velocity
YM   .                     :  Youngs' Modulus
YM_STAT.                     :  Youngs' Modulus (Static)
~Parameter Information Block
#MNEM.UNIT            Value   Description
#---------- ----------------  -----------
PROJECT.          RDG_13Jul21:  
SET  .              GEOMECH:  
~Other Information Block
~Ascii Log Data
# ...
    3507.79080 
       42.7164        78.6297        51.5107       105.7487      1339.1410 
       58.4094       100.5658     13211.8408      7673.5400        22.4291 
       22.4291        56.7863        23.2574    0.000633814       0.245468 
     -999.2500     11177.2529      5300.3789     11391.1924      6898.4634 
      0.220921      1712.6464         2.5071         1.5183     10422.2188 
     3833.3000      6118.1821     17120.5313         1.7217      9943.7383 
        8.4024         5.8774
    3507.94320 
       42.3531        76.7355        52.8809       100.5900      1322.1991 
       59.4236       101.7718     12770.2549      7456.4321        20.8391 
       20.8391        51.8826        22.3315    0.000598456       0.241357 
     -999.2500     11177.8496      5300.4277     11393.6465      6861.9019 
      0.217222      1312.3472         2.5075         1.5102      9548.4980 
     3632.0652      5989.0078     16828.3320         1.7126      9825.9053 
        8.0413         5.5397
    3508.09560 
       41.7047        72.8890        53.4408        92.3372      1292.4528 
       61.2620       104.6970     12184.0391      7129.3218        19.1093 
       19.1093        46.7963        20.7553    0.000547100       0.239677 
     -999.2500     11178.4453      5300.4761     11395.0332      6846.6836 
      0.215710      1037.3923         2.5077         1.5067      8968.1514 
     3319.6028      5765.7603     16323.3320         1.7090      9551.3721 
        7.4636         5.0154
    3508.24800 
       41.1493        70.7257        53.9427        87.5087      1267.4442 
       62.8667       107.2361     11906.2959      6980.0146        18.0470 
       18.0470        44.3187        19.8395    0.000524424       0.238172 
     -999.2500     11179.0400      5300.5249     11396.3262      6833.3315 
      0.214355       993.5458         2.5078         1.5037      8853.7549 
     3142.1948      5581.5654     15906.6729         1.7058      9325.2178 
        7.1256         4.7177
    3508.40040 
       41.0684        71.8646        54.1399        89.5892      1263.8379 
       63.1027       107.5590     12183.0254      7147.5356        18.3374 
       18.3374        46.2516        20.2546    0.000549899       0.237580 
     -999.2500     11179.6357      5300.5737     11397.1914      6828.5273 
      0.213822      1314.7119         2.5079         1.5026      9486.4785 
     3218.1475      5555.2666     15847.1826         1.7045      9297.2236 
        7.2712         4.8452
    3508.55280 
       41.6062        74.8908        52.1637        97.6178      1287.9857 
       61.5446       105.6953     12932.6768      7530.4810        20.6169 
       20.6169        53.8378        21.7161    0.000610401       0.243509 
     -999.2500     11180.2314      5300.6221     11395.1709      6881.4360 
      0.219158      1804.7860         2.5074         1.5142     10572.4443 
     3518.1909      5732.6250     16248.3789         1.7174      9461.1592 
        7.8332         5.3487
    3508.70520 
       42.6147        77.6990        47.4254       107.9727      1334.3793 
       58.6921       102.7323     13838.8477      7906.2866        24.9531 
       24.9531        66.4950        23.4574    0.000672845       0.257724 
     -999.2500     11180.8271      5300.6709     11389.3516      7010.3311 
      0.231951      2240.0437         2.5060         1.5425     11700.7490 
     3921.4592      6081.7271     17038.0684         1.7504      9734.0371 
        8.5581         6.0253
    3508.85760 
       43.6217        78.4709        40.9215       116.0202      1382.2224 
       55.9328       100.7493     14658.2764      8137.8081        30.6396 
       30.6396        82.4172        24.6196    0.000712828       0.277236 
     -999.2500     11181.4229      5300.7197     11380.8018      7193.8452 
      0.249512      2444.1870         2.5039         1.5828     12476.0645 
     4247.5410      6453.3042     17878.5977         1.8013      9925.6279 
        9.1214         6.5725
    3509.01000 
       44.3142        72.8405        30.6033       115.0778      1416.0668 
       54.0853       102.7158     15272.4326      8041.7437        38.3421 
       38.3421       103.9079        23.8632    0.000696098       0.308190 
     -999.2500     11182.0195      5300.7681     11366.0264      7501.8887 
      0.277371      2479.0015         2.5006         1.6505     13161.7803 
     4208.7803      6723.2856     18489.3125         1.8991      9735.6006 
        9.0554         6.5075
    3509.16240 
       44.5469        64.4979        21.7162       107.2796      1427.6178 
       53.4736       107.3152     15528.5918      7737.6704        44.5596 
       44.5596       121.3941        21.9768    0.000644452       0.334851 
     -999.2500     11182.6152      5300.8169     11352.4307      7786.2925 
      0.301366      2494.8403         2.4975         1.7129     13762.2656 
     3893.8953      6816.7871     18700.8184         2.0069      9318.3447 
        8.5096         5.9791
    3509.31480 
       44.6112        60.3293        17.3256       103.3331      1430.8271 
       53.3053       110.4073     15797.0762      7626.9224        48.2167 
       48.2167       133.2077        21.0555    0.000626136       0.348023 
     -999.2500     11183.2109      5300.8647     11345.6563      7934.2998 
      0.313221      2577.1243         2.4959         1.7454     14222.8477 
     3738.5024      6842.8882     18759.8594         2.0712      9057.3721 
        8.2333         5.7183
    3509.46720 
       44.6953        60.4912        16.3456       104.6369      1435.0317 
       53.0859       110.7815     16111.9541      7720.7617        50.0238 
       50.0238       140.3747        21.2426    0.000641638       0.350963 
     -999.2500     11183.8076      5300.9131     11344.5732      7968.4839 
      0.315867      2769.0254         2.4955         1.7529     14675.0186 
     3789.5432      6877.1641     18837.3945         2.0868      9026.7773 
        8.3246         5.8040
    3509.61960 
       44.8137        61.7954        16.4434       107.1474      1440.9778 
       52.7777       110.0549     16335.3477      7833.7451        50.9478 
       50.9478       144.1085        21.6958    0.000660555       0.350670 
     -999.2500     11184.4033      5300.9619     11345.3408      7965.6445 
      0.315603      2885.4053         2.4956         1.7521     14902.0996 
     3888.6458      6925.7935     18947.3965         2.0853      9086.3740 
        8.5003         5.9703
    3509.77200 
       44.7957        62.7833        17.6865       107.8801      1440.0719 
       52.8245       109.1143     16184.5859      7835.2939        49.6116 
       49.6116       139.1572        21.8871    0.000660816       0.346941 
     -999.2500     11184.9980      5301.0103     11348.0850      7923.2617 
      0.312247      2503.3643         2.4960         1.7427     14053.2520 
     3917.7749      6918.3726     18930.6094         2.0656      9164.7012 
        8.5516         6.0192
    3509.92440 
       44.3834        64.6665        22.0583       107.2748      1419.4907 
       53.9030       107.9256     15591.9990      7787.3604        44.1809 
       44.1809       121.8245        21.9928    0.000652756       0.333825 
     -999.2500     11185.5947      5301.0586     11356.0557      7776.3813 
      0.300443      2481.7126         2.4977         1.7104     13716.1885 
     3893.7046      6750.9292     18551.8418         2.0022      9265.6426 
        8.5092         5.9788
    3510.07680 
       43.6046        65.4751        27.4025       103.5477      1381.3972 
       55.9789       108.3177     14837.7568      7668.1958        37.6345 
       37.6345       102.5566        21.5779    0.000632931       0.317792 
     -999.2500     11186.1904      5301.1074     11365.3467      7603.0674 
      0.286013      2574.0667         2.4996         1.6722     13554.2686 
     3746.8860      6446.7949     17863.8730         1.9350      9232.1006 
        8.2483         5.7324
