~Version Information Block
VERS .                  2.0:  CWLS LOG ASCII STANDARD - VERSION 2.0
WRAP .                  YES:  Multiple lines per depth step
~Well Information Block
#MNEM.UNIT        Data Type   Information
#---------- ----------------  -----------
STRT .M          2556.50000:  START DEPTH
STOP .M          3600.74480:  STOP DEPTH
STEP .M             0.15240:  STEP
NULL .              -999.25:  NULL VALUE
COMP .                     :  COMPANY
WELL .      RAAG-100-07-213:  WELL
FLD  .                     :  FIELD
LOC  .                     :  LOCATION
CTRY .                     :  COUNTRY
STAT .                     :  STATE
CNTY .                     :  COUNTY
SRVC .                     :  SERVICE COMPANY
DATE .                     :  DATE
API  .                     :  API NUMBER
UWI  .                     :  UNIQUE WELL ID
~Curve Information Block
#MNEM.UNIT         API CODE   Curve Description
#---------- ----------------  -----------------
DEPTH.M                    :  
ANGLE_FAIL.DEG                  :  Fail Angle
BRIT_IND.                     :  Brittleness Index
BRIT_PR.                     :  Brittleness Index from Poisson's Ratio
BRIT_YM.                     :  Brittleness Index from Young's Modulus
CS   .M/MIN                 :  Compressive Strength
DTCO .US/F                 :  Compressional slowness
DTSM .US/F                 :  Description
IP   .RAYL/M2                 :  P Impedence
IS   .RAYL/M2                 :  S Impedance
KBULK.                     :  Bulk Mudulus
LAMBDA.                     :  Lambda
LAMRHO.                     :  
MU   .CP                   :  Mu
MURHO.(GF/C3S)2                 :  Mu*Rho
PR   .                     :  Poisson's ratio
PRESS_FG.PSI                  :  Fracture Gradient Pressure
PRESS_OB.PSI                  :  Over-burden Pressure
PRESS_PP.PSI                  :  Pore Pressure
PRESS_SHMAX.PSI                  :  Horizontal Stress (Max)
PRESS_SHMIN.PSI                  :  Horizontal Stress (Min)
PR_STAT.                     :  Poisson's ratio (Static)
PZS  .PSI                  :  Processed Zone Stress
SHMAX_GRAD.                     :  Horizontal Stress Gradient (Max)
SHMIN_GRAD.                     :  Horizontal Stress Gradient (Min)
STRESS_CUM.PSI                  :  Cumulative stress (SHPZ)
UCS_BF.PSI                  :  Uniaxial Compressive Strength (BF)
UCS_LAL.PSI                  :  Uniaxial Compressive Strength (lal)
VP   .FT/S                 :  Compressional velocity
VPVS .                     :  Vp / Vs ratio
VS   .FT/S                 :  Shear velocity
YM   .                     :  Youngs' Modulus
YM_STAT.                     :  Youngs' Modulus (Static)
~Parameter Information Block
#MNEM.UNIT            Value   Description
#---------- ----------------  -----------
PROJECT.          RDG_13Jul21:  
SET  .              GEOMECH:  
~Other Information Block
~Ascii Log Data
# ...
    2802.77840 
       36.4593        51.1980        50.5671        51.8288      1071.6289 
       77.5738       134.0587      9714.6133      5621.4150        12.6082 
       12.6082        31.1731        12.7810    0.000340143       0.248299 
     -999.2500      9342.2266      5052.4966      9498.4121      6218.5269 
      0.223469      2300.9573         2.4577         1.6090     10238.9688 
     1954.9026      4248.3901     12890.9502         1.7281      7459.4204 
        4.6280         2.7254
    2802.93080 
       36.8845        49.2676        46.1261        52.4090      1088.3602 
       76.1515       134.0246      9872.4629      5609.4375        14.0009 
       14.0009        34.5339        12.7570    0.000338695       0.261622 
     -999.2500      9342.8037      5052.6060      9494.5664      6307.5542 
      0.235460      2336.4673         2.4565         1.6320     10488.0430 
     1972.4674      4354.8271     13131.7178         1.7600      7461.3154 
        4.6686         2.7549
    2803.08320 
       37.0098        48.5062        44.8551        52.1574      1093.3271 
       75.7358       134.0246      9859.3965      5571.4336        14.3381 
       14.3381        35.1260        12.6706    0.000334121       0.265435 
     -999.2500      9343.3809      5052.7158      9493.8652      6333.7056 
      0.238891      2366.4536         2.4562         1.6386     10600.3184 
     1964.8419      4386.6909     13203.7949         1.7696      7461.3154 
        4.6510         2.7421
    2803.23560 
       37.1412        48.6536        44.8512        52.4561      1098.5521 
       75.3017       133.2587      9847.1963      5564.4453        14.4038 
       14.4038        35.0412        12.7274    0.000333284       0.265446 
     -999.2500      9343.9590      5052.8252      9494.4541      6334.0601 
      0.238902      2476.0212         2.4562         1.6386     10820.1621 
     1973.8943      4420.3408     13279.9131         1.7697      7504.2021 
        4.6719         2.7573
    2803.38800 
       37.2790        49.3598        45.4609        53.2588      1104.0511 
       74.8483       132.1070      9867.7080      5590.7793        14.3853 
       14.3853        34.8580        12.8992    0.000336446       0.263617 
     -999.2500      9344.5361      5052.9351      9495.6680      6321.9043 
      0.237256      2518.7974         2.4564         1.6354     10881.4033 
     1998.2950      4455.9028     13360.3574         1.7650      7569.6211 
        4.7281         2.7983
    2803.54040 
       37.6258        49.8337        44.6607        55.0067      1117.9824 
       73.7155       130.5600     10020.2803      5657.5508        15.0162 
       15.0162        36.3903        13.2079    0.000344530       0.266018 
     -999.2500      9345.1133      5053.0449      9495.4365      6338.6475 
      0.239416      2346.1763         2.4562         1.6396     10569.6475 
     2051.8137      4546.6655     13565.6670         1.7711      7659.3120 
        4.8505         2.8881
    2803.69280 
       37.8613        50.3568        44.3689        56.3447      1127.5142 
       72.9533       129.3752     10127.0059      5710.5103        15.4036 
       15.4036        37.3364        13.4536    0.000351010       0.266893 
     -999.2500      9345.6904      5053.1548      9495.7256      6344.9873 
      0.240204      2144.6680         2.4562         1.6412     10179.3105 
     2093.1321      4609.3213     13707.3984         1.7734      7729.4561 
        4.9441         2.9574
    2803.84520 
       38.1720        51.5275        44.7559        58.2990      1140.1882 
       71.9557       127.3902     10239.5928      5783.7803        15.6972 
       15.6972        37.9450        13.8385    0.000360076       0.265732 
     -999.2500      9346.2686      5053.2642      9496.7100      6337.4297 
      0.239159      2036.0856         2.4563         1.6391      9947.0303 
     2154.0356      4693.3335     13897.4395         1.7704      7849.8950 
        5.0809         3.0596
    2803.99760 
       38.3388        52.8852        45.8817        59.8888      1147.0350 
       71.4242       125.8359     10313.5742      5853.9624        15.6538 
       15.6538        37.8321        14.1795    0.000368867       0.262355 
     -999.2500      9346.8457      5053.3740      9498.4473      6314.7959 
      0.236119      2100.2842         2.4566         1.6332     10030.1592 
     2204.0601      4739.0518     14000.8564         1.7618      7946.8560 
        5.1922         3.1435
    2804.15000 
       38.4618        56.2086        49.9365        62.4807      1152.1056 
       71.0339       123.0656     10365.1348      5982.7935        14.8403 
       14.8403        35.8484        14.8178    0.000385281       0.250190 
     -999.2500      9347.4219      5053.4834      9503.0996      6233.8740 
      0.225171      2201.3838         2.4576         1.6122     10070.5156 
     2286.5474      4773.0601     14077.7861         1.7325      8125.7490 
        5.3737         3.2819
    2804.30240 
       38.8551        58.3723        50.9552        65.7894      1168.4323 
       69.7960       120.4327     10563.6621      6122.1025        15.1431 
       15.1431        36.6307        15.4943    0.000403433       0.247135 
     -999.2500      9348.0000      5053.5928      9504.6865      6214.2690 
      0.222421      2204.9028         2.4579         1.6070     10038.3438 
     2393.5129      4883.4390     14327.4697         1.7255      8303.3926 
        5.6053         3.4614
    2804.45480 
       39.4899        60.2305        50.3713        70.0897      1195.1682 
       67.8294       117.3101     10852.2168      6274.8145        16.1588 
       16.1588        39.0240        16.3035    0.000423811       0.248886 
     -999.2500      9348.5771      5053.7026      9504.6904      6226.3115 
      0.223998      2135.4050         2.4578         1.6100      9923.4336 
     2535.3406      5067.0771     14742.8701         1.7295      8524.4131 
        5.9063         3.6994
    2804.60720 
       39.8159        60.7918        49.5391        72.0444      1209.0930 
       66.8340       115.9743     10991.8369      6334.4087        16.8331 
       16.8331        40.5710        16.6479    0.000431899       0.251383 
     -999.2500      9349.1543      5053.8125      9504.4541      6243.1616 
      0.226244      2064.4080         2.4576         1.6143      9815.1387 
     2600.8530      5164.1455     14962.4453         1.7353      8622.6025 
        6.0431         3.8094
    2804.75960 
       40.2662        60.3010        46.8682        73.7339      1228.5385 
       65.4760       114.8745     11152.0410      6356.4268        18.1829 
       18.1829        43.5597        16.8657    0.000434907       0.259396 
     -999.2500      9349.7324      5053.9219      9502.3672      6297.0391 
      0.233456      2091.9565         2.4569         1.6281      9977.9912 
     2658.0046      5301.3340     15272.7725         1.7545      8705.1563 
        6.1614         3.9053
    2804.91200 
       40.5236        60.3455        45.8901        74.8010      1239.7747 
       64.7079       113.9990     11221.6553      6369.6157        18.7975 
       18.7975        44.7815        17.0305    0.000436713       0.262330 
     -999.2500      9350.3096      5054.0313      9501.9639      6317.2178 
      0.236097      2174.6870         2.4567         1.6333     10183.8096 
     2694.3521      5381.4780     15454.0635         1.7617      8772.0078 
        6.2361         3.9662
    2805.06440 
       40.6308        61.9732        47.4798        76.4666      1244.4769 
       64.3900       112.6801     11266.1934      6437.9604        18.5009 
       18.5009        44.0325        17.4147    0.000446135       0.257561 
     -999.2500      9350.8867      5054.1406      9504.1611      6285.3999 
      0.231805      2242.4109         2.4571         1.6250     10255.6211 
     2751.4775      5415.2080     15530.3623         1.7500      8874.6787 
        6.3527         4.0621
