~Version Information Block
VERS .                  2.0:  CWLS LOG ASCII STANDARD - VERSION 2.0
WRAP .                  YES:  Multiple lines per depth step
~Well Information Block
#MNEM.UNIT        Data Type   Information
#---------- ----------------  -----------
STRT .M          2738.62800:  START DEPTH
STOP .M          3798.57000:  STOP DEPTH
STEP .M             0.15240:  STEP
NULL .              -999.25:  NULL VALUE
COMP .                     :  COMPANY
WELL .      RAAG-106-07-211:  WELL
FLD  .                     :  FIELD
LOC  .                     :  LOCATION
CTRY .                     :  COUNTRY
STAT .                     :  STATE
CNTY .                     :  COUNTY
SRVC .                     :  SERVICE COMPANY
DATE .                     :  DATE
API  .                     :  API NUMBER
UWI  .                     :  UNIQUE WELL ID
~Curve Information Block
#MNEM.UNIT         API CODE   Curve Description
#---------- ----------------  -----------------
DEPTH.M                    :  
ANGLE_FAIL.DEG                  :  Fail Angle
BRIT_IND.                     :  Brittleness Index
BRIT_PR.                     :  Brittleness Index from Poisson's Ratio
BRIT_YM.                     :  Brittleness Index from Young's Modulus
CS   .M/MIN                 :  Compressive Strength
DTCO .US/F                 :  Compressional slowness
DTSM .US/F                 :  Fast Shear Slowness
IP   .RAYL/M2                 :  P Impedence
IS   .RAYL/M2                 :  S Impedance
KBULK.                     :  Bulk Mudulus
LAMBDA.                     :  Lambda
LAMRHO.                     :  
MU   .CP                   :  Mu
MURHO.(GF/C3S)2                 :  Mu*Rho
PR   .                     :  Poisson's ratio
PRESS_FG.PSI                  :  Fracture Gradient Pressure
PRESS_OB.PSI                  :  Over-burden Pressure
PRESS_PP.PSI                  :  Pore Pressure
PRESS_SHMAX.PSI                  :  Horizontal Stress (Max)
PRESS_SHMIN.PSI                  :  Horizontal Stress (Min)
PR_STAT.                     :  Poisson's ratio (Static)
PZS  .PSI                  :  Processed Zone Stress
SHMAX_GRAD.                     :  Horizontal Stress Gradient (Max)
SHMIN_GRAD.                     :  Horizontal Stress Gradient (Min)
STRESS_CUM.PSI                  :  Cumulative stress (SHPZ)
UCS_BF.PSI                  :  Uniaxial Compressive Strength (BF)
UCS_LAL.PSI                  :  Uniaxial Compressive Strength (lal)
VP   .FT/S                 :  Compressional velocity
VPVS .                     :  Vp / Vs ratio
VS   .FT/S                 :  Shear velocity
YM   .                     :  Youngs' Modulus
YM_STAT.                     :  Youngs' Modulus (Static)
~Parameter Information Block
#MNEM.UNIT            Value   Description
#---------- ----------------  -----------
PROJECT.          RDG_13Jul21:  
SET  .              GEOMECH:  
~Other Information Block
~Ascii Log Data
# ...
    3177.54000 
       38.3874        52.6460        41.1052        64.1867      1149.0365 
       71.2698       128.2655     11233.6240      6241.8818        18.3775 
       18.3775        48.2721        14.8327    0.000419374       0.276684 
     -999.2500     10070.1240      5175.7764     10236.9316      6733.9756 
      0.249016      1775.4812         2.4746         1.6278     10218.9141 
     2341.4666      4752.4609     14031.1895         1.7997      7796.3291 
        5.4931         3.3741
    3177.69240 
       37.9206        51.3419        41.4326        61.2512      1129.9269 
       72.7620       130.7527     11014.8496      6129.6055        17.5635 
       17.5635        46.1828        14.2888    0.000404422       0.275702 
     -999.2500     10070.6982      5175.8599     10237.9238      6726.1802 
      0.248132      2320.3789         2.4747         1.6259     11293.1182 
     2247.2737      4625.2529     13743.4365         1.7970      7648.0254 
        5.2876         3.2160
    3177.84480 
       37.5321        49.8487        41.3505        58.3468      1114.2053 
       74.0204       133.0645     10780.6055      5996.9771        16.9186 
       16.9186        44.2940        13.7368    0.000387110       0.275948 
     -999.2500     10071.2734      5175.9434     10238.4277      6728.1821 
      0.248354      2683.6047         2.4747         1.6263     12023.5742 
     2155.5332      4521.9629     13509.7891         1.7977      7515.1523 
        5.0843         3.0621
    3177.99720 
       37.3086        48.7329        40.7135        56.7523      1105.2345 
       74.7512       134.7768     10695.2715      5931.9141        16.7800 
       16.7800        44.0136        13.4151    0.000378756       0.277859 
     -999.2500     10071.8477      5176.0278     10238.2607      6743.5791 
      0.250074      2827.0696         2.4746         1.6299     12341.2979 
     2105.7798      4463.5752     13377.7119         1.8030      7419.6748 
        4.9727         2.9786
    3178.14960 
       37.2545        48.1089        39.8462        56.3717      1103.0717 
       74.9288       135.6502     10728.9033      5926.3008        17.0114 
       17.0114        44.8673        13.3161    0.000378040       0.280461 
     -999.2500     10072.4209      5176.1113     10237.8076      6764.6958 
      0.252415      2857.8608         2.4743         1.6349     12445.1133 
     2093.9685      4449.5571     13346.0029         1.8104      7371.9014 
        4.9460         2.9588
    3178.30200 
       37.3232        48.1121        39.3214        56.9028      1105.8214 
       74.7031       135.5806     10817.7881      5960.4570        17.3387 
       17.3387        45.9704        13.3998    0.000382410       0.282036 
     -999.2500     10072.9951      5176.1953     10237.7607      6777.6909 
      0.253832      2824.0627         2.4742         1.6380     12403.5068 
     2110.4587      4467.3828     13386.3252         1.8149      7375.6870 
        4.9832         2.9865
    3178.45440 
       37.4716        48.6776        39.5251        57.8301      1111.7709 
       74.2178       134.5686     10871.4824      5995.8818        17.4858 
       17.4858        46.2879        13.5808    0.000386969       0.281425 
     -999.2500     10073.5693      5176.2788     10238.5947      6773.0659 
      0.253282      2764.4592         2.4743         1.6368     12275.0498 
     2139.3618      4506.0786     13473.8564         1.8132      7431.1538 
        5.0481         3.0350
    3178.60680 
       37.7012        49.8601        40.5302        59.1901      1121.0271 
       73.4709       132.5822     10886.8311      6032.9766        17.4259 
       17.4259        45.7295        13.8695    0.000391772       0.278410 
     -999.2500     10074.1445      5176.3623     10240.3945      6749.1426 
      0.250569      2702.5686         2.4746         1.6309     12103.4219 
     2182.0208      4566.6309     13610.8301         1.8046      7542.4907 
        5.1433         3.1066
    3178.75920 
       38.0613        51.8833        42.1483        61.6183      1135.6582 
       72.3102       129.5149     10946.0869      6111.3726        17.3747 
       17.3747        45.1191        14.3825    0.000402020       0.273555 
     -999.2500     10074.7188      5176.4463     10242.9111      6710.8545 
      0.246200      2621.9666         2.4751         1.6216     11865.6426 
     2258.9729      4663.2139     13829.3076         1.7911      7721.1196 
        5.3133         3.2357
    3178.91160 
       38.5863        54.9342        44.0302        65.8382      1157.2520 
       70.6406       125.4608     11148.2754      6277.0273        17.6032 
       17.6032        45.4819        15.2497    0.000424110       0.267909 
     -999.2500     10075.2920      5176.5298     10245.7100      6666.9365 
      0.241118      2627.9915         2.4756         1.6109     11789.8555 
     2395.1055      4807.7095     14156.1641         1.7760      7970.6172 
        5.6087         3.4641
    3179.06400 
       39.2436        58.6841        45.7738        71.5945      1184.7383 
       68.5878       120.8946     11474.6504      6509.9766        18.1667 
       18.1667        46.9080        16.4130    0.000456172       0.262679 
     -999.2500     10075.8672      5176.6133     10248.3145      6626.9229 
      0.236411      2712.1221         2.4761         1.6011     11878.0898 
     2585.7166      4995.0112     14579.8525         1.7626      8271.6680 
        6.0116         3.7840
    3179.21640 
       39.9429        62.3776        47.0308        77.7244      1214.5497 
       66.4492       116.5022     11819.3174      6741.3687        18.9404 
       18.9404        48.8042        17.6372    0.000489177       0.258907 
     -999.2500     10076.4414      5176.6973     10250.3340      6598.5977 
      0.233017      2657.0735         2.4765         1.5942     11711.3418 
     2794.9309      5202.4492     15049.0889         1.7533      8583.5293 
        6.4407         4.1350
    3179.36880 
       40.5519        65.3141        47.9175        82.7107      1241.0142 
       64.6239       112.8841     12053.8242      6900.5747        19.5874 
       19.5874        50.0588        18.6323    0.000512555       0.256247 
     -999.2500     10077.0156      5176.7808     10251.9219      6578.8931 
      0.230623      2390.2581         2.4767         1.5894     11138.3018 
     2969.8552      5390.3584     15474.1504         1.7468      8858.6436 
        6.7897         4.4285
    3179.52120 
       40.9650        67.4915        48.8582        86.1249      1259.2415 
       63.4052       110.3284     12175.9541      6997.4619        19.8687 
       19.8687        50.3249        19.3316    0.000527049       0.253425 
     -999.2500     10077.5898      5176.8643     10253.5703      6557.9683 
      0.228083      2155.7588         2.4770         1.5842     10627.4541 
     3092.0850      5521.8428     15771.5771         1.7401      9063.8496 
        7.0287         4.6336
    3179.67360 
       41.1740        69.4611        50.0364        88.8858      1268.5496 
       62.7946       108.7476     12307.6973      7106.8877        19.9019 
       19.9019        50.4637        19.9193    0.000543662       0.249891 
     -999.2500     10078.1641      5176.9482     10255.4834      6531.7783 
      0.224902      2078.2195         2.4773         1.5778     10419.9951 
     3192.3833      5589.6392     15924.9355         1.7318      9195.6055 
        7.2220         4.8019
    3179.82600 
       41.2494        71.2630        51.2629        91.2632      1271.9221 
       62.5753       107.8429     12462.7656      7231.4565        19.8283 
       19.8283        50.7326        20.4385    0.000562888       0.246211 
     -999.2500     10078.7383      5177.0317     10257.4414      6504.6934 
      0.221590      2119.7615         2.4777         1.5712     10448.9102 
     3279.7964      5614.3115     15980.7471         1.7234      9272.7480 
        7.3884         4.9486
