~Version Information Block
VERS .                  2.0:  CWLS LOG ASCII STANDARD - VERSION 2.0
WRAP .                  YES:  Multiple lines per depth step
~Well Information Block
#MNEM.UNIT        Data Type   Information
#---------- ----------------  -----------
STRT .M          2888.43720:  START DEPTH
STOP .M          3831.03120:  STOP DEPTH
STEP .M             0.15240:  STEP
NULL .              -999.25:  NULL VALUE
COMP .                     :  COMPANY
WELL .       RAAG-99-02-105:  WELL
FLD  .                     :  FIELD
LOC  .                     :  LOCATION
CTRY .                     :  COUNTRY
STAT .                     :  STATE
CNTY .                     :  COUNTY
SRVC .                     :  SERVICE COMPANY
DATE .                     :  DATE
API  .                     :  API NUMBER
UWI  .                     :  UNIQUE WELL ID
~Curve Information Block
#MNEM.UNIT         API CODE   Curve Description
#---------- ----------------  -----------------
DEPTH.M                    :  
ANGLE_FAIL.DEG                  :  Fail Angle
BRIT_IND.                     :  Brittleness Index
BRIT_PR.                     :  Brittleness Index from Poisson's Ratio
BRIT_YM.                     :  Brittleness Index from Young's Modulus
CS   .M/MIN                 :  Compressive Strength
DTCO .US/F                 :  Compressional slowness
DTSM .US/F                 :  Fast Shear Slowness
IP   .RAYL/M2                 :  P Impedence
IS   .RAYL/M2                 :  S Impedance
KBULK.                     :  Bulk Mudulus
LAMBDA.                     :  Lambda
LAMRHO.                     :  
MU   .CP                   :  Mu
MURHO.(GF/C3S)2                 :  Mu*Rho
PR   .                     :  Poisson's ratio
PRESS_FG.PSI                  :  Fracture Gradient Pressure
PRESS_OB.PSI                  :  Over-burden Pressure
PRESS_PP.PSI                  :  Pore Pressure
PRESS_SHMAX.PSI                  :  Horizontal Stress (Max)
PRESS_SHMIN.PSI                  :  Horizontal Stress (Min)
PR_STAT.                     :  Poisson's ratio (Static)
PZS  .PSI                  :  Processed Zone Stress
SHMAX_GRAD.                     :  Horizontal Stress Gradient (Max)
SHMIN_GRAD.                     :  Horizontal Stress Gradient (Min)
STRESS_CUM.PSI                  :  Cumulative stress (SHPZ)
UCS_BF.PSI                  :  Uniaxial Compressive Strength (BF)
UCS_LAL.PSI                  :  Uniaxial Compressive Strength (lal)
VP   .FT/S                 :  Compressional velocity
VPVS .                     :  Vp / Vs ratio
VS   .FT/S                 :  Shear velocity
YM   .                     :  Youngs' Modulus
YM_STAT.                     :  Youngs' Modulus (Static)
~Parameter Information Block
#MNEM.UNIT            Value   Description
#---------- ----------------  -----------
PROJECT.          RDG_13Jul21:  
SET  .              GEOMECH:  
~Other Information Block
~Ascii Log Data
# ...
    3446.83080 
       42.1235        77.7568        47.6793       107.8344      1311.5967 
       60.0703       105.0336     14126.4727      8079.1431        24.7883 
       24.7883        69.0121        23.4451    0.000702588       0.256962 
     -999.2500     10939.3877      5279.3389     11140.5518      6916.1108 
      0.231266      2901.8865         2.4997         1.5518     12835.9951 
     3915.9517      5908.9170     16647.1602         1.7485      9520.7627 
        8.5484         6.0161
    3446.98320 
       42.4895        85.0681        53.3020       116.8341      1328.5363 
       59.0415       100.9553     14450.6328      8451.1367        23.5703 
       23.5703        65.9774        25.5153    0.000768777       0.240094 
     -999.2500     10939.9824      5279.3960     11148.3965      6771.6968 
      0.216085      2785.3345         2.5013         1.5193     12314.0625 
     4281.1367      6037.1533     16937.2383         1.7099      9905.3740 
        9.1784         6.6289
    3447.13560 
       42.9906        89.6552        55.0348       124.2756      1352.0522 
       57.6520        97.9414     14780.9385      8700.6182        23.9915 
       23.9915        67.0746        27.0769    0.000814836       0.234896 
     -999.2500     10940.5752      5279.4521     11151.1611      6728.8730 
      0.211406      2683.5273         2.5018         1.5096     12024.7998 
     4593.5566      6217.6138     17345.4512         1.6988     10210.1865 
        9.6993         7.1531
    3447.28800 
       43.4162        89.6645        51.8455       127.4835      1372.3304 
       56.4888        97.1323     15063.8828      8760.6348        26.2996 
       26.2996        73.4231        27.4908    0.000826116       0.244464 
     -999.2500     10941.1689      5279.5088     11147.7168      6810.2095 
      0.220017      2655.7869         2.5009         1.5278     12131.9922 
     4731.1616      6375.5107     17702.6230         1.7195     10295.2363 
        9.9238         7.3840
    3447.44040 
       43.5534        85.1276        45.4372       124.8179      1378.9288 
       56.1171        99.0566     15238.5059      8632.8496        29.6409 
       29.6409        83.1599        26.5635    0.000802192       0.263688 
     -999.2500     10941.7627      5279.5654     11139.9443      6978.1372 
      0.237319      2654.4524         2.4990         1.5654     12465.1797 
     4616.6982      6427.3467     17819.8809         1.7652     10095.2383 
        9.7373         7.1920
    3447.59280 
       43.1821        77.4733        39.6035       115.3431      1361.1429 
       57.1266       103.5408     15032.9814      8294.1514        31.3766 
       31.3766        88.4046        24.4160    0.000740481       0.281190 
     -999.2500     10942.3564      5279.6216     11132.6162      7137.1592 
      0.253071      2706.6667         2.4973         1.6010     12887.6523 
     4219.6787      6288.1377     17504.9805         1.8125      9658.0283 
        9.0740         6.5258
    3447.74520 
       42.4631        71.1256        37.2155       105.0357      1327.3080 
       59.1153       108.3993     14575.0020      7948.4429        30.4498 
       30.4498        86.0752        22.3496    0.000680040       0.288353 
     -999.2500     10942.9492      5279.6782     11129.9082      7203.7832 
      0.259518      2804.2183         2.4965         1.6159     13216.0029 
     3805.2158      6027.8057     16916.0957         1.8337      9225.1514 
        8.3525         5.8303
    3447.89760 
       42.0302        67.6332        36.1947        99.0718      1307.3091 
       60.3345       111.2041     14244.0059      7728.1768        29.5940 
       29.5940        83.4423        21.1822    0.000642871       0.291416 
     -999.2500     10943.5430      5279.7349     11129.0879      7232.6392 
      0.262274      2868.1423         2.4962         1.6223     13401.5635 
     3573.7080      5876.6914     16574.2656         1.8431      8992.4736 
        7.9350         5.4418
    3448.05000 
       42.1282        66.1737        33.8539        98.4935      1311.8116 
       60.0571       112.0452     14374.8115      7705.0107        31.0343 
       31.0343        87.9008        20.9602    0.000639023       0.298438 
     -999.2500     10944.1367      5279.7905     11126.3193      7300.4829 
      0.268594      2745.7559         2.4955         1.6374     13292.4775 
     3551.5852      5910.5347     16650.8223         1.8656      8924.9697 
        7.8945         5.4047
    3448.20240 
       42.5969        64.7595        29.6606        99.8583      1333.5470 
       58.7417       112.1606     14762.1885      7731.3784        34.5778 
       34.5778        98.3738        21.0103    0.000643404       0.311018 
     -999.2500     10944.7305      5279.8467     11120.7158      7425.0215 
      0.279916      2512.0059         2.4941         1.6653     13074.0547 
     3603.8909      6075.3672     17023.6816         1.9094      8915.7861 
        7.9901         5.4925
    3448.35480 
       43.0420        64.0244        26.1948       101.8540      1354.4861 
       57.5107       112.1060     15206.2656      7800.8579        38.1726 
       38.1726       109.5238        21.2094    0.000655020       0.321416 
     -999.2500     10945.3232      5279.9033     11116.0352      7531.0894 
      0.289274      2399.0393         2.4929         1.6890     13060.2578 
     3680.9514      6236.4536     17388.0684         1.9493      8920.1289 
        8.1298         5.6218
    3448.50720 
       43.2375        64.3323        25.2624       103.4021      1363.7833 
       56.9752       111.7113     15411.8330      7860.3706        39.5552 
       39.5552       113.9537        21.4467    0.000665053       0.324213 
     -999.2500     10945.9180      5279.9595     11115.1934      7560.3999 
      0.291791      2551.0403         2.4926         1.6955     13422.8809 
     3741.1973      6308.7007     17551.4961         1.9607      8951.6455 
        8.2381         5.7229
    3448.65960 
       43.2602        66.5467        26.8085       106.2850      1364.8639 
       56.9134       110.5238     15526.6270      7995.3193        39.0543 
       39.0543       113.2259        22.0493    0.000688084       0.319574 
     -999.2500     10946.5107      5280.0156     11118.1797      7513.1377 
      0.287617      2899.9385         2.4932         1.6848     14026.1523 
     3854.4805      6317.1265     17570.5566         1.9420      9047.8242 
        8.4399         5.9129
    3448.81200 
       43.3195        69.4065        29.2876       109.5254      1367.6985 
       56.7517       108.5949     15523.6025      8112.6353        37.8331 
       37.8331       109.3525        22.7702    0.000708425       0.312137 
     -999.2500     10947.1045      5280.0718     11122.5488      7438.2046 
      0.280924      3073.2212         2.4940         1.6679     14222.8516 
     3983.5117      6339.2573     17620.6172         1.9135      9208.5352 
        8.6668         6.1295
    3448.96440 
       43.4463        72.3877        31.4609       113.3145      1373.7758 
       56.4071       106.6116     15591.3135      8249.2031        37.0803 
       37.0803       106.9903        23.5843    0.000732477       0.305617 
     -999.2500     10947.6982      5280.1284     11126.3945      7373.7705 
      0.275056      3078.0740         2.4948         1.6534     14103.6885 
     4136.6685      6386.8457     17728.2656         1.8900      9379.8418 
        8.9320         6.3865
    3449.11680 
       43.5342        74.7670        33.3202       116.2138      1378.0040 
       56.1690       105.0900     15626.0947      8351.9092        36.3474 
       36.3474       104.6661        24.2236    0.000750830       0.300040 
     -999.2500     10948.2920      5280.1846     11129.7324      7319.4707 
      0.270036      3056.1545         2.4954         1.6411     13951.2510 
     4255.5195      6420.0679     17803.4160         1.8710      9515.6533 
        9.1350         6.5859
