~Version Information Block
VERS .                  2.0:  CWLS LOG ASCII STANDARD - VERSION 2.0
WRAP .                  YES:  Multiple lines per depth step
~Well Information Block
#MNEM.UNIT        Data Type   Information
#---------- ----------------  -----------
STRT .M          2888.43720:  START DEPTH
STOP .M          3831.03120:  STOP DEPTH
STEP .M             0.15240:  STEP
NULL .              -999.25:  NULL VALUE
COMP .                     :  COMPANY
WELL .       RAAG-99-02-105:  WELL
FLD  .                     :  FIELD
LOC  .                     :  LOCATION
CTRY .                     :  COUNTRY
STAT .                     :  STATE
CNTY .                     :  COUNTY
SRVC .                     :  SERVICE COMPANY
DATE .                     :  DATE
API  .                     :  API NUMBER
UWI  .                     :  UNIQUE WELL ID
~Curve Information Block
#MNEM.UNIT         API CODE   Curve Description
#---------- ----------------  -----------------
DEPTH.M                    :  
ANGLE_FAIL.DEG                  :  Fail Angle
BRIT_IND.                     :  Brittleness Index
BRIT_PR.                     :  Brittleness Index from Poisson's Ratio
BRIT_YM.                     :  Brittleness Index from Young's Modulus
CS   .M/MIN                 :  Compressive Strength
DTCO .US/F                 :  Compressional slowness
DTSM .US/F                 :  Fast Shear Slowness
IP   .RAYL/M2                 :  P Impedence
IS   .RAYL/M2                 :  S Impedance
KBULK.                     :  Bulk Mudulus
LAMBDA.                     :  Lambda
LAMRHO.                     :  
MU   .CP                   :  Mu
MURHO.(GF/C3S)2                 :  Mu*Rho
PR   .                     :  Poisson's ratio
PRESS_FG.PSI                  :  Fracture Gradient Pressure
PRESS_OB.PSI                  :  Over-burden Pressure
PRESS_PP.PSI                  :  Pore Pressure
PRESS_SHMAX.PSI                  :  Horizontal Stress (Max)
PRESS_SHMIN.PSI                  :  Horizontal Stress (Min)
PR_STAT.                     :  Poisson's ratio (Static)
PZS  .PSI                  :  Processed Zone Stress
SHMAX_GRAD.                     :  Horizontal Stress Gradient (Max)
SHMIN_GRAD.                     :  Horizontal Stress Gradient (Min)
STRESS_CUM.PSI                  :  Cumulative stress (SHPZ)
UCS_BF.PSI                  :  Uniaxial Compressive Strength (BF)
UCS_LAL.PSI                  :  Uniaxial Compressive Strength (lal)
VP   .FT/S                 :  Compressional velocity
VPVS .                     :  Vp / Vs ratio
VS   .FT/S                 :  Shear velocity
YM   .                     :  Youngs' Modulus
YM_STAT.                     :  Youngs' Modulus (Static)
~Parameter Information Block
#MNEM.UNIT            Value   Description
#---------- ----------------  -----------
PROJECT.          RDG_13Jul21:  
SET  .              GEOMECH:  
~Other Information Block
~Ascii Log Data
# ...
    3632.14920 
       44.9416        82.7570        33.7724       131.7416      1447.4221 
       52.4464        97.8887     16264.9424      8714.3633        40.2576 
       40.2576       112.6681        27.1343    0.000817413       0.298683 
     -999.2500     11665.4365      5333.6123     11868.4824      7604.5273 
      0.268815      3014.6963         2.5141         1.6109     14438.4473 
     4916.5313      6978.7051     19067.0859         1.8665     10215.6836 
       10.2219         7.6951
    3632.30160 
       45.0405        85.0273        34.9019       135.1527      1452.4277 
       52.1910        96.8355     16411.1719      8845.0557        40.1612 
       40.1612       112.8565        27.8408    0.000842115       0.295294 
     -999.2500     11666.0371      5333.6450     11870.9141      7568.4917 
      0.265765      2897.5515         2.5145         1.6032     14132.0859 
     5067.2695      7019.9531     19160.3926         1.8554     10326.7910 
       10.4607         7.9480
    3632.45400 
       45.0565        80.6342        30.8758       130.3927      1453.2404 
       52.1497        98.8878     16428.9609      8664.0146        42.6127 
       42.6127       119.7804        26.7049    0.000807995       0.307373 
     -999.2500     11666.6387      5333.6777     11864.9600      7700.2070 
      0.276635      2809.7378         2.5132         1.6310     14219.8896 
     4857.4736      7026.6616     19175.5664         1.8962     10112.4707 
       10.1275         7.5960
    3632.60640 
       44.8900        72.4804        24.6918       120.2690      1444.8187 
       52.5799       103.4678     16358.4814      8312.9951        45.8508 
       45.8508       129.3881        24.4888    0.000743850       0.325925 
     -999.2500     11667.2393      5333.7109     11855.0996      7910.0317 
      0.293332      2733.5720         2.5110         1.6754     14487.2080 
     4424.1689      6957.3037     19018.6758         1.9678      9664.8438 
        9.4188         6.8689
    3632.75880 
       44.5740        66.1374        21.1169       111.1579      1428.9701 
       53.4026       107.6152     16113.4316      7996.0747        46.6740 
       46.6740       131.7683        22.6474    0.000688214       0.336649 
     -999.2500     11667.8389      5333.7432     11849.4434      8035.7480 
      0.302984      2765.7952         2.5097         1.7019     14803.0859 
     4049.1978      6827.7783     18725.6797         2.0152      9292.3682 
        8.7811         6.2397
    3632.91120 
       44.2316        65.9620        22.6194       109.3046      1411.9852 
       54.3037       108.3179     15870.0176      7956.2163        44.2998 
       44.2998       125.2547        22.3883    0.000681370       0.332142 
     -999.2500     11668.4395      5333.7764     11852.7451      7982.3203 
      0.298928      2847.4856         2.5102         1.6905     14859.6123 
     3974.6650      6690.4131     18414.9531         1.9947      9232.0840 
        8.6513         6.1146
    3633.06360 
       44.0447        72.2070        29.1953       115.2187      1402.8030 
       54.7994       104.9154     15692.3662      8196.4355        39.6581 
       39.6581       111.8873        23.8123    0.000723136       0.312414 
     -999.2500     11669.0400      5333.8086     11864.6934      7755.9819 
      0.281173      2941.8320         2.5126         1.6425     14595.6279 
     4214.5659      6616.7734     18248.3750         1.9145      9531.4893 
        9.0653         6.5172
    3633.21600 
       44.0771        80.7848        37.5380       124.0316      1404.3899 
       54.7133       100.1669     15598.9590      8520.4844        35.0453 
       35.0453        98.1302        25.9272    0.000781445       0.287386 
     -999.2500     11669.6406      5333.8413     11878.8984      7484.4795 
      0.258648      3032.2168         2.5155         1.5850     14233.3926 
     4583.1660      6629.4688     18277.0918         1.8308      9983.3379 
        9.6822         7.1357
    3633.36840 
       44.2436        86.1257        42.2221       130.0293      1412.5818 
       54.2717        97.1734     15612.1563      8719.4463        32.9809 
       32.9809        91.6819        27.3499    0.000818367       0.273334 
     -999.2500     11670.2422      5333.8735     11886.7871      7339.3457 
      0.246000      3069.8271         2.5171         1.5541     14018.3457 
     4841.6172      6695.2124     18425.8086         1.7905     10290.8818 
       10.1021         7.5694
    3633.52080 
       44.4104        87.5062        42.9000       132.1123      1420.8284 
       53.8320        96.0908     15638.0420      8760.7461        32.9654 
       32.9654        91.0470        27.7891    0.000826137       0.271300 
     -999.2500     11670.8428      5333.9058     11888.4316      7319.0469 
      0.244170      3045.7466         2.5173         1.5498     13929.5869 
     4932.8169      6761.7461     18576.3105         1.7850     10406.8242 
       10.2479         7.7224
    3633.67320 
       44.5469        87.5885        42.0712       133.1059      1427.6158 
       53.4737        95.8105     15726.5791      8777.3096        33.7953 
       33.7953        93.2430        27.9231    0.000829264       0.273786 
     -999.2500     11671.4424      5333.9390     11887.7793      7344.7085 
      0.246408      2954.9873         2.5171         1.5551     13799.3916 
     4976.5815      6816.7710     18700.7813         1.7917     10437.2695 
       10.3174         7.7958
    3633.82560 
       44.6368        87.0700        40.3776       133.7623      1432.1068 
       53.2384        96.1404     15912.4238      8811.6123        35.2296 
       35.2296        97.9162        27.9360    0.000835759       0.278867 
     -999.2500     11672.0430      5333.9717     11885.7822      7397.2627 
      0.250980      2830.1091         2.5165         1.5662     13654.7432 
     5005.5884      6853.3101     18783.4355         1.8058     10401.4541 
       10.3634         7.8445
    3633.97800 
       44.6558        85.6096        38.4426       132.7767      1433.0569 
       53.1888        96.9444     16014.2510      8786.2617        36.5209 
       36.5209       102.0595        27.6246    0.000830957       0.284672 
     -999.2500     11672.6445      5334.0039     11883.3818      7457.9048 
      0.256205      2734.2739         2.5159         1.5790     13584.3574 
     4962.0610      6861.0532     18800.9512         1.8226     10315.1914 
       10.2944         7.7715
    3634.13040 
       44.6122        84.5798        37.4619       131.6977      1430.8750 
       53.3028        97.6214     16048.3350      8762.6396        37.0502 
       37.0502       103.9813        27.3593    0.000826495       0.287614 
     -999.2500     11673.2451      5334.0366     11882.4561      7489.0244 
      0.258853      2775.6580         2.5156         1.5855     13729.3652 
     4914.6064      6843.2778     18760.7422         1.8314     10243.6563 
       10.2188         7.6918
    3634.28280 
       44.5461        83.1059        36.7913       129.4205      1427.5797 
       53.4756        98.2660     15930.7012      8669.3652        37.0207 
       37.0207       103.4715        26.8905    0.000808993       0.289626 
     -999.2500     11673.8457      5334.0693     11882.0205      7510.3555 
      0.260664      2827.8701         2.5154         1.5899     13876.4512 
     4815.1030      6816.4775     18700.1172         1.8376     10176.4600 
       10.0594         7.5249
    3634.43520 
       44.4902        81.6011        35.8130       127.3893      1424.7953 
       53.6222        99.0248     15869.2998      8593.2686        37.3040 
       37.3040       104.1461        26.4502    0.000794853       0.292561 
     -999.2500     11674.4473      5334.1016     11881.0850      7541.6899 
      0.263305      2802.7092         2.5151         1.5965     13888.7988 
     4727.0962      6793.8765     18648.9922         1.8467     10098.4795 
        9.9173         7.3772
