~Version Information Block
VERS .                  2.0:  CWLS LOG ASCII STANDARD - VERSION 2.0
WRAP .                  YES:  Multiple lines per depth step
~Well Information Block
#MNEM.UNIT        Data Type   Information
#---------- ----------------  -----------
STRT .M          2686.96440:  START DEPTH
STOP .M          3645.86520:  STOP DEPTH
STEP .M             0.15240:  STEP
NULL .              -999.25:  NULL VALUE
COMP .                     :  COMPANY
WELL .      RAAG-105-07-212:  WELL
FLD  .                     :  FIELD
LOC  .                     :  LOCATION
CTRY .                     :  COUNTRY
STAT .                     :  STATE
CNTY .                     :  COUNTY
SRVC .                     :  SERVICE COMPANY
DATE .                     :  DATE
API  .                     :  API NUMBER
UWI  .                     :  UNIQUE WELL ID
~Curve Information Block
#MNEM.UNIT         API CODE   Curve Description
#---------- ----------------  -----------------
DEPTH.M                    :  
ANGLE_FAIL.DEG                  :  Fail Angle
BRIT_IND.                     :  Brittleness Index
BRIT_PR.                     :  Brittleness Index from Poisson's Ratio
BRIT_YM.                     :  Brittleness Index from Young's Modulus
CS   .M/MIN                 :  Compressive Strength
DTCO .US/F                 :  Compressional slowness
DTSM .US/F                 :  Shear slowness
IP   .RAYL/M2                 :  P Impedence
IS   .RAYL/M2                 :  S Impedance
KBULK.                     :  Bulk Mudulus
LAMBDA.                     :  Lambda
LAMRHO.                     :  
MU   .CP                   :  Mu
MURHO.(GF/C3S)2                 :  Mu*Rho
PR   .                     :  Poisson's ratio
PRESS_FG.PSI                  :  Fracture Gradient Pressure
PRESS_OB.PSI                  :  Over-burden Pressure
PRESS_PP.PSI                  :  Pore Pressure
PRESS_SHMAX.PSI                  :  Horizontal Stress (Max)
PRESS_SHMIN.PSI                  :  Horizontal Stress (Min)
PR_STAT.                     :  Poisson's ratio (Static)
PZS  .PSI                  :  Processed Zone Stress
SHMAX_GRAD.                     :  Horizontal Stress Gradient (Max)
SHMIN_GRAD.                     :  Horizontal Stress Gradient (Min)
STRESS_CUM.PSI                  :  Cumulative stress (SHPZ)
UCS_BF.PSI                  :  Uniaxial Compressive Strength (BF)
UCS_LAL.PSI                  :  Uniaxial Compressive Strength (lal)
VP   .FT/S                 :  Compressional velocity
VPVS .                     :  Vp / Vs ratio
VS   .FT/S                 :  Shear velocity
YM   .                     :  Youngs' Modulus
YM_STAT.                     :  Youngs' Modulus (Static)
~Parameter Information Block
#MNEM.UNIT            Value   Description
#---------- ----------------  -----------
ALPHA.                 0.98:  Biot's Constant
CALIB_SHMINPZS.                 6800:  Calibration Factor for processing zones
EXT_FACT.                1e-06:  Extension Factor
PR_FAC.                  0.9:  Poisson's ratio factor
PR_MAX.                  0.4:  Maximum Poisson's ratio
PR_MIN.                  0.1:  Minimum Poisson's ratio
TECT_FACT.                 1.05:  Techtonic Factor
YM_MAX.                    8:  Maximum Youngs' Modulus
YM_MIN.                    1:  Minimum Youngs' Modulus
PROJECT.          RDG_13Jul21:  
SET  .              GEOMECH:  
~Other Information Block
~Ascii Log Data
# ...
    3259.98840 
       39.2319        55.6144        42.5485        68.6803      1184.2429 
       68.6241       122.6894     11324.0518      6333.9038        18.8259 
       18.8259        47.9975        15.7355    0.000431830       0.272354 
     -999.2500     10740.2227      5259.2417     10928.5967      6972.7495 
      0.245119      1405.9739         2.4929         1.5905      9957.4463 
     2488.5095      4991.6021     14572.1406         1.7878      8150.6636 
        5.8076         3.6208
    3260.14080 
       39.2433        56.0448        42.9038        69.1857      1184.7261 
       68.5887       122.4296     11360.2031      6364.3232        18.7942 
       18.7942        48.0450        15.8446    0.000435988       0.271289 
     -999.2500     10740.8135      5259.3047     10929.6738      6963.6211 
      0.244160      1268.8999         2.4930         1.5884      9665.0420 
     2505.2629      4994.9268     14579.6611         1.7850      8167.9595 
        5.8430         3.6490
    3260.29320 
       39.4496        56.6454        42.6174        70.6733      1193.4579 
       67.9530       121.4517     11477.3770      6421.6660        19.2491 
       19.2491        49.2546        16.1161    0.000443880       0.272148 
     -999.2500     10741.4053      5259.3672     10929.8984      6971.5386 
      0.244933      1188.5940         2.4930         1.5901      9520.2656 
     2554.8311      5055.2222     14716.0537         1.7873      8233.7256 
        5.9471         3.7321
    3260.44560 
       39.5461        57.7343        43.6164        71.8521      1197.5592 
       67.6571       120.3824     11509.7354      6468.6802        19.0957 
       19.0957        48.7864        16.3783    0.000450403       0.269151 
     -999.2500     10741.9971      5259.4307     10931.8223      6945.5005 
      0.242236      1148.5957         2.4933         1.5841      9388.1924 
     2594.3774      5083.6753     14780.4160         1.7793      8306.8623 
        6.0296         3.7985
    3260.59800 
       39.4497        58.6259        45.3841        71.8678      1193.4607 
       67.9528       119.9762     11432.2881      6475.0840        18.3792 
       18.3792        46.8438        16.4500    0.000451295       0.263848 
     -999.2500     10742.5889      5259.4932     10934.7402      6899.5430 
      0.237463      1115.4097         2.4938         1.5735      9229.9053 
     2594.9060      5055.2422     14716.0986         1.7656      8334.9863 
        6.0307         3.7994
    3260.75040 
       38.3996        63.0332        57.0666        68.9999      1149.5391 
       71.2311       120.1181     10869.4629      6445.6880        13.7989 
       13.7989        35.0514        16.3559    0.000447207       0.228800 
     -999.2500     10743.1797      5259.5566     10949.9268      6608.2349 
      0.205920      1159.8317         2.4972         1.5070      8736.1338 
     2499.0981      4755.8306     14038.8115         1.6863      8325.1396 
        5.8300         3.6386
    3260.90280 
       38.5918        61.2039        53.4355        68.9723      1157.4819 
       70.6231       120.6976     10968.1748      6417.7456        14.9235 
       14.9235        37.9259        16.2069    0.000443338       0.239694 
     -999.2500     10743.7705      5259.6196     10946.1357      6696.4785 
      0.215724      1209.1525         2.4962         1.5271      9011.2617 
     2498.1831      4809.2603     14159.6729         1.7090      8285.1680 
        5.8281         3.6371
    3261.05520 
       38.5885        60.4883        52.0573        68.9193      1157.3453 
       70.6335       121.3543     11042.3350      6427.1211        15.3648 
       15.3648        39.3174        16.1427    0.000444634       0.243828 
     -999.2500     10744.3633      5259.6821     10945.0469      6730.6816 
      0.219445      1286.8788         2.4958         1.5348      9235.1211 
     2496.4258      4808.3389     14157.5879         1.7181      8240.3340 
        5.8244         3.6341
    3261.20760 
       38.4256        61.3575        53.5591        69.1558      1150.6117 
       71.1486       121.5388     11067.0928      6478.6563        14.9165 
       14.9165        38.5346        16.2474    0.000451793       0.239323 
     -999.2500     10744.9541      5259.7456     10947.5088      6693.8726 
      0.215390      1414.8773         2.4962         1.5263      9417.4990 
     2504.2705      4763.0273     14055.0908         1.7082      8227.8252 
        5.8409         3.6473
    3261.36000 
       38.1392        63.4298        57.8080        69.0516      1138.8435 
       72.0607       121.1962     10964.6992      6519.3784        13.5866 
       13.5866        35.2200        16.3958    0.000457491       0.226576 
     -999.2500     10745.5459      5259.8086     10953.2568      6591.3193 
      0.203918      1615.8306         2.4974         1.5029      9614.2998 
     2500.8130      4684.3818     13877.1904         1.6819      8251.0840 
        5.8336         3.6415
    3261.51240 
       38.1917        63.4281        57.9449        68.9113      1140.9926 
       71.8930       120.8555     10913.8350      6492.2852        13.5233 
       13.5233        34.8123        16.3737    0.000453696       0.226165 
     -999.2500     10746.1377      5259.8711     10954.0322      6588.2441 
      0.203549      1615.8306         2.4975         1.5021      9608.1494 
     2496.1626      4698.6919     13909.5615         1.6810      8274.3438 
        5.8238         3.6337
    3261.66480 
       38.4165        61.9824        54.9541        69.0107      1150.2345 
       71.1776       120.9553     10974.6260      6458.1504        14.4478 
       14.4478        37.0270        16.2741    0.000448938       0.235138 
     -999.2500     10746.7295      5259.9341     10951.0449      6660.4121 
      0.211624      1461.0916         2.4967         1.5185      9443.0068 
     2499.4578      4760.4956     14049.3643         1.6993      8267.5176 
        5.8308         3.6392
    3261.81720 
       38.5288        61.0037        53.1038        68.9036      1154.8711 
       70.8222       121.1905     11008.9121      6433.4697        15.0185 
       15.0185        38.4171        16.1805    0.000445513       0.240689 
     -999.2500     10747.3203      5259.9971     10949.3926      6705.8755 
      0.216620      1260.7397         2.4962         1.5288      9133.2305 
     2495.9043      4791.6631     14119.8662         1.7112      8251.4717 
        5.8232         3.6332
    3261.96960 
       37.8326        62.8723        59.5787        66.1660      1126.3517 
       73.0457       122.0937     10643.6338      6367.8281        12.6192 
       12.6192        32.1885        15.8969    0.000436468       0.221264 
     -999.2500     10747.9131      5260.0596     10957.8115      6549.9409 
      0.199138      1087.5408         2.4980         1.4931      8474.9639 
     2405.8093      4601.6563     13690.0586         1.6715      8190.4312 
        5.6316         3.4821
    3262.12200 
       37.7188        60.4658        57.1861        63.7454      1121.7385 
       73.4139       123.7460     10489.8604      6223.2441        12.8948 
       12.8948        32.5796        15.3285    0.000416873       0.228442 
     -999.2500     10748.5039      5260.1226     10955.5889      6606.8008 
      0.205598       976.6540         2.4973         1.5060      8366.9092 
     2327.2139      4571.3027     13621.3984         1.6856      8081.0693 
        5.4622         3.3502
    3262.27440 
       37.6926        58.6652        55.0500        62.2804      1120.6780 
       73.4989       124.8557     10411.9160      6129.1909        13.2528 
       13.2528        33.2740        14.9627    0.000404368       0.234850 
     -999.2500     10749.0957      5260.1855     10953.6289      6658.4297 
      0.211365      1048.4740         2.4968         1.5177      8613.8066 
     2280.1326      4564.3389     13605.6465         1.6987      8009.2461 
        5.3596         3.2712
