~Version Information Block
VERS .                  2.0:  CWLS LOG ASCII STANDARD - VERSION 2.0
WRAP .                  YES:  Multiple lines per depth step
~Well Information Block
#MNEM.UNIT        Data Type   Information
#---------- ----------------  -----------
STRT .M          2888.43720:  START DEPTH
STOP .M          3831.03120:  STOP DEPTH
STEP .M             0.15240:  STEP
NULL .              -999.25:  NULL VALUE
COMP .                     :  COMPANY
WELL .       RAAG-99-02-105:  WELL
FLD  .                     :  FIELD
LOC  .                     :  LOCATION
CTRY .                     :  COUNTRY
STAT .                     :  STATE
CNTY .                     :  COUNTY
SRVC .                     :  SERVICE COMPANY
DATE .                     :  DATE
API  .                     :  API NUMBER
UWI  .                     :  UNIQUE WELL ID
~Curve Information Block
#MNEM.UNIT         API CODE   Curve Description
#---------- ----------------  -----------------
DEPTH.M                    :  
ANGLE_FAIL.DEG                  :  Fail Angle
BRIT_IND.                     :  Brittleness Index
BRIT_PR.                     :  Brittleness Index from Poisson's Ratio
BRIT_YM.                     :  Brittleness Index from Young's Modulus
CS   .M/MIN                 :  Compressive Strength
DTCO .US/F                 :  Compressional slowness
DTSM .US/F                 :  Fast Shear Slowness
IP   .RAYL/M2                 :  P Impedence
IS   .RAYL/M2                 :  S Impedance
KBULK.                     :  Bulk Mudulus
LAMBDA.                     :  Lambda
LAMRHO.                     :  
MU   .CP                   :  Mu
MURHO.(GF/C3S)2                 :  Mu*Rho
PR   .                     :  Poisson's ratio
PRESS_FG.PSI                  :  Fracture Gradient Pressure
PRESS_OB.PSI                  :  Over-burden Pressure
PRESS_PP.PSI                  :  Pore Pressure
PRESS_SHMAX.PSI                  :  Horizontal Stress (Max)
PRESS_SHMIN.PSI                  :  Horizontal Stress (Min)
PR_STAT.                     :  Poisson's ratio (Static)
PZS  .PSI                  :  Processed Zone Stress
SHMAX_GRAD.                     :  Horizontal Stress Gradient (Max)
SHMIN_GRAD.                     :  Horizontal Stress Gradient (Min)
STRESS_CUM.PSI                  :  Cumulative stress (SHPZ)
UCS_BF.PSI                  :  Uniaxial Compressive Strength (BF)
UCS_LAL.PSI                  :  Uniaxial Compressive Strength (lal)
VP   .FT/S                 :  Compressional velocity
VPVS .                     :  Vp / Vs ratio
VS   .FT/S                 :  Shear velocity
YM   .                     :  Youngs' Modulus
YM_STAT.                     :  Youngs' Modulus (Static)
~Parameter Information Block
#MNEM.UNIT            Value   Description
#---------- ----------------  -----------
PROJECT.          RDG_13Jul21:  
SET  .              GEOMECH:  
~Other Information Block
~Ascii Log Data
# ...
    3322.47240 
       42.0333        57.0433        23.5977        90.4889      1307.4547 
       60.3255       119.5529     14786.1514      7460.9814        36.6648 
       36.6648       107.2978        19.0218    0.000599186       0.329207 
     -999.2500     10457.0830      5226.7300     10611.1719      7375.3198 
      0.296286      2610.0791         2.4794         1.7233     13170.7988 
     3251.2229      5877.7847     16576.7383         1.9818      8364.4980 
        7.3342         4.9007
    3322.62480 
       42.5810        57.5561        21.5431        93.5691      1332.8044 
       58.7860       118.1164     15175.9668      7553.0098        39.7048 
       39.7048       116.2140        19.4906    0.000614059       0.335371 
     -999.2500     10457.6719      5226.8027     10608.7461      7436.1821 
      0.301834      2629.0315         2.4787         1.7374     13330.4277 
     3365.5046      6069.6958     17010.8535         2.0093      8466.2246 
        7.5498         5.0924
    3322.77720 
       43.0065        57.5068        19.5292        95.4844      1352.8058 
       57.6082       117.3969     15499.6787      7605.8960        42.5128 
       42.5128       124.5407        19.7473    0.000622689       0.341413 
     -999.2500     10458.2598      5226.8755     10606.3379      7496.6997 
      0.307271      2675.0715         2.4780         1.7515     13543.5430 
     3437.3838      6223.4438     17358.6406         2.0379      8518.1133 
        7.6839         5.2131
    3322.92960 
       43.2228        58.4811        19.3838        97.5784      1363.0830 
       57.0153       116.3102     15660.4307      7676.7485        43.4846 
       43.4846       127.3842        20.1175    0.000634344       0.341849 
     -999.2500     10458.8496      5226.9473     10606.7139      7501.5640 
      0.307664      2732.3940         2.4780         1.7525     13667.9160 
     3516.6919      6303.2437     17539.1523         2.0400      8597.6982 
        7.8305         5.3461
    3323.08200 
       43.2460        60.3920        20.7848        99.9992      1364.1888 
       56.9520       115.0329     15716.4775      7781.1206        42.8777 
       42.8777       125.9160        20.6175    0.000651710       0.337646 
     -999.2500     10459.4375      5227.0200     10609.4023      7460.1567 
      0.303881      2763.4075         2.4785         1.7428     13647.1289 
     3609.3096      6311.8618     17558.6465         2.0198      8693.1650 
        7.9999         5.5015
    3323.23440 
       43.1854        62.4857        22.7422       102.2293      1361.2996 
       57.1176       113.8373     15715.3105      7885.1201        41.6376 
       41.6376       122.6207        21.1125    0.000669247       0.331774 
     -999.2500     10460.0264      5227.0923     10612.8857      7402.8286 
      0.298596      2727.3918         2.4792         1.7293     13460.4414 
     3695.5188      6289.3564     17507.7383         1.9930      8784.4668 
        8.1561         5.6462
    3323.38680 
       43.1368        64.8687        25.0716       104.6659      1358.9856 
       57.2507       112.3871     15683.7236      7989.3887        40.1641 
       40.1641       118.3185        21.6677    0.000687064       0.324785 
     -999.2500     10460.6143      5227.1646     10616.8633      7335.6387 
      0.292307      2772.0508         2.4800         1.7135     13415.3789 
     3790.6843      6271.3623     17467.0352         1.9631      8897.8184 
        8.3266         5.8059
    3323.53920 
       43.1826        67.9219        27.7618       108.0821      1361.1655 
       57.1253       110.2975     15669.3311      8115.4629        38.7528 
       38.7528       113.8065        22.4266    0.000708919       0.316715 
     -999.2500     10461.2041      5227.2368     10621.2881      7259.5190 
      0.285043      2854.3479         2.4809         1.6956     13427.7344 
     3925.8181      6288.3130     17505.3770         1.9308      9066.3887 
        8.5657         6.0327
    3323.69160 
       43.3313        71.2439        30.2902       112.1977      1368.2642 
       56.7195       107.9099     15704.1084      8254.3789        37.7607 
       37.7607       110.3495        23.3151    0.000733397       0.309129 
     -999.2500     10461.7930      5227.3091     10625.4082      7189.4717 
      0.278217      2930.8542         2.4817         1.6792     13440.6523 
     4091.2727      6343.6797     17630.6191         1.9025      9266.9912 
        8.8538         6.3103
    3323.84400 
       43.5544        73.9135        31.5762       116.2508      1378.9752 
       56.1145       105.9907     15851.2627      8392.1104        37.8333 
       37.8333       110.4075        24.1334    0.000758076       0.305271 
     -999.2500     10462.3809      5227.3813     10627.7666      7154.6660 
      0.274744      2955.8899         2.4821         1.6710     13421.1113 
     4257.0479      6427.7119     17820.7070         1.8888      9434.7900 
        9.1376         6.5885
    3323.99640 
       43.8175        74.5181        30.5439       118.4923      1391.7104 
       55.4064       105.2601     16067.0459      8457.3086        39.4082 
       39.4082       115.0978        24.4897    0.000769900       0.308368 
     -999.2500     10462.9707      5227.4536     10626.9395      7183.5913 
      0.277532      2970.2095         2.4818         1.6777     13507.6016 
     4349.9341      6528.3945     18048.4570         1.8998      9500.2754 
        9.2945         6.7443
    3324.14880 
       44.0061        73.1921        28.1585       118.2256      1400.9128 
       54.9022       105.7546     16245.5781      8433.8457        41.5753 
       41.5753       121.6593        24.3076    0.000765634       0.315524 
     -999.2500     10463.5586      5227.5264     10624.2158      7250.4087 
      0.283972      2981.5762         2.4810         1.6932     13663.9697 
     4338.8374      6601.6685     18214.2070         1.9262      9455.8535 
        9.2758         6.7257
    3324.30120 
       44.0454        72.1416        26.9850       117.2982      1402.8344 
       54.7977       106.3007     16286.4033      8395.5938        42.4435 
       42.4435       124.2750        24.0730    0.000758705       0.319045 
     -999.2500     10464.1475      5227.5981     10623.1650      7283.7896 
      0.287140      3012.3872         2.4807         1.7009     13792.3535 
     4300.3418      6617.0239     18248.9414         1.9399      9407.2754 
        9.2109         6.6611
    3324.45360 
       43.9894        73.1532        28.3734       117.9329      1400.0961 
       54.9467       105.7056     16189.4844      8415.4365        41.2747 
       41.2747       120.4603        24.2657    0.000762296       0.314880 
     -999.2500     10464.7363      5227.6704     10625.7295      7244.8843 
      0.283392      3054.6311         2.4812         1.6917     13799.0303 
     4326.6699      6595.1470     18199.4551         1.9238      9460.2373 
        9.2553         6.7053
    3324.60600 
       43.9326        75.5723        31.3100       119.8346      1397.3202 
       55.0983       104.2254     16029.1016      8473.7139        39.1103 
       39.1103       113.3244        24.7808    0.000772890       0.306070 
     -999.2500     10465.3252      5227.7422     10630.4082      7163.6631 
      0.275463      3068.6235         2.4821         1.6727     13664.5723 
     4405.9673      6573.0103     18149.3809         1.8916      9594.5898 
        9.3884         6.8383
    3324.75840 
       43.9371        77.9312        33.7604       122.1020      1397.5396 
       55.0863       102.8225     15957.5098      8549.1035        37.6103 
       37.6103       108.4678        25.3424    0.000786704       0.298719 
     -999.2500     10465.9131      5227.8149     10634.3418      7097.3394 
      0.268847      3050.5662         2.4829         1.6571     13495.8115 
     4501.3242      6574.7583     18153.3340         1.8666      9725.4980 
        9.5471         6.9984
