~Version Information Block
VERS .                  2.0:  CWLS LOG ASCII STANDARD - VERSION 2.0
WRAP .                  YES:  Multiple lines per depth step
~Well Information Block
#MNEM.UNIT        Data Type   Information
#---------- ----------------  -----------
STRT .M          2784.04320:  START DEPTH
STOP .M          3715.96920:  STOP DEPTH
STEP .M             0.15240:  STEP
NULL .              -999.25:  NULL VALUE
COMP .                     :  COMPANY
WELL .      RAAG-101-02-104:  WELL
FLD  .                     :  FIELD
LOC  .                     :  LOCATION
CTRY .                     :  COUNTRY
STAT .                     :  STATE
CNTY .                     :  COUNTY
SRVC .                     :  SERVICE COMPANY
DATE .                     :  DATE
API  .                     :  API NUMBER
UWI  .                     :  UNIQUE WELL ID
~Curve Information Block
#MNEM.UNIT         API CODE   Curve Description
#---------- ----------------  -----------------
DEPTH.M                    :  
ANGLE_FAIL.DEG                  :  Fail Angle
BRIT_IND.                     :  Brittleness Index
BRIT_PR.                     :  Brittleness Index from Poisson's Ratio
BRIT_YM.                     :  Brittleness Index from Young's Modulus
CS   .M/MIN                 :  Compressive Strength
DTCO .US/F                 :  Compressional slowness
DTSM .US/F                 :  Fast Shear slowness
IP   .RAYL/M2                 :  P Impedence
IS   .RAYL/M2                 :  S Impedance
KBULK.                     :  Bulk Mudulus
LAMBDA.                     :  Lambda
LAMRHO.                     :  
MU   .CP                   :  Mu
MURHO.(GF/C3S)2                 :  Mu*Rho
PR   .                     :  Poisson's ratio
PRESS_FG.PSI                  :  Fracture Gradient Pressure
PRESS_OB.PSI                  :  Over-burden Pressure
PRESS_PP.PSI                  :  Pore Pressure
PRESS_SHMAX.PSI                  :  Horizontal Stress (Max)
PRESS_SHMIN.PSI                  :  Horizontal Stress (Min)
PR_STAT.                     :  Poisson's ratio (Static)
PZS  .PSI                  :  Processed Zone Stress
SHMAX_GRAD.                     :  Horizontal Stress Gradient (Max)
SHMIN_GRAD.                     :  Horizontal Stress Gradient (Min)
STRESS_CUM.PSI                  :  Cumulative stress (SHPZ)
UCS_BF.PSI                  :  Uniaxial Compressive Strength (BF)
UCS_LAL.PSI                  :  Uniaxial Compressive Strength (lal)
VP   .FT/S                 :  Compressional velocity
VPVS .                     :  Vp / Vs ratio
VS   .FT/S                 :  Shear velocity
YM   .                     :  Youngs' Modulus
YM_STAT.                     :  Youngs' Modulus (Static)
~Parameter Information Block
#MNEM.UNIT            Value   Description
#---------- ----------------  -----------
PROJECT.          RDG_13Jul21:  
SET  .              GEOMECH:  
~Other Information Block
~Ascii Log Data
# ...
    3298.54560 
       42.8432        71.5266        35.4016       107.6516      1345.0947 
       58.0585       107.4439     14836.8193      8017.2393        32.4044 
       32.4044        91.5790        22.7435         0.0007       0.293795 
     -999.2500     11366.2578      5314.8213     11563.0625      7430.1675 
      0.264416      2206.1738         2.5070         1.6109     12472.6826 
     3908.6777      6163.9263     17224.0078         1.8506      9307.1826 
        8.5356         6.0039
    3298.69800 
       42.2394        72.6592        40.5029       104.8156      1316.9386 
       59.7433       107.8238     14352.6113      7952.5337        28.2636 
       28.2636        79.5119        22.4805         0.0007       0.278491 
     -999.2500     11366.8555      5314.8638     11571.3916      7276.1274 
      0.250642      2039.6471         2.5087         1.5775     11831.5488 
     3796.5627      5949.1973     16738.2773         1.8048      9274.3906 
        8.3371         5.8158
    3298.85040 
       41.9345        74.8268        44.5836       105.0701      1302.9274 
       60.6061       107.3777     14197.3877      8013.2866        25.9088 
       25.9088        73.1403        22.7463         0.0007       0.266249 
     -999.2500     11367.4541      5314.9063     11577.9678      7157.1738 
      0.239624      1874.2754         2.5100         1.5516     11262.8984 
     3806.5688      5843.8560     16499.9902         1.7717      9312.9199 
        8.3549         5.8326
    3299.00280 
       42.0142        75.0295        44.0540       106.0050      1306.5764 
       60.3798       107.2259     14303.6904      8054.5278        26.4141 
       26.4141        74.8447        22.8958         0.0007       0.267838 
     -999.2500     11368.0518      5314.9487     11577.8164      7172.7480 
      0.241054      1762.0292         2.5098         1.5549     11069.5547 
     3843.4153      5871.1943     16561.8301         1.7759      9326.1055 
        8.4203         5.8944
    3299.15520 
       42.2851        73.3380        40.0956       106.5803      1319.0535 
       59.6145       107.7979     14575.8047      8060.7261        28.9403 
       28.9403        82.5035        22.7918         0.0007       0.279713 
     -999.2500     11368.6484      5314.9912     11572.6279      7289.0576 
      0.251742      1707.4391         2.5086         1.5800     11192.9932 
     3866.1670      5965.1851     16774.4434         1.8082      9276.6191 
        8.4606         5.9326
    3299.30760 
       42.7205        71.6603        35.4010       107.9197      1339.3286 
       58.3983       108.0731     14956.5547      8081.9131        32.4761 
       32.4761        93.0639        22.7935         0.0007       0.293797 
     -999.2500     11369.2471      5315.0332     11566.1387      7431.4189 
      0.264417      1713.0280         2.5071         1.6108     11488.8936 
     3919.3513      6119.6211     17123.7871         1.8506      9252.9971 
        8.5544         6.0218
    3299.46000 
       43.2399        71.4425        32.0200       110.8651      1363.8969 
       56.9687       107.3409     15368.8857      8156.6812        35.9056 
       35.9056       103.1398        23.1613         0.0007       0.303940 
     -999.2500     11369.8447      5315.0762     11561.4727      7537.2861 
      0.273546      1795.7803         2.5059         1.6337     11866.1328 
     4037.3835      6309.5859     17553.4980         1.8842      9316.1143 
        8.7606         6.2199
    3299.61240 
       43.6688        70.6941        28.7886       112.5997      1384.5005 
       55.8058       107.0962     15717.3037      8189.9893        39.2267 
       39.2267       112.8818        23.3090         0.0007       0.313634 
     -999.2500     11370.4424      5315.1187     11556.9189      7640.9097 
      0.282271      2004.1493         2.5048         1.6561     12490.1182 
     4107.5874      6471.2905     17919.2852         1.9191      9337.3994 
        8.8820         6.3377
    3299.76480 
       43.6148        68.0836        26.7282       109.4391      1381.8893 
       55.9514       108.7090     15676.0195      8068.2852        40.1525 
       40.1525       115.5431        22.6220         0.0007       0.319815 
     -999.2500     11371.0410      5315.1606     11554.1924      7708.0054 
      0.287834      2185.6985         2.5041         1.6705     12987.4072 
     3980.0518      6450.6763     17872.6543         1.9429      9198.8701 
        8.6607         6.1237
    3299.91720 
       43.0621        65.9490        27.8651       104.0328      1355.4408 
       57.4554       110.8663     15223.1240      7889.2383        37.3793 
       37.3793       107.2634        21.6895         0.0007       0.316405 
     -999.2500     11371.6387      5315.2031     11556.6904      7670.5933 
      0.284764      2313.1536         2.5045         1.6624     13167.4932 
     3765.8599      6243.8521     17404.8047         1.9296      9019.8730 
        8.2823         5.7642
    3300.06960 
       42.4503        65.6776        31.2805       100.0746      1326.7129 
       59.1511       111.9102     14676.6953      7757.4932        33.3708 
       33.3708        95.0480        21.1284         0.0006       0.306159 
     -999.2500     11372.2354      5315.2461     11562.8115      7560.7124 
      0.275543      2367.8274         2.5057         1.6385     13057.0791 
     3612.2117      6023.2798     16905.8555         1.8919      8935.7363 
        8.0052         5.5064
    3300.22200 
       41.9425        66.7599        35.4172        98.1026      1303.2941 
       60.5833       112.1073     14267.8408      7710.4067        29.8563 
       29.8563        84.6705        20.9632         0.0006       0.293748 
     -999.2500     11372.8330      5315.2881     11569.9004      7431.4932 
      0.264373      2313.4819         2.5072         1.6104     12689.9502 
     3536.6604      5846.6006     16506.1992         1.8505      8920.0254 
        7.8672         5.3796
    3300.37440 
       41.6886        68.3178        38.1331        98.5024      1291.7222 
       61.3081       111.9120     14189.4326      7773.3145        28.2020 
       28.2020        80.4912        21.1712         0.0007       0.285601 
     -999.2500     11373.4316      5315.3301     11574.6543      7348.9902 
      0.257041      2150.7581         2.5081         1.5924     12199.4961 
     3551.9263      5760.3340     16311.0576         1.8254      8935.5918 
        7.8952         5.4053
    3300.52680 
       41.7959        68.9586        37.7264       100.1908      1296.5997 
       61.0012       111.5746     14373.5059      7858.4297        28.8836 
       28.8836        83.0878        21.4677         0.0007       0.286821 
     -999.2500     11374.0293      5315.3726     11574.6475      7361.6646 
      0.258139      2037.2278         2.5080         1.5951     11997.7842 
     3616.6821      5796.6113     16393.1211         1.8291      8962.6133 
        8.0134         5.5139
    3300.67920 
       41.9566        69.0291        36.5429       101.5154      1303.9381 
       60.5433       111.3926     14561.8516      7914.5522        29.9977 
       29.9977        86.7673        21.6563         0.0007       0.290371 
     -999.2500     11374.6270      5315.4146     11573.4580      7398.0005 
      0.261334      1994.9451         2.5076         1.6029     11985.8906 
     3667.8269      5851.4219     16517.1055         1.8399      8977.2568 
        8.1061         5.5997
    3300.83160 
       41.8039        70.1846        38.3912       101.9780      1296.9634 
       60.9784       111.1699     14520.1260      7964.5127        28.9053 
       28.9053        83.9671        21.8367         0.0007       0.284826 
     -999.2500     11375.2256      5315.4565     11576.8760      7342.2095 
      0.256344      1997.9858         2.5082         1.5907     11880.3906 
     3685.7620      5799.3213     16399.2500         1.8231      8995.2402 
        8.1385         5.6298
