~Version Information Block
VERS .                  2.0:  CWLS LOG ASCII STANDARD - VERSION 2.0
WRAP .                  YES:  Multiple lines per depth step
~Well Information Block
#MNEM.UNIT        Data Type   Information
#---------- ----------------  -----------
STRT .M          2738.62800:  START DEPTH
STOP .M          3798.57000:  STOP DEPTH
STEP .M             0.15240:  STEP
NULL .              -999.25:  NULL VALUE
COMP .                     :  COMPANY
WELL .      RAAG-106-07-211:  WELL
FLD  .                     :  FIELD
LOC  .                     :  LOCATION
CTRY .                     :  COUNTRY
STAT .                     :  STATE
CNTY .                     :  COUNTY
SRVC .                     :  SERVICE COMPANY
DATE .                     :  DATE
API  .                     :  API NUMBER
UWI  .                     :  UNIQUE WELL ID
~Curve Information Block
#MNEM.UNIT         API CODE   Curve Description
#---------- ----------------  -----------------
DEPTH.M                    :  
ANGLE_FAIL.DEG                  :  Fail Angle
BRIT_IND.                     :  Brittleness Index
BRIT_PR.                     :  Brittleness Index from Poisson's Ratio
BRIT_YM.                     :  Brittleness Index from Young's Modulus
CS   .M/MIN                 :  Compressive Strength
DTCO .US/F                 :  Compressional slowness
DTSM .US/F                 :  Fast Shear Slowness
IP   .RAYL/M2                 :  P Impedence
IS   .RAYL/M2                 :  S Impedance
KBULK.                     :  Bulk Mudulus
LAMBDA.                     :  Lambda
LAMRHO.                     :  
MU   .CP                   :  Mu
MURHO.(GF/C3S)2                 :  Mu*Rho
PR   .                     :  Poisson's ratio
PRESS_FG.PSI                  :  Fracture Gradient Pressure
PRESS_OB.PSI                  :  Over-burden Pressure
PRESS_PP.PSI                  :  Pore Pressure
PRESS_SHMAX.PSI                  :  Horizontal Stress (Max)
PRESS_SHMIN.PSI                  :  Horizontal Stress (Min)
PR_STAT.                     :  Poisson's ratio (Static)
PZS  .PSI                  :  Processed Zone Stress
SHMAX_GRAD.                     :  Horizontal Stress Gradient (Max)
SHMIN_GRAD.                     :  Horizontal Stress Gradient (Min)
STRESS_CUM.PSI                  :  Cumulative stress (SHPZ)
UCS_BF.PSI                  :  Uniaxial Compressive Strength (BF)
UCS_LAL.PSI                  :  Uniaxial Compressive Strength (lal)
VP   .FT/S                 :  Compressional velocity
VPVS .                     :  Vp / Vs ratio
VS   .FT/S                 :  Shear velocity
YM   .                     :  Youngs' Modulus
YM_STAT.                     :  Youngs' Modulus (Static)
~Parameter Information Block
#MNEM.UNIT            Value   Description
#---------- ----------------  -----------
PROJECT.          RDG_13Jul21:  
SET  .              GEOMECH:  
~Other Information Block
~Ascii Log Data
# ...
    2994.66000 
       43.1685        76.5345        38.6392       114.4298      1360.4956 
       57.1638       104.0899     15042.0215      8260.7354        31.8259 
       31.8259        89.7829        24.1894    0.000734526       0.284082 
     -999.2500      9383.9971      5061.4028      9528.7754      6488.4302 
      0.255674      2818.3850         2.4555         1.6720     11813.6299 
     4182.2188      6283.1016     17493.5898         1.8209      9607.0801 
        9.0101         6.4629
    2994.81240 
       43.3782        76.8032        37.6240       115.9824      1370.5105 
       56.5919       103.5621     15185.7363      8298.3027        32.9428 
       32.9428        92.8829        24.4232    0.000741223       0.287128 
     -999.2500      9384.5664      5061.5093      9528.2529      6510.8418 
      0.258415      2921.3633         2.4552         1.6777     12064.4102 
     4245.9810      6361.2534     17670.3730         1.8300      9656.0420 
        9.1188         6.5699
    2994.96480 
       43.4435        76.3839        37.0278       115.7399      1373.6394 
       56.4148       103.5443     15178.7324      8269.9404        33.3203 
       33.3203        93.6101        24.3440    0.000736164       0.288916 
     -999.2500      9385.1348      5061.6162      9528.1875      6524.0825 
      0.260025      2969.8982         2.4551         1.6810     12187.9619 
     4235.9946      6385.7764     17725.8457         1.8354      9657.7021 
        9.1018         6.5531
    2995.11720 
       43.4211        75.4836        36.6149       114.3523      1372.5637 
       56.4756       103.8708     15080.8418      8199.6064        33.2695 
       33.2695        92.9647        24.0610    0.000723696       0.290155 
     -999.2500      9385.7031      5061.7227      9528.3252      6533.2573 
      0.261140      2931.7043         2.4550         1.6833     12129.9238 
     4179.0469      6377.3398     17706.7617         1.8392      9627.3447 
        9.0047         6.4576
    2995.26960 
       43.3490        74.3155        36.1305       112.5005      1369.1119 
       56.6713       104.4864     14971.6455      8120.3164        33.1473 
       33.1473        92.2711        23.6880    0.000709767       0.291608 
     -999.2500      9386.2725      5061.8291      9528.3867      6543.9912 
      0.262448      2834.3418         2.4548         1.6860     11956.6660 
     4103.5586      6350.3091     17645.6152         1.8437      9570.6240 
        8.8750         6.3309
    2995.42200 
       43.2113        73.0063        35.6788       110.3339      1362.5317 
       57.0469       105.4216     14866.1787      8044.5513        32.9120 
       32.9120        91.5737        23.2588    0.000696584       0.292964 
     -999.2500      9386.8408      5061.9355      9528.4814      6554.0161 
      0.263667      2828.7107         2.4547         1.6885     11965.4531 
     4015.9854      6298.9482     17529.4355         1.8480      9485.7217 
        8.7234         6.1840
    2995.57440 
       43.0004        71.2729        35.4015       107.1442      1352.5183 
       57.6249       106.6415     14664.7529      7924.2598        32.2696 
       32.2696        89.4672        22.6489    0.000675908       0.293795 
     -999.2500      9387.4092      5062.0425      9528.7744      6560.1226 
      0.264416      2859.4351         2.4547         1.6899     12039.1152 
     3888.5212      6221.2197     17353.6094         1.8506      9377.2119 
        8.5001         5.9701
    2995.72680 
       42.7367        69.4600        35.2485       103.6715      1340.0930 
       58.3531       108.0744     14443.0439      7798.2979        31.4546 
       31.4546        86.9746        21.9934    0.000654591       0.294255 
     -999.2500      9387.9775      5062.1494      9529.2031      6563.4692 
      0.264829      2842.2856         2.4547         1.6907     12011.5098 
     3751.7231      6125.4844     17137.0508         1.8521      9252.8848 
        8.2570         5.7405
    2995.87920 
       42.4016        67.7978        35.3222       100.2734      1324.4501 
       59.2875       109.7632     14243.1758      7693.3096        30.4980 
       30.4980        84.4940        21.3635    0.000637084       0.294033 
     -999.2500      9388.5459      5062.2554      9529.8828      6561.8071 
      0.264630      2797.3401         2.4547         1.6902     11918.2949 
     3619.8643      6006.0854     16866.9629         1.8514      9110.5215 
        8.0191         5.5193
    2996.03160 
       41.9298        65.8576        35.8016        95.9136      1302.7134 
       60.6194       111.9531     13955.6240      7556.5713        29.0236 
       29.0236        80.5559        20.5733    0.000614638       0.292595 
     -999.2500      9389.1152      5062.3623      9531.0156      6551.1064 
      0.263336      2812.1201         2.4549         1.6873     11926.4531 
     3453.5801      5842.2554     16496.3691         1.8468      8932.3115 
        7.7140         5.2402
    2996.18400 
       41.2687        62.9878        36.6530        89.3225      1272.7827 
       62.5195       114.9648     13442.4121      7310.1758        26.7734 
       26.7734        73.8211        19.3811    0.000575209       0.290041 
     -999.2500      9389.6836      5062.4683      9532.5625      6532.0977 
      0.261037      2895.7017         2.4551         1.6823     12055.5986 
     3208.3694      5620.6167     15995.0088         1.8389      8698.3145 
        7.2526         4.8288
    2996.33640 
       40.4139        58.9791        37.7021        80.2561      1234.9755 
       65.0345       118.9660     12657.7227      6919.5283        23.8668 
       23.8668        64.4582        17.7284    0.000515375       0.286894 
     -999.2500      9390.2520      5062.5752      9534.3281      6508.7202 
      0.258204      2950.4260         2.4554         1.6762     12118.2930 
     2883.2163      5347.1689     15376.4541         1.8293      8405.7627 
        6.6179         4.2832
    2996.48880 
       39.4515        54.8300        38.5361        71.1239      1193.5381 
       67.9472       123.7874     11873.0664      6517.1543        21.1664 
       21.1664        56.0231        16.0471    0.000457179       0.284392 
     -999.2500      9390.8213      5062.6812      9535.8525      6490.1895 
      0.255952      2914.6123         2.4557         1.6714     12009.6035 
     2569.9207      5055.7783     14717.3115         1.8218      8078.3667 
        5.9787         3.7574
    2996.64120 
       38.5309        51.0584        38.8406        63.2762      1154.9614 
       70.8153       128.8223     11212.1074      6163.4419        19.0926 
       19.0926        49.7353        14.5830    0.000408900       0.283478 
     -999.2500      9391.3896      5062.7881      9536.7939      6483.2969 
      0.255130      2845.7241         2.4558         1.6695     11858.0420 
     2312.0940      4792.2710     14121.2432         1.8191      7762.6313 
        5.4293         3.3248
    2996.79360 
       37.7574        48.2542        38.9549        57.5536      1123.3013 
       73.2889       133.2485     10738.6113      5906.4150        17.6393 
       17.6393        45.5463        13.5107    0.000375507       0.283135 
     -999.2500      9391.9580      5062.8940      9537.5225      6480.6860 
      0.254822      2755.2261         2.4559         1.6687     11671.8242 
     2130.7273      4581.5732     13644.6299         1.8181      7504.7749 
        5.0287         3.0205
    2996.94600 
       37.1735        46.5639        39.4572        53.6706      1099.8411 
       75.1951       136.3848     10384.4268      5725.4038        16.5019 
       16.5019        42.2758        12.7954    0.000352844       0.281628 
     -999.2500      9392.5264      5063.0010      9538.6592      6469.8701 
      0.253465      2692.5220         2.4560         1.6659     11524.7842 
     2010.8585      4428.6631     13298.7383         1.8137      7332.1958 
        4.7569         2.8193
