~Version Information Block
VERS .                  2.0:  CWLS LOG ASCII STANDARD - VERSION 2.0
WRAP .                  YES:  Multiple lines per depth step
~Well Information Block
#MNEM.UNIT        Data Type   Information
#---------- ----------------  -----------
STRT .M          2888.43720:  START DEPTH
STOP .M          3831.03120:  STOP DEPTH
STEP .M             0.15240:  STEP
NULL .              -999.25:  NULL VALUE
COMP .                     :  COMPANY
WELL .       RAAG-99-02-105:  WELL
FLD  .                     :  FIELD
LOC  .                     :  LOCATION
CTRY .                     :  COUNTRY
STAT .                     :  STATE
CNTY .                     :  COUNTY
SRVC .                     :  SERVICE COMPANY
DATE .                     :  DATE
API  .                     :  API NUMBER
UWI  .                     :  UNIQUE WELL ID
~Curve Information Block
#MNEM.UNIT         API CODE   Curve Description
#---------- ----------------  -----------------
DEPTH.M                    :  
ANGLE_FAIL.DEG                  :  Fail Angle
BRIT_IND.                     :  Brittleness Index
BRIT_PR.                     :  Brittleness Index from Poisson's Ratio
BRIT_YM.                     :  Brittleness Index from Young's Modulus
CS   .M/MIN                 :  Compressive Strength
DTCO .US/F                 :  Compressional slowness
DTSM .US/F                 :  Fast Shear Slowness
IP   .RAYL/M2                 :  P Impedence
IS   .RAYL/M2                 :  S Impedance
KBULK.                     :  Bulk Mudulus
LAMBDA.                     :  Lambda
LAMRHO.                     :  
MU   .CP                   :  Mu
MURHO.(GF/C3S)2                 :  Mu*Rho
PR   .                     :  Poisson's ratio
PRESS_FG.PSI                  :  Fracture Gradient Pressure
PRESS_OB.PSI                  :  Over-burden Pressure
PRESS_PP.PSI                  :  Pore Pressure
PRESS_SHMAX.PSI                  :  Horizontal Stress (Max)
PRESS_SHMIN.PSI                  :  Horizontal Stress (Min)
PR_STAT.                     :  Poisson's ratio (Static)
PZS  .PSI                  :  Processed Zone Stress
SHMAX_GRAD.                     :  Horizontal Stress Gradient (Max)
SHMIN_GRAD.                     :  Horizontal Stress Gradient (Min)
STRESS_CUM.PSI                  :  Cumulative stress (SHPZ)
UCS_BF.PSI                  :  Uniaxial Compressive Strength (BF)
UCS_LAL.PSI                  :  Uniaxial Compressive Strength (lal)
VP   .FT/S                 :  Compressional velocity
VPVS .                     :  Vp / Vs ratio
VS   .FT/S                 :  Shear velocity
YM   .                     :  Youngs' Modulus
YM_STAT.                     :  Youngs' Modulus (Static)
~Parameter Information Block
#MNEM.UNIT            Value   Description
#---------- ----------------  -----------
PROJECT.          RDG_13Jul21:  
SET  .              GEOMECH:  
~Other Information Block
~Ascii Log Data
# ...
    3137.15400 
       35.0154        55.8682        60.9661        50.7704      1016.1450 
       82.5437       137.3161      9667.0146      5811.0532         9.8988 
        9.8988        25.9145        12.8988    0.000363479       0.217102 
     -999.2500      9745.6826      5124.2095      9924.3555      6172.2144 
      0.195392      2631.5471         2.4713         1.5369     10807.5234 
     1923.0087      3905.2710     12114.7949         1.6636      7282.4673 
        4.5539         2.6719
    3137.30640 
       35.8308        59.5884        63.6183        55.5586      1047.2319 
       79.7101       131.4388      9911.9336      6011.0195        10.0233 
       10.0233        25.9817        13.9393    0.000388925       0.209145 
     -999.2500      9746.2637      5124.3052      9927.5313      6120.9019 
      0.188231      2162.2502         2.4719         1.5241      9766.3047 
     2068.8181      4095.6580     12545.4619         1.6490      7608.1035 
        4.8891         2.9166
    3137.45880 
       37.0176        62.9363        63.5166        62.3561      1093.6355 
       75.7101       124.8844     10335.0459      6265.5332        11.0237 
       11.0237        28.2994        15.2920    0.000422558       0.209450 
     -999.2500      9746.8457      5124.4019      9928.0117      6123.5229 
      0.188505      2049.0483         2.4719         1.5247      9545.1426 
     2282.5544      4388.6724     13208.2773         1.6495      8007.4058 
        5.3649         3.2752
    3137.61120 
       38.0325        67.4272        64.8094        70.0450      1134.4862 
       72.4023       118.9296     10819.1299      6586.5005        11.7859 
       11.7859        30.2896        16.8803    0.000466960       0.205572 
     -999.2500      9747.4268      5124.4976      9929.8340      6099.2891 
      0.185015      2134.0464         2.4722         1.5185      9666.6709 
     2533.8484      4655.4375     13811.7158         1.6426      8408.3350 
        5.9031         3.6969
    3137.76360 
       38.7081        70.6577        65.0696        76.2458      1162.3066 
       70.2571       115.3098     11259.0635      6860.0342        12.5793 
       12.5793        32.6464        18.1332    0.000506550       0.204791 
     -999.2500      9748.0078      5124.5938      9930.6621      6094.9282 
      0.184312      2329.0454         2.4723         1.5174     10047.9473 
     2743.8770      4841.8696     14233.4365         1.6413      8672.2900 
        6.3372         4.0493
    3137.91600 
       39.2227        68.7878        58.7956        78.7800      1183.8556 
       68.6525       115.0633     11612.7461      6928.7427        14.8495 
       14.8495        38.8409        18.3541    0.000516748       0.223613 
     -999.2500      9748.5889      5124.6899      9925.1035      6218.3086 
      0.201252      2557.9595         2.4708         1.5480     10752.5361 
     2831.6072      4988.9375     14566.1123         1.6760      8690.8682 
        6.5146         4.1966
    3138.06840 
       39.5755        62.5269        47.6377        77.4160      1198.8141 
       67.5669       118.1619     11934.5254      6824.3560        18.6306 
       18.6306        49.2892        17.6035    0.000501295       0.257087 
     -999.2500      9749.1709      5124.7861      9914.1006      6450.5791 
      0.231378      2279.4597         2.4679         1.6057     10660.0771 
     2784.2502      5092.3975     14800.1455         1.7488      8462.9639 
        6.4191         4.1171
    3138.22080 
       39.6476        55.9124        38.2975        73.5273      1201.8855 
       67.3468       122.8363     12120.7080      6645.3560        21.8773 
       21.8773        58.5901        16.4895    0.000475342       0.285108 
     -999.2500      9749.7529      5124.8818      9904.2725      6659.3438 
      0.256597      2061.8953         2.4653         1.6576     10642.4775 
     2650.9883      5113.7803     14848.5146         1.8239      8140.9155 
        6.1469         3.8935
    3138.37320 
       39.5210        51.0913        32.7488        69.4338      1196.4911 
       67.7340       127.1184     12147.3154      6472.5977        23.6228 
       23.6228        63.7682        15.5198    0.000450949       0.301754 
     -999.2500      9750.3340      5124.9780      9898.3408      6790.1978 
      0.271578      1947.5164         2.4637         1.6901     10675.4287 
     2513.5042      5076.2563     14763.6338         1.8767      7866.6821 
        5.8604         3.6628
    3138.52560 
       39.4329        47.1965        28.9552        65.4378      1192.7493 
       68.0043       130.3790     12015.1279      6266.9634        24.5508 
       24.5508        65.8136        14.6509    0.000422751       0.313134 
     -999.2500      9750.9160      5125.0742      9894.3203      6882.8174 
      0.281821      1900.7050         2.4626         1.7131     10767.0449 
     2382.0593      5050.3145     14704.9521         1.9172      7669.9468 
        5.5806         3.4422
    3138.67800 
       39.4482        44.1784        26.0506        62.3063      1193.3999 
       67.9572       132.5879     11867.1475      6082.4409        25.2610 
       25.2610        66.8370        13.9826    0.000398223       0.321848 
     -999.2500      9751.4971      5125.1699      9891.2910      6955.6123 
      0.289663      1821.2462         2.4617         1.7311     10753.7168 
     2280.9600      5054.8203     14715.1436         1.9511      7542.1665 
        5.3614         3.2726
    3138.83040 
       39.2955        42.7228        25.3757        60.0699      1186.9288 
       68.4276       134.0702     11680.8018      5961.7217        24.9231 
       24.9231        65.3569        13.5536    0.000382572       0.323873 
     -999.2500      9752.0781      5125.2661      9891.0391      6972.8701 
      0.291486      1831.5370         2.4615         1.7353     10808.8145 
     2209.7854      5010.1011     14613.9873         1.9593      7458.7788 
        5.2049         3.1531
    3138.98280 
       38.7035        43.5185        28.3093        58.7277      1162.1149 
       70.2716       135.2387     11440.5615      5944.6489        22.8269 
       22.8269        60.2087        13.3980    0.000380384       0.315072 
     -999.2500      9752.6602      5125.3623      9895.3330      6899.2124 
      0.283565      1851.1384         2.4624         1.7169     10700.7021 
     2167.4819      4840.5713     14230.5000         1.9245      7394.3340 
        5.1109         3.0822
    3139.13520 
       37.8361        45.8665        33.9779        57.7550      1126.4912 
       73.0346       136.1671     11154.9854      5983.0894        19.7684 
       19.7684        52.8390        13.3927    0.000385320       0.298066 
     -999.2500      9753.2422      5125.4580      9902.8418      6761.2388 
      0.268260      1906.8127         2.4642         1.6824     10536.1035 
     2137.0164      4602.5762     13692.1396         1.8644      7343.9180 
        5.0428         3.0310
    3139.28760 
       37.1305        48.3906        39.2624        57.5188      1098.1257 
       75.3370       136.7697     11008.6787      6063.9219        17.5115 
       17.5115        47.6487        13.5138    0.000395801       0.282213 
     -999.2500      9753.8232      5125.5537      9909.6260      6637.7642 
      0.253991      2041.6567         2.4657         1.6516     10558.8418 
     2129.6423      4417.5898     13273.6904         1.8154      7311.5605 
        5.0263         3.0187
    3139.44000 
       36.5588        50.3942        43.8331        56.9553      1075.5277 
       77.2393       137.3000     10852.1064      6104.9463        15.7189 
       15.7189        43.2275        13.5527    0.000401175       0.268501 
     -999.2500      9754.4043      5125.6499      9915.3887      6534.7139 
      0.241651      2327.5635         2.4670         1.6259     10924.5547 
     2112.0896      4273.0693     12946.7764         1.7776      7283.3213 
        4.9869         2.9892
