~Version Information Block
VERS .                  2.0:  CWLS LOG ASCII STANDARD - VERSION 2.0
WRAP .                  YES:  Multiple lines per depth step
~Well Information Block
#MNEM.UNIT        Data Type   Information
#---------- ----------------  -----------
STRT .M          2776.00000:  START DEPTH
STOP .M          3750.44560:  STOP DEPTH
STEP .M             0.15240:  STEP
NULL .              -999.25:  NULL VALUE
COMP .                     :  COMPANY
WELL .      RAAG-102-07-105:  WELL
FLD  .                     :  FIELD
LOC  .                     :  LOCATION
CTRY .                     :  COUNTRY
STAT .                     :  STATE
CNTY .                     :  COUNTY
SRVC .                     :  SERVICE COMPANY
DATE .                     :  DATE
API  .                     :  API NUMBER
UWI  .                     :  UNIQUE WELL ID
~Curve Information Block
#MNEM.UNIT         API CODE   Curve Description
#---------- ----------------  -----------------
DEPTH.M                    :  
ANGLE_FAIL.DEG                  :  Fail Angle
BRIT_IND.                     :  Brittleness Index
BRIT_PR.                     :  Brittleness Index from Poisson's Ratio
BRIT_YM.                     :  Brittleness Index from Young's Modulus
CS   .M/MIN                 :  Compressive Strength
DTCO .US/F                 :  Compressional slowness
DTSM .US/F                 :  Fast Shear Slowness
IP   .RAYL/M2                 :  P Impedence
IS   .RAYL/M2                 :  S Impedance
KBULK.                     :  Bulk Mudulus
LAMBDA.                     :  Lambda
LAMRHO.                     :  
MU   .CP                   :  Mu
MURHO.(GF/C3S)2                 :  Mu*Rho
PR   .                     :  Poisson's ratio
PRESS_FG.PSI                  :  Fracture Gradient Pressure
PRESS_OB.PSI                  :  Over-burden Pressure
PRESS_PP.PSI                  :  Pore Pressure
PRESS_SHMAX.PSI                  :  Horizontal Stress (Max)
PRESS_SHMIN.PSI                  :  Horizontal Stress (Min)
PR_STAT.                     :  Poisson's ratio (Static)
PZS  .PSI                  :  Processed Zone Stress
SHMAX_GRAD.                     :  Horizontal Stress Gradient (Max)
SHMIN_GRAD.                     :  Horizontal Stress Gradient (Min)
STRESS_CUM.PSI                  :  Cumulative stress (SHPZ)
UCS_BF.PSI                  :  Uniaxial Compressive Strength (BF)
UCS_LAL.PSI                  :  Uniaxial Compressive Strength (lal)
VP   .FT/S                 :  Compressional velocity
VPVS .                     :  Vp / Vs ratio
VS   .FT/S                 :  Shear velocity
YM   .                     :  Youngs' Modulus
YM_STAT.                     :  Youngs' Modulus (Static)
~Parameter Information Block
#MNEM.UNIT            Value   Description
#---------- ----------------  -----------
PROJECT.          RDG_13Jul21:  
SET  .              GEOMECH:  
~Other Information Block
~Ascii Log Data
# ...
    3561.16480 
       39.8272        52.0478        36.1618        67.9338      1209.5764 
       66.7998       123.1410     11441.3662      6206.5518        21.4806 
       21.4806        53.8623        15.3625    0.000414640       0.291514 
     -999.2500     11716.6963      5336.3354     11925.4414      7541.7910 
      0.262363       960.4430         2.5163         1.5914     10204.4688 
     2463.8413      5167.5322     14970.1055         1.8434      8120.7725 
        5.7554         3.5794
    3561.31720 
       39.4015        51.5498        37.6634        65.4362      1191.4182 
       68.1008       124.5989     11180.0625      6110.5771        20.1428 
       20.1428        50.3155        14.9480    0.000401915       0.287010 
     -999.2500     11717.2969      5336.3672     11928.4746      7493.7378 
      0.258309       788.4028         2.5169         1.5812      9764.2813 
     2382.0063      5041.1035     14684.1152         1.8296      8025.7529 
        5.5805         3.4421
    3561.46960 
       38.9332        53.9384        42.8461        65.0307      1171.6940 
       69.5521       124.1815     10950.5352      6133.2222        17.8812 
       17.8812        44.6814        15.0538    0.000404900       0.271462 
     -999.2500     11717.8984      5336.3975     11937.2002      7331.8628 
      0.244315       614.9175         2.5186         1.5469      9093.5605 
     2368.8196      4905.6494     14377.7109         1.7854      8052.7295 
        5.5521         3.4200
    3561.62200 
       39.0025        52.7741        40.6656        64.8827      1174.5964 
       69.3360       125.0412     11059.6055      6132.6089        18.7202 
       18.7202        47.0971        14.9488    0.000404819       0.278003 
     -999.2500     11718.5000      5336.4292     11934.4482      7399.5264 
      0.250203       503.1066         2.5179         1.5611      9005.2656 
     2364.0151      4925.4595     14422.5225         1.8034      7997.3643 
        5.5418         3.4119
    3561.77440 
       39.0138        49.9904        36.6452        63.3356      1175.0730 
       69.3006       127.4393     11163.7939      6070.7925        20.0616 
       20.0616        50.9212        14.5197    0.000396699       0.290064 
     -999.2500     11719.1006      5336.4604     11928.7139      7526.8384 
      0.261058       478.7874         2.5166         1.5879      9211.2520 
     2314.0068      4928.7168     14429.8896         1.8389      7846.8726 
        5.4335         3.3280
    3561.92680 
       38.9089        46.8841        32.8398        60.9285      1170.6799 
       69.6278       130.6082     11209.6582      5975.9175        21.1790 
       21.1790        54.2332        13.9460    0.000384396       0.301481 
     -999.2500     11719.7012      5336.4907     11923.1465      7650.7983 
      0.271333       489.1270         2.5153         1.6140      9479.8506 
     2237.0093      4898.7393     14362.0801         1.8758      7656.4873 
        5.2650         3.1988
    3562.07920 
       38.0967        46.8819        36.3122        57.4516      1137.1055 
       72.1967       132.9884     10776.5479      5850.3687        18.6792 
       18.6792        47.6804        13.4086    0.000368414       0.291063 
     -999.2500     11720.3037      5336.5220     11929.4395      7537.5850 
      0.261957       511.9851         2.5165         1.5900      9299.1396 
     2127.5457      4672.8252     13851.0479         1.8420      7519.4526 
        5.0216         3.0151
    3562.23160 
       36.8400        49.7018        45.9413        53.4622      1086.6003 
       76.2995       134.3910     10059.2822      5711.0830        14.2791 
       14.2791        35.9562        12.9528    0.000351081       0.262176 
     -999.2500     11720.9043      5336.5527     11945.0430      7238.1338 
      0.235958       524.8893         2.5197         1.5268      8726.0459 
     2004.4971      4343.5669     13106.2461         1.7614      7440.9736 
        4.7424         2.8087
    3562.38400 
       35.8317        50.9176        52.5215        49.3137      1047.2645 
       79.7072       136.6987      9501.2881      5540.0752        11.6272 
       11.6272        28.8896        12.3528    0.000330371       0.242436 
     -999.2500     11721.5059      5336.5835     11955.3350      7044.9082 
      0.218192       515.4680         2.5217         1.4860      8320.7529 
     1879.4271      4095.8599     12545.9180         1.7150      7315.3584 
        4.4520         2.5988
    3562.53640 
       35.6324        52.7284        56.1420        49.3148      1039.6099 
       80.3931       136.0215      9409.5479      5561.3467        10.7511 
       10.7511        26.6824        12.4620    0.000332912       0.231574 
     -999.2500     11722.1074      5336.6147     11961.0869      6942.5098 
      0.208417       517.3383         2.5228         1.4643      8119.6958 
     1879.4612      4048.5403     12438.8789         1.6920      7351.7793 
        4.4520         2.5989
    3562.68880 
       35.9930        53.3691        55.0185        51.7197      1053.4893 
       79.1550       134.4796      9668.0400      5690.6304        11.4327 
       11.4327        28.7045        12.8979    0.000348571       0.234944 
     -999.2500     11722.7080      5336.6460     11960.1230      6974.4082 
      0.211450       590.2471         2.5225         1.4710      8329.3105 
     1951.6038      4134.5513     12633.4414         1.6989      7436.0723 
        4.6204         2.7199
    3562.84120 
       36.9410        51.8944        47.4481        56.3408      1090.5974 
       75.9639       132.9516     10345.6523      5911.1440        14.4079 
       14.4079        37.1493        13.5517    0.000376109       0.257656 
     -999.2500     11723.3096      5336.6763     11949.7686      7194.1221 
      0.231890       750.9683         2.5202         1.5172      9090.1807 
     2093.0107      4369.1636     13164.1484         1.7502      7521.5347 
        4.9439         2.9572
    3562.99360 
       38.2682        49.6066        37.5293        61.6839      1144.1310 
       71.6490       131.1777     11220.2949      6128.5029        19.2520 
       19.2520        50.7779        14.2400    0.000404277       0.287412 
     -999.2500     11723.9111      5336.7075     11935.0938      7500.2622 
      0.258671      1003.7284         2.5170         1.5817     10207.9814 
     2261.0654      4719.6323     13956.9287         1.8308      7623.2471 
        5.3179         3.2392
    3563.14600 
       39.3032        48.5048        31.0856        65.9239      1187.2548 
       68.4038       129.5567     11924.7168      6296.0537        23.5106 
       23.5106        62.9183        14.8123    0.000426685       0.306743 
     -999.2500     11724.5127      5336.7388     11925.1650      7711.4556 
      0.276069      1303.7633         2.5148         1.6262     11230.4375 
     2397.9033      5012.3486     14619.0703         1.8940      7718.6284 
        5.6147         3.4688
    3563.29840 
       40.0629        48.1741        27.3998        68.9483      1219.7256 
       66.0869       127.8785     12373.8018      6394.7119        26.5856 
       26.5856        71.3263        15.2419    0.000440161       0.317801 
     -999.2500     11725.1133      5336.7690     11919.5156      7837.0576 
      0.286021      1527.4236         2.5135         1.6526     11928.9629 
     2497.3882      5238.9219     15131.5928         1.9350      7819.9229 
        5.8264         3.6357
    3563.45080 
       40.0744        49.3159        28.5773        70.0544      1220.2233 
       66.0522       126.9174     12390.1738      6448.2744        26.2030 
       26.2030        70.3559        15.4859    0.000447566       0.314268 
     -999.2500     11725.7158      5336.8003     11922.1484      7797.0488 
      0.282841      1612.5062         2.5139         1.6441     12019.1094 
     2534.1624      5242.4355     15139.5410         1.9215      7879.1406 
        5.9038         3.6974
