~Version Information Block
VERS .                  2.0:  CWLS LOG ASCII STANDARD - VERSION 2.0
WRAP .                  YES:  Multiple lines per depth step
~Well Information Block
#MNEM.UNIT        Data Type   Information
#---------- ----------------  -----------
STRT .M          2784.04320:  START DEPTH
STOP .M          3715.96920:  STOP DEPTH
STEP .M             0.15240:  STEP
NULL .              -999.25:  NULL VALUE
COMP .                     :  COMPANY
WELL .      RAAG-101-02-104:  WELL
FLD  .                     :  FIELD
LOC  .                     :  LOCATION
CTRY .                     :  COUNTRY
STAT .                     :  STATE
CNTY .                     :  COUNTY
SRVC .                     :  SERVICE COMPANY
DATE .                     :  DATE
API  .                     :  API NUMBER
UWI  .                     :  UNIQUE WELL ID
~Curve Information Block
#MNEM.UNIT         API CODE   Curve Description
#---------- ----------------  -----------------
DEPTH.M                    :  
ANGLE_FAIL.DEG                  :  Fail Angle
BRIT_IND.                     :  Brittleness Index
BRIT_PR.                     :  Brittleness Index from Poisson's Ratio
BRIT_YM.                     :  Brittleness Index from Young's Modulus
CS   .M/MIN                 :  Compressive Strength
DTCO .US/F                 :  Compressional slowness
DTSM .US/F                 :  Fast Shear slowness
IP   .RAYL/M2                 :  P Impedence
IS   .RAYL/M2                 :  S Impedance
KBULK.                     :  Bulk Mudulus
LAMBDA.                     :  Lambda
LAMRHO.                     :  
MU   .CP                   :  Mu
MURHO.(GF/C3S)2                 :  Mu*Rho
PR   .                     :  Poisson's ratio
PRESS_FG.PSI                  :  Fracture Gradient Pressure
PRESS_OB.PSI                  :  Over-burden Pressure
PRESS_PP.PSI                  :  Pore Pressure
PRESS_SHMAX.PSI                  :  Horizontal Stress (Max)
PRESS_SHMIN.PSI                  :  Horizontal Stress (Min)
PR_STAT.                     :  Poisson's ratio (Static)
PZS  .PSI                  :  Processed Zone Stress
SHMAX_GRAD.                     :  Horizontal Stress Gradient (Max)
SHMIN_GRAD.                     :  Horizontal Stress Gradient (Min)
STRESS_CUM.PSI                  :  Cumulative stress (SHPZ)
UCS_BF.PSI                  :  Uniaxial Compressive Strength (BF)
UCS_LAL.PSI                  :  Uniaxial Compressive Strength (lal)
VP   .FT/S                 :  Compressional velocity
VPVS .                     :  Vp / Vs ratio
VS   .FT/S                 :  Shear velocity
YM   .                     :  Youngs' Modulus
YM_STAT.                     :  Youngs' Modulus (Static)
~Parameter Information Block
#MNEM.UNIT            Value   Description
#---------- ----------------  -----------
PROJECT.          RDG_13Jul21:  
SET  .              GEOMECH:  
~Other Information Block
~Ascii Log Data
# ...
    2952.29280 
       36.3893        32.5649        23.1604        41.9693      1068.8912 
       77.8098       154.6474     10288.7764      5176.7285        19.8977 
       19.8977        52.2619        10.2030         0.0003       0.330519 
     -999.2500     10023.5098      5167.8389     10166.3145      7167.4229 
      0.297467      2424.1865         2.4679         1.7399     12383.2188 
     1665.2319      4231.1055     12851.8516         1.9875      6466.3228 
        3.9379         2.2394
    2952.44520 
       36.3269        32.9096        23.8517        41.9674      1066.4573 
       78.0204       154.3644     10239.0908      5175.1440        19.5636 
       19.5636        51.2748        10.2186         0.0003       0.328445 
     -999.2500     10024.0938      5167.9258     10167.8477      7149.0049 
      0.295600      2452.9932         2.4682         1.7354     12403.9961 
     1665.1768      4215.7690     12817.1602         1.9785      6478.1777 
        3.9377         2.2393
    2952.59760 
       36.1427        34.0067        25.7915        42.2219      1059.2883 
       78.6450       153.6880     10158.9990      5198.5479        18.7527 
       18.7527        49.1555        10.3100         0.0003       0.322626 
     -999.2500     10024.6787      5168.0122     10171.0459      7097.3247 
      0.290363      2542.6333         2.4688         1.7227     12479.9160 
     1672.4437      4170.7690     12715.3672         1.9542      6506.6890 
        3.9555         2.2515
    2952.75000 
       36.0091        34.6721        27.0916        42.2527      1054.1134 
       79.0999       153.3446     10090.7207      5205.1064        18.1910 
       18.1910        47.6364        10.3461         0.0003       0.318725 
     -999.2500     10025.2627      5168.0991     10173.3662      7063.1934 
      0.286853      2695.6404         2.4693         1.7144     12717.6680 
     1673.3235      4138.4419     12642.2412         1.9386      6521.2598 
        3.9577         2.2530
    2952.90240 
       36.0066        34.4394        27.0844        41.7945      1054.0160 
       79.1085       153.3679     10010.7363      5163.6245        18.0466 
       18.0466        46.8888        10.2621         0.0003       0.318747 
     -999.2500     10025.8467      5168.1860     10173.9570      7063.6362 
      0.286872      2826.2864         2.4693         1.7144     12979.8447 
     1660.2441      4137.8345     12640.8672         1.9387      6520.2690 
        3.9256         2.2310
    2953.05480 
       36.1822        34.2687        26.5481        41.9894      1060.8236 
       78.5107       152.7084     10022.9219      5153.0010        18.3413 
       18.3413        47.3521        10.2852         0.0003       0.320356 
     -999.2500     10026.4316      5168.2725     10173.8486      7078.0981 
      0.288320      2737.1667         2.4691         1.7178     12830.5303 
     1665.8030      4180.3843     12737.1172         1.9451      6548.4277 
        3.9393         2.2403
    2953.20720 
       36.6424        34.7224        25.5313        43.9135      1078.8107 
       76.9591       150.6386     10266.1807      5244.8447        19.4350 
       19.4350        50.3777        10.6123         0.0003       0.323406 
     -999.2500     10027.0156      5168.3594     10173.0898      7105.5298 
      0.291066      2776.8242         2.4688         1.7244     12964.7080 
     1721.0353      4293.9082     12993.9150         1.9574      6638.4053 
        4.0739         2.3330
    2953.35960 
       37.2981        35.3062        23.7738        46.8386      1104.8151 
       74.7856       148.0394     10673.3955      5391.9175        21.2981 
       21.2981        55.7758        11.1015         0.0003       0.328678 
     -999.2500     10027.5996      5168.4463     10171.3193      7153.2129 
      0.295811      3015.6711         2.4683         1.7359     13537.7686 
     1806.2097      4460.8545     13371.5576         1.9795      6754.9585 
        4.2787         2.4759
    2953.51200 
       37.9359        35.6564        21.7924        49.5205      1130.5500 
       72.7127       145.8500     11073.3496      5520.5562        23.3438 
       23.3438        61.6660        11.5370         0.0003       0.334623 
     -999.2500     10028.1846      5168.5327     10169.2100      7207.6797 
      0.301161      2946.9885         2.4676         1.7490     13509.3369 
     1885.5917      4629.3726     13752.7559         2.0058      6856.3589 
        4.4664         2.6091
    2953.66440 
       38.7374        35.2579        18.7111        51.8047      1163.5260 
       70.1650       143.8364     11480.7910      5600.4585        26.1375 
       26.1375        69.0783        11.8678         0.0003       0.343867 
     -999.2500     10028.7686      5168.6196     10165.5186      7293.7637 
      0.309480      2916.1472         2.4666         1.7698     13619.8213 
     1954.1747      4850.1289     14252.1191         2.0500      6952.3433 
        4.6263         2.7242
    2953.81680 
       39.4371        36.0109        17.1540        54.8677      1192.9288 
       67.9913       141.0087     11873.0117      5724.9063        28.4763 
       28.4763        75.4193        12.3748         0.0004       0.348538 
     -999.2500     10029.3525      5168.7065     10163.9023      7338.3599 
      0.313684      2957.0498         2.4661         1.7805     13790.8193 
     2047.5367      5051.5576     14707.7637         2.0739      7091.7612 
        4.8407         2.8809
    2953.96920 
       39.6580        38.9790        19.3268        58.6313      1202.3303 
       67.3150       137.3779     12060.4609      5909.6108        28.3861 
       28.3861        75.6077        13.1116         0.0004       0.342020 
     -999.2500     10029.9365      5168.7930     10167.5527      7277.6152 
      0.307818      3022.6938         2.4668         1.7657     13800.6182 
     2164.4551      5116.8813     14855.5293         2.0408      7279.1914 
        5.1042         3.0771
    2954.12160 
       39.7345        42.2548        22.1218        62.3879      1205.6039 
       67.0816       134.2543     12230.2148      6110.9570        27.8230 
       27.8230        74.8905        13.8738         0.0004       0.333635 
     -999.2500     10030.5215      5168.8799     10172.0078      7200.8003 
      0.300271      3045.5737         2.4678         1.7469     13692.7490 
     2283.5723      5139.7314     14907.2188         2.0014      7448.5513 
        5.3672         3.2770
    2954.27400 
       39.8672        44.5543        23.8351        65.2735      1211.2931 
       66.6785       131.9386     12378.2949      6255.6836        27.6802 
       27.6802        74.9550        14.4517         0.0004       0.328495 
     -999.2500     10031.1055      5168.9663     10174.9268      7154.6846 
      0.295645      2952.2847         2.4683         1.7357     13413.9385 
     2376.7131      5179.5713     14997.3389         1.9787      7579.2832 
        5.5691         3.4332
    2954.42640 
       40.1015        45.7058        24.0817        67.3299      1221.3950 
       65.9706       130.3289     12530.2139      6342.6123        28.2257 
       28.2257        76.5488        14.8335         0.0004       0.327755 
     -999.2500     10031.6904      5169.0527     10175.8506      7148.4746 
      0.294979      2839.9351         2.4684         1.7341     13176.8184 
     2443.9563      5250.7144     15158.2686         1.9756      7672.8955 
        5.7131         3.5461
    2954.57880 
       40.3305        45.6067        23.1774        68.0360      1231.3380 
       65.2835       129.7368     12630.0596      6355.4404        29.1055 
       29.1055        78.7352        14.9313         0.0004       0.330468 
     -999.2500     10032.2754      5169.1396     10175.2227      7173.3247 
      0.297421      2856.7317         2.4682         1.7400     13260.1123 
     2467.2151      5321.2422     15317.8057         1.9873      7707.9126 
        5.7625         3.5851
