~Version Information Block
VERS .                  2.0:  CWLS LOG ASCII STANDARD - VERSION 2.0
WRAP .                  YES:  Multiple lines per depth step
~Well Information Block
#MNEM.UNIT        Data Type   Information
#---------- ----------------  -----------
STRT .M          2656.78920:  START DEPTH
STOP .M          3640.98840:  STOP DEPTH
STEP .M             0.15240:  STEP
NULL .              -999.25:  NULL VALUE
COMP .                     :  COMPANY
WELL .       RAAG-98-07-214:  WELL
FLD  .                     :  FIELD
LOC  .                     :  LOCATION
CTRY .                     :  COUNTRY
STAT .                     :  STATE
CNTY .                     :  COUNTY
SRVC .                     :  SERVICE COMPANY
DATE .                     :  DATE
API  .                     :  API NUMBER
UWI  .                     :  UNIQUE WELL ID
~Curve Information Block
#MNEM.UNIT         API CODE   Curve Description
#---------- ----------------  -----------------
DEPTH.M                    :  
ANGLE_FAIL.DEG                  :  Fail Angle
BRIT_IND.                     :  Brittleness Index
BRIT_PR.                     :  Brittleness Index from Poisson's Ratio
BRIT_YM.                     :  Brittleness Index from Young's Modulus
CS   .M/MIN                 :  Compressive Strength
IP   .RAYL/M2                 :  P Impedence
IS   .RAYL/M2                 :  S Impedance
KBULK.                     :  Bulk Mudulus
LAMBDA.                     :  Lambda
LAMRHO.                     :  
MU   .CP                   :  Mu
MURHO.(GF/C3S)2                 :  Mu*Rho
PR   .                     :  Poisson's ratio
PRESS_FG.PSI                  :  Fracture Gradient Pressure
PRESS_OB.PSI                  :  Over-burden Pressure
PRESS_PP.PSI                  :  Pore Pressure
PRESS_SHMAX.PSI                  :  Horizontal Stress (Max)
PRESS_SHMIN.PSI                  :  Horizontal Stress (Min)
PR_STAT.                     :  Poisson's ratio (Static)
PZS  .PSI                  :  Processed Zone Stress
SHMAX_GRAD.                     :  Horizontal Stress Gradient (Max)
SHMIN_GRAD.                     :  Horizontal Stress Gradient (Min)
STRESS_CUM.PSI                  :  Cumulative stress (SHPZ)
UCS_BF.PSI                  :  Uniaxial Compressive Strength (BF)
UCS_LAL.PSI                  :  Uniaxial Compressive Strength (lal)
VP   .FT/S                 :  Compressional velocity
VPVS .                     :  Vp / Vs ratio
VS   .FT/S                 :  Shear velocity
YM   .                     :  Youngs' Modulus
YM_STAT.                     :  Youngs' Modulus (Static)
~Parameter Information Block
#MNEM.UNIT            Value   Description
#---------- ----------------  -----------
PROJECT.          RDG_13Jul21:  
SET  .              GEOMECH:  
~Other Information Block
~Ascii Log Data
# ...
    3371.85000 
       39.9438        61.6870        51.0373        72.3367      1214.5907 
    10874.0957      6304.0488        16.3523        16.3523        38.7639 
       16.7645    0.000427769       0.246888      -999.2500     11403.5078 
     5317.4316     11624.4316      6985.0327       0.222199      1060.6698 
        2.5129         1.5100      9291.4053      2610.7065      5202.7378 
    15049.7432         1.7249      8724.8008         6.0636         3.8259
    3372.00240 
       39.9724        61.7174        51.8200        71.6149      1215.8206 
    10723.9443      6236.0586        15.9442        15.9442        37.2261 
       16.6561    0.000418592       0.244540      -999.2500     11404.0967 
     5317.4722     11626.1221      6963.5889       0.220086       992.1158 
        2.5132         1.5053      9111.4092      2586.4009      5211.3921 
    15069.3193         1.7197      8762.9287         6.0130         3.7851
    3372.15480 
       40.0733        63.2728        53.8814        72.6642      1220.1777 
    10689.1895      6265.0469        15.4356        15.4356        35.7571 
       16.9438    0.000422492       0.238356      -999.2500     11404.6855 
     5317.5127     11629.5420      6907.5518       0.214520      1033.0649 
        2.5138         1.4931      9081.2334      2621.7610      5242.1147 
    15138.8154         1.7062      8873.0195         6.0865         3.8444
    3372.30720 
       40.2694        64.5979        54.8403        74.3554      1228.6786 
    10747.7920      6322.0024        15.4127        15.4127        35.5796 
       17.3136    0.000430209       0.235479      -999.2500     11405.2754 
     5317.5537     11631.4424      6881.9414       0.211931      1106.4321 
        2.5141         1.4875      9176.7471      2679.1499      5302.3301 
    15275.0254         1.7001      8984.9844         6.2049         3.9407
    3372.45960 
       40.4477        64.5602        53.7810        75.3395      1236.4506 
    10836.5811      6349.0317        15.9452        15.9452        36.8111 
       17.4609    0.000433895       0.238657      -999.2500     11405.8643 
     5317.5947     11630.6152      6910.8525       0.214791      1141.1354 
        2.5138         1.4937      9303.9756      2712.7698      5357.7021 
    15400.2803         1.7068      9022.8525         6.2738         3.9971
    3372.61200 
       40.5488        63.8013        52.3512        75.2514      1240.8788 
    10856.2686      6325.9976        16.4295        16.4295        37.8221 
       17.3835    0.000430753       0.242947      -999.2500     11406.4531 
     5317.6348     11629.2734      6950.0435       0.218652      1110.9082 
        2.5134         1.5021      9321.9023      2709.7522      5389.3877 
    15471.9551         1.7161      9015.5801         6.2676         3.9921
    3372.76440 
       40.5794        61.8759        49.6026        74.1492      1242.2200 
    10869.8311      6265.7007        17.2198        17.2198        39.6352 
       17.0564    0.000422580       0.251192      -999.2500     11407.0430 
     5317.6753     11626.0840      7026.2397       0.226073      1087.2054 
        2.5126         1.5185      9426.8906      2672.1265      5399.0044 
    15493.7090         1.7348      8931.0430         6.1904         3.9290
    3372.91680 
       40.5975        59.0809        46.0320        72.1297      1243.0126 
    10838.8262      6156.0454        18.1778        18.1778        41.6864 
       16.5254    0.000407919       0.261904      -999.2500     11407.6328 
     5317.7158     11621.6465      7127.3447       0.235714      1189.3368 
        2.5115         1.5403      9833.3633      2603.7275      5404.6919 
    15506.5742         1.7607      8807.1514         6.0491         3.8142
    3373.06920 
       40.5962        57.7951        44.1284        71.4617      1242.9551 
    10885.4814      6131.7158        18.7985        18.7985        43.2978 
       16.3238    0.000404701       0.267615      -999.2500     11408.2227 
     5317.7563     11619.5117      7182.4331       0.240853      1354.7833 
        2.5109         1.5521     10274.4326      2581.2563      5404.2788 
    15505.6406         1.7753      8734.2188         6.0023         3.7765
    3373.22160 
       40.6207        57.5623        43.5017        71.6229      1244.0326 
    10938.0791      6144.2603        19.0925        19.0925        44.1377 
       16.3302    0.000406358       0.269495      -999.2500     11408.8115 
     5317.7969     11619.2070      7200.9072       0.242546      1547.8873 
        2.5107         1.5560     10697.5889      2586.6697      5412.0156 
    15523.1406         1.7802      8719.8320         6.0136         3.7856
    3373.37400 
       40.8573        57.3933        41.7021        73.0844      1254.4655 
    11136.8379      6205.1860        20.1955        20.1955        47.0205 
       16.5377    0.000414457       0.274894      -999.2500     11409.4014 
     5317.8374     11617.1670      7254.0938       0.247404      1710.0103 
        2.5102         1.5674     11128.2080      2635.9766      5487.2275 
    15693.2744         1.7948      8743.9258         6.1159         3.8683
    3373.52640 
       41.3697        56.5983        37.9357        75.2610      1277.3179 
    11451.1836      6267.1621        22.4889        22.4889        52.5750 
       16.8008    0.000422778       0.286193      -999.2500     11409.9912 
     5317.8784     11612.1230      7367.3657       0.257574      1719.4668 
        2.5090         1.5918     11373.6650      2710.0825      5653.9067 
    16070.3135         1.8272      8795.1826         6.2683         3.9926
    3373.67880 
       41.8294        56.6348        35.2298        78.0398      1298.1274 
    11800.8516      6371.0728        24.6300        24.6300        58.0790 
       17.2135    0.000436913       0.294311      -999.2500     11410.5811 
     5317.9189     11608.5674      7450.8481       0.264879      1717.5964 
        2.5081         1.6098     11536.8896      2805.8689      5808.0000 
    16418.8809         1.8523      8864.2666         6.4628         4.1534
    3373.83120 
       42.0940        58.3321        35.0883        81.5759      1310.2407 
    12115.3486      6536.0757        25.6548        25.6548        61.3411 
       17.8670    0.000459837       0.294735      -999.2500     11411.1709 
     5317.9595     11608.9414      7455.7588       0.265262      1720.0753 
        2.5081         1.6108     11551.6680      2929.6726      5898.7148 
    16624.0840         1.8536      8968.4814         6.7103         4.3611
    3373.98360 
       42.3322        62.6796        37.7621        87.5970      1321.2336 
    12470.3271      6819.1064        25.6857        25.6857        62.5086 
       19.1076    0.000500524       0.286714      -999.2500     11411.7598 
     5318.0000     11613.6318      7374.3179       0.258042      1758.0374 
        2.5090         1.5931     11464.7109      3145.4021      5981.6909 
    16811.7793         1.8287      9193.1279         7.1318         4.7231
    3374.13600 
       42.4276        69.4548        44.1008        94.8088      1325.6603 
    12718.1650      7163.1826        23.9313        23.9313        59.1294 
       20.7670    0.000552309       0.267698      -999.2500     11412.3486 
     5318.0400     11623.6377      7186.5708       0.240928      1857.5715 
        2.5110         1.5525     11288.2842      3411.9600      6015.2778 
    16887.7559         1.7755      9511.5977         7.6366         5.1704
    3374.28840 
       42.0753        73.5614        50.7127        96.4102      1309.3817 
    12613.6436      7303.1621        21.0438        21.0438        52.4316 
       21.4068    0.000574106       0.247862      -999.2500     11412.9395 
     5318.0806     11633.6338      6999.0410       0.223076      2028.9686 
        2.5131         1.5119     11256.0195      3472.3567      5892.2578 
    16609.4785         1.7271      9616.7061         7.7487         5.2717
