~Version Information Block
VERS .                  2.0:  CWLS LOG ASCII STANDARD - VERSION 2.0
WRAP .                  YES:  Multiple lines per depth step
~Well Information Block
#MNEM.UNIT        Data Type   Information
#---------- ----------------  -----------
STRT .M          2656.78920:  START DEPTH
STOP .M          3640.98840:  STOP DEPTH
STEP .M             0.15240:  STEP
NULL .              -999.25:  NULL VALUE
COMP .                     :  COMPANY
WELL .       RAAG-98-07-214:  WELL
FLD  .                     :  FIELD
LOC  .                     :  LOCATION
CTRY .                     :  COUNTRY
STAT .                     :  STATE
CNTY .                     :  COUNTY
SRVC .                     :  SERVICE COMPANY
DATE .                     :  DATE
API  .                     :  API NUMBER
UWI  .                     :  UNIQUE WELL ID
~Curve Information Block
#MNEM.UNIT         API CODE   Curve Description
#---------- ----------------  -----------------
DEPTH.M                    :  
ANGLE_FAIL.DEG                  :  Fail Angle
BRIT_IND.                     :  Brittleness Index
BRIT_PR.                     :  Brittleness Index from Poisson's Ratio
BRIT_YM.                     :  Brittleness Index from Young's Modulus
CS   .M/MIN                 :  Compressive Strength
IP   .RAYL/M2                 :  P Impedence
IS   .RAYL/M2                 :  S Impedance
KBULK.                     :  Bulk Mudulus
LAMBDA.                     :  Lambda
LAMRHO.                     :  
MU   .CP                   :  Mu
MURHO.(GF/C3S)2                 :  Mu*Rho
PR   .                     :  Poisson's ratio
PRESS_FG.PSI                  :  Fracture Gradient Pressure
PRESS_OB.PSI                  :  Over-burden Pressure
PRESS_PP.PSI                  :  Pore Pressure
PRESS_SHMAX.PSI                  :  Horizontal Stress (Max)
PRESS_SHMIN.PSI                  :  Horizontal Stress (Min)
PR_STAT.                     :  Poisson's ratio (Static)
PZS  .PSI                  :  Processed Zone Stress
SHMAX_GRAD.                     :  Horizontal Stress Gradient (Max)
SHMIN_GRAD.                     :  Horizontal Stress Gradient (Min)
STRESS_CUM.PSI                  :  Cumulative stress (SHPZ)
UCS_BF.PSI                  :  Uniaxial Compressive Strength (BF)
UCS_LAL.PSI                  :  Uniaxial Compressive Strength (lal)
VP   .FT/S                 :  Compressional velocity
VPVS .                     :  Vp / Vs ratio
VS   .FT/S                 :  Shear velocity
YM   .                     :  Youngs' Modulus
YM_STAT.                     :  Youngs' Modulus (Static)
~Parameter Information Block
#MNEM.UNIT            Value   Description
#---------- ----------------  -----------
PROJECT.          RDG_13Jul21:  
SET  .              GEOMECH:  
~Other Information Block
~Ascii Log Data
# ...
    3110.17920 
       43.5860        67.5580        28.9662       106.1498      1380.4980 
    14953.0410      7799.8491        37.0785        37.0785       101.9181 
       22.1332    0.000654851       0.313101      -999.2500     10400.4570 
     5219.6685     10560.6221      7197.1519       0.281791      2954.0898 
        2.4797         1.6899     13502.4834      3849.1382      6439.7070 
    17847.8398         1.9171      9309.8428         8.4305         5.9040
    3110.33160 
       42.9312        67.2119        31.4696       102.9543      1349.2454 
    14681.9834      7768.4619        34.0628        34.0628        94.8626 
       21.6698    0.000649591       0.305591      -999.2500     10401.0371 
     5219.7412     10564.6670      7128.4404       0.275032      3079.2959 
        2.4805         1.6737     13615.4727      3723.7290      6195.9253 
    17296.3906         1.8899      9151.7852         8.2068         5.6935
    3110.48400 
       41.8813        66.5163        35.5136        97.5191      1300.4949 
    14223.6797      7690.3521        29.6372        29.6372        84.0301 
       20.8591    0.000636594       0.293459      -999.2500     10401.6152 
     5219.8145     10570.7002      7019.9204       0.264113      3079.2959 
        2.4818         1.6481     13398.4326      3514.4360      5825.6699 
    16458.8516         1.8495      8898.8477         7.8263         5.3424
    3110.63640 
       40.5675        64.5596        40.5094        88.6097      1241.6993 
    13402.4150      7426.2720        24.4143        24.4143        69.3257 
       19.4219    0.000593624       0.278472      -999.2500     10402.1943 
     5219.8872     10577.8047      6889.9863       0.250625      3079.2959 
        2.4833         1.6176     13138.5645      3182.2974      5395.2705 
    15485.2627         1.8047      8580.3770         7.2027         4.7850
    3110.78880 
       39.8784        62.2762        43.0179        81.5344      1211.7762 
    12661.5791      7097.0313        21.5210        21.5210        59.5799 
       18.1935    0.000542155       0.270946      -999.2500     10402.7744 
     5219.9604     10581.5928      6826.4092       0.243852      3079.2959 
        2.4841         1.6025     13011.4102      2928.2087      5182.9619 
    15005.0078         1.7841      8410.5625         6.7074         4.3587
    3110.94120 
       38.8791        63.8561        51.5101        76.2021      1169.4344 
    11888.5693      6904.9580        16.9084        16.9084        45.9812 
       17.5325    0.000513207       0.245470      -999.2500     10403.3525 
     5220.0332     10592.5078      6620.2637       0.220923      3079.2959 
        2.4865         1.5541     12599.1201      2742.3752      4890.2578 
    14342.8936         1.7217      8330.4453         6.3341         4.0468
    3111.09360 
       38.8510        64.9342        52.9023        76.9660      1168.2603 
    11915.5938      6957.9717        16.5459        16.5459        45.1546 
       17.7400    0.000521117       0.241293      -999.2500     10403.9326 
     5220.1069     10594.7334      6587.9194       0.217164      3079.2959 
        2.4869         1.5464     12534.4307      2768.6982      4882.2690 
    14324.8232         1.7125      8364.8125         6.3876         4.0910
    3111.24600 
       39.7385        66.3536        48.7244        83.9828      1205.7738 
    12614.5947      7245.5913        19.5012        19.5012        54.1308 
       18.9132    0.000565090       0.253827      -999.2500     10404.5117 
     5220.1797     10590.3613      6687.5161       0.228444      3079.2959 
        2.4858         1.5697     12733.6240      3015.1667      5140.9189 
    14909.9053         1.7410      8563.9746         6.8788         4.5046
    3111.39840 
       40.5665        68.6004        46.1081        91.0928      1241.6538 
    13229.9307      7516.5420        22.1303        22.1303        62.0343 
       20.1554    0.000608144       0.261676      -999.2500     10405.0898 
     5220.2529     10587.7598      6751.7036       0.235508      3079.2959 
        2.4850         1.5847     12862.0000      3273.4993      5394.9438 
    15484.5234         1.7601      8797.4805         7.3765         4.9381
    3111.55080 
       40.9952        71.8323        47.9991        95.6655      1260.5826 
    13380.9375      7662.9023        22.1644        22.1644        61.6093 
       21.1250    0.000632058       0.256003      -999.2500     10405.6699 
     5220.3262     10590.6357      6706.3569       0.230403      3079.1021 
        2.4856         1.5740     12770.9180      3444.2139      5531.5840 
    15793.6123         1.7462      9044.5762         7.6966         5.2245
    3111.70320 
       40.9046        74.5285        53.2404        95.8167      1256.5594 
    13071.7803      7642.9556        19.8186        19.8186        54.0419 
       21.4222    0.000628771       0.240279      -999.2500     10406.2490 
     5220.3989     10597.4434      6582.3491       0.216251      3066.2734 
        2.4871         1.5448     12497.2451      3449.9202      5502.3901 
    15727.5723         1.7103      9195.7744         7.7072         5.2341
    3111.85560 
       40.7507        73.4172        53.8491        92.9854      1249.7577 
    12786.2305      7493.2324        19.0565        19.0565        51.1906 
       20.9021    0.000604378       0.238453      -999.2500     10406.8291 
     5220.4717     10598.7607      6568.1943       0.214607      3019.7520 
        2.4873         1.5414     12375.8926      3343.7217      5453.2207 
    15616.3496         1.7064      9151.7930         7.5090         5.0559
    3112.00800 
       40.5489        70.5964        51.5936        89.5992      1240.8817 
    12646.9639      7347.8325        19.3768        19.3768        51.9644 
       20.1323    0.000581150       0.245219      -999.2500     10407.4072 
     5220.5444     10596.7363      6620.8315       0.220697      2926.6567 
        2.4867         1.5537     12294.9766      3218.5122      5389.4087 
    15472.0020         1.7212      8989.1680         7.2719         4.8458
    3112.16040 
       40.1382        69.3726        52.3870        86.3582      1222.9866 
    12432.2451      7245.3281        18.4533        18.4533        49.5712 
       19.5416    0.000565049       0.242839      -999.2500     10407.9863 
     5220.6177     10598.2773      6602.1616       0.218555      2820.1978 
        2.4869         1.5492     12044.7188      3100.5117      5261.9707 
    15183.7305         1.7159      8848.8525         7.0451         4.6478
    3112.31280 
       39.8072        68.3427        53.1593        83.5260      1208.7185 
    12216.3857      7140.6118        17.6371        17.6371        47.2634 
       19.0271    0.000548834       0.240522      -999.2500     10408.5664 
     5220.6904     10599.7881      6584.1177       0.216470      2798.3438 
        2.4871         1.5449     11964.9229      2998.8618      5161.5220 
    14956.5098         1.7108      8742.2451         6.8468         4.4772
    3112.46520 
       39.7227        66.6422        51.5389        81.7454      1205.0991 
    12143.8574      7054.0234        17.9331        17.9331        47.9548 
       18.6078    0.000535604       0.245383      -999.2500     10409.1445 
     5220.7642     10598.4941      6622.1577       0.220845      2841.5286 
        2.4867         1.5537     12127.3721      2935.6619      5136.2041 
    14899.2393         1.7216      8654.5469         6.7222         4.3712
    3112.61760 
       39.8535        65.2129        48.7236        81.7021      1210.7058 
    12257.6543      7040.5493        19.0489        19.0489        51.1114 
       18.4742    0.000533560       0.253829      -999.2500     10409.7246 
     5220.8369     10595.7432      6689.3550       0.228446      2893.7480 
        2.4859         1.5694     12366.2061      2934.1306      5175.4512 
    14988.0176         1.7410      8608.8154         6.7191         4.3686
