~Version Information Block
VERS .                  2.0:  CWLS LOG ASCII STANDARD - VERSION 2.0
WRAP .                  YES:  Multiple lines per depth step
~Well Information Block
#MNEM.UNIT        Data Type   Information
#---------- ----------------  -----------
STRT .M          2556.50000:  START DEPTH
STOP .M          3600.74480:  STOP DEPTH
STEP .M             0.15240:  STEP
NULL .              -999.25:  NULL VALUE
COMP .                     :  COMPANY
WELL .      RAAG-100-07-213:  WELL
FLD  .                     :  FIELD
LOC  .                     :  LOCATION
CTRY .                     :  COUNTRY
STAT .                     :  STATE
CNTY .                     :  COUNTY
SRVC .                     :  SERVICE COMPANY
DATE .                     :  DATE
API  .                     :  API NUMBER
UWI  .                     :  UNIQUE WELL ID
~Curve Information Block
#MNEM.UNIT         API CODE   Curve Description
#---------- ----------------  -----------------
DEPTH.M                    :  
ANGLE_FAIL.DEG                  :  Fail Angle
BRIT_IND.                     :  Brittleness Index
BRIT_PR.                     :  Brittleness Index from Poisson's Ratio
BRIT_YM.                     :  Brittleness Index from Young's Modulus
CS   .M/MIN                 :  Compressive Strength
DTCO .US/F                 :  Compressional slowness
DTSM .US/F                 :  Description
IP   .RAYL/M2                 :  P Impedence
IS   .RAYL/M2                 :  S Impedance
KBULK.                     :  Bulk Mudulus
LAMBDA.                     :  Lambda
LAMRHO.                     :  
MU   .CP                   :  Mu
MURHO.(GF/C3S)2                 :  Mu*Rho
PR   .                     :  Poisson's ratio
PRESS_FG.PSI                  :  Fracture Gradient Pressure
PRESS_OB.PSI                  :  Over-burden Pressure
PRESS_PP.PSI                  :  Pore Pressure
PRESS_SHMAX.PSI                  :  Horizontal Stress (Max)
PRESS_SHMIN.PSI                  :  Horizontal Stress (Min)
PR_STAT.                     :  Poisson's ratio (Static)
PZS  .PSI                  :  Processed Zone Stress
SHMAX_GRAD.                     :  Horizontal Stress Gradient (Max)
SHMIN_GRAD.                     :  Horizontal Stress Gradient (Min)
STRESS_CUM.PSI                  :  Cumulative stress (SHPZ)
UCS_BF.PSI                  :  Uniaxial Compressive Strength (BF)
UCS_LAL.PSI                  :  Uniaxial Compressive Strength (lal)
VP   .FT/S                 :  Compressional velocity
VPVS .                     :  Vp / Vs ratio
VS   .FT/S                 :  Shear velocity
YM   .                     :  Youngs' Modulus
YM_STAT.                     :  Youngs' Modulus (Static)
~Parameter Information Block
#MNEM.UNIT            Value   Description
#---------- ----------------  -----------
PROJECT.          RDG_13Jul21:  
SET  .              GEOMECH:  
~Other Information Block
~Ascii Log Data
# ...
    3392.87120 
       37.7380        56.2871        57.3847        55.1895      1122.5170 
       73.3516       123.5532      9323.0205      5534.9297        11.4314 
       11.4314        25.6478        13.6544    0.000329757       0.227846 
     -999.2500     11621.9902      5331.1909     11859.1660      6878.4824 
      0.205061       561.3260         2.5206         1.4620      8079.6167 
     2057.4385      4576.4170     13632.9678         1.6844      8093.6768 
        4.8633         2.8975
    3393.02360 
       38.2365        55.3653        53.4321        57.2986      1142.8328 
       71.7498       122.6248      9580.9277      5605.9614        12.8320 
       12.8320        28.9406        13.9344    0.000338275       0.239704 
     -999.2500     11622.5908      5331.2251     11854.3018      6988.3726 
      0.215733       583.9427         2.5194         1.4852      8344.6299 
     2122.7766      4710.9644     13937.3203         1.7091      8154.9595 
        5.0109         3.0071
    3393.17600 
       38.4929        55.5290        52.0582        58.9998      1153.3870 
       70.9357       121.8731      9767.4561      5685.1050        13.5328 
       13.5328        30.7624        14.2182    0.000347894       0.243825 
     -999.2500     11623.1904      5331.2593     11852.9766      7027.4668 
      0.219443       599.5804         2.5190         1.4935      8454.0947 
     2176.0322      4781.6753     14097.2744         1.7181      8205.2568 
        5.1300         3.0965
    3393.32840 
       38.5162        55.7034        51.8303        59.5764      1154.3516 
       70.8619       121.8540      9846.0605      5725.7935        13.7066 
       13.7066        31.3755        14.3222    0.000352892       0.244509 
     -999.2500     11623.7910      5331.2935     11853.2715      7034.1685 
      0.220058       626.2731         2.5190         1.4948      8520.8828 
     2194.1975      4788.1660     14111.9561         1.7196      8206.5449 
        5.1704         3.1270
    3393.48080 
       38.5623        56.8782        52.9635        60.7928      1156.2599 
       70.7162       121.0739      9927.9492      5798.6660        13.5954 
       13.5954        31.3151        14.5980    0.000361931       0.241109 
     -999.2500     11624.3916      5331.3276     11855.4932      7002.3667 
      0.216998       651.1631         2.5193         1.4880      8507.0596 
     2232.6992      4801.0195     14141.0303         1.7121      8259.4219 
        5.2555         3.1916
    3393.63320 
       38.6595        57.5928        53.3938        61.7919      1160.2885 
       70.4099       120.3522      9994.1396      5846.8896        13.6487 
       13.6487        31.5106        14.8076    0.000367976       0.239819 
     -999.2500     11624.9912      5331.3613     11856.7158      6990.5093 
      0.215837       664.7034         2.5195         1.4854      8510.4248 
     2264.5125      4828.2148     14202.5488         1.7093      8308.9434 
        5.3254         3.2450
    3393.78560 
       38.7668        58.3004        53.8637        62.7370      1164.7487 
       70.0728       119.5636     10045.5889      5887.4336        13.6786 
       13.6786        31.5901        15.0087    0.000373097       0.238409 
     -999.2500     11625.5918      5331.3960     11857.9922      6977.5698 
      0.214568       660.4230         2.5196         1.4826      8475.9854 
     2294.7668      4858.4189     14270.8730         1.7063      8363.7520 
        5.3916         3.2957
    3393.93800 
       38.9668        58.4584        53.0709        63.8459      1173.1028 
       69.4471       118.8523     10140.5879      5925.2891        14.1154 
       14.1154        32.6134        15.1956    0.000377911       0.240787 
     -999.2500     11626.1924      5331.4302     11857.4961      7000.1206 
      0.216709       615.6252         2.5194         1.4873      8431.4912 
     2330.4565      4915.2598     14399.4492         1.7114      8413.8018 
        5.4692         3.3556
    3394.09040 
       39.2383        57.3982        50.0764        64.7200      1184.5157 
       68.6041       118.7895     10294.5205      5945.3599        15.2272 
       15.2272        35.2825        15.2551    0.000380475       0.249771 
     -999.2500     11626.7930      5331.4639     11853.8496      7085.6592 
      0.224794       572.1214         2.5185         1.5054      8515.5615 
     2358.7354      4993.4795     14576.3867         1.7315      8418.2520 
        5.5304         3.4031
    3394.24280 
       39.6125        56.5822        46.6771        66.4873      1200.3878 
       67.4540       118.4401     10555.2510      6011.4243        16.7551 
       16.7551        39.1389        15.4701    0.000388978       0.259969 
     -999.2500     11627.3926      5331.4976     11849.5127      7184.9927 
      0.233972       555.2757         2.5175         1.5265      8680.5361 
     2416.3152      5103.3481     14824.9170         1.7559      8443.0850 
        5.6541         3.4997
    3394.39520 
       40.0602        56.9410        44.1985        69.6836      1219.6094 
       66.0950       117.3006     10919.6582      6152.8667        18.3806 
       18.3806        43.5234        15.9879    0.000407498       0.267405 
     -999.2500     11627.9941      5331.5317     11846.4365      7259.1411 
      0.240664       575.1466         2.5167         1.5422      8868.5752 
     2521.8103      5238.1016     15129.7373         1.7747      8525.1074 
        5.8779         3.6767
    3394.54760 
       40.2092        57.4479        43.3319        71.5640      1226.0621 
       65.6469       116.9539     11151.1787      6259.2227        19.1502 
       19.1502        45.9931        16.3125    0.000421707       0.270004 
     -999.2500     11628.5938      5331.5654     11845.7451      7285.5752 
      0.243004       633.7661         2.5164         1.5477      9038.6826 
     2584.6912      5283.7573     15233.0137         1.7816      8550.3799 
        6.0095         3.7822
    3394.70000 
       40.0507        59.6399        46.6065        72.6733      1219.1980 
       66.1237       116.1389     11144.2881      6345.0010        18.0659 
       18.0659        43.6771        16.6521    0.000433345       0.260181 
     -999.2500     11629.1934      5331.5996     11851.2461      7188.1445 
      0.234162       670.4781         2.5175         1.5269      8917.2451 
     2622.0684      5235.1982     15123.1689         1.7564      8610.3770 
        6.0871         3.8450
    3394.85240 
       40.0900        61.2675        48.6291        73.9058      1220.8994 
       66.0051       114.9598     11147.4932      6400.4224        17.5375 
       17.5375        42.3358        16.9698    0.000440948       0.254113 
     -999.2500     11629.7949      5331.6333     11854.8252      7129.1929 
      0.228701       653.0682         2.5181         1.5143      8764.5215 
     2663.8474      5247.2119     15150.3447         1.7417      8698.6924 
        6.1734         3.9151
    3395.00480 
       40.3824        61.0723        47.0565        75.0881      1233.6016 
       65.1284       114.1742     11250.7314      6417.7554        18.3875 
       18.3875        44.2038        17.1329    0.000443339       0.258831 
     -999.2500     11630.3945      5331.6675     11853.1406      7175.4814 
      0.232947       617.8229         2.5176         1.5241      8786.6084 
     2704.1648      5337.3682     15354.2842         1.7531      8758.5449 
        6.2562         3.9827
    3395.15720 
       40.4261        61.0944        47.1758        75.0131      1235.5073 
       64.9982       113.8890     11210.7979      6398.1738        18.3247 
       18.3247        43.8087        17.1234    0.000440638       0.258473 
     -999.2500     11630.9951      5331.7017     11853.9355      7172.1743 
      0.232625       594.8497         2.5177         1.5233      8734.0479 
     2701.6018      5350.9653     15385.0420         1.7522      8780.4785 
        6.2509         3.9784
