~Version Information Block
VERS .                  2.0:  CWLS LOG ASCII STANDARD - VERSION 2.0
WRAP .                  YES:  Multiple lines per depth step
~Well Information Block
#MNEM.UNIT        Data Type   Information
#---------- ----------------  -----------
STRT .M          2686.96440:  START DEPTH
STOP .M          3645.86520:  STOP DEPTH
STEP .M             0.15240:  STEP
NULL .              -999.25:  NULL VALUE
COMP .                     :  COMPANY
WELL .      RAAG-105-07-212:  WELL
FLD  .                     :  FIELD
LOC  .                     :  LOCATION
CTRY .                     :  COUNTRY
STAT .                     :  STATE
CNTY .                     :  COUNTY
SRVC .                     :  SERVICE COMPANY
DATE .                     :  DATE
API  .                     :  API NUMBER
UWI  .                     :  UNIQUE WELL ID
~Curve Information Block
#MNEM.UNIT         API CODE   Curve Description
#---------- ----------------  -----------------
DEPTH.M                    :  
ANGLE_FAIL.DEG                  :  Fail Angle
BRIT_IND.                     :  Brittleness Index
BRIT_PR.                     :  Brittleness Index from Poisson's Ratio
BRIT_YM.                     :  Brittleness Index from Young's Modulus
CS   .M/MIN                 :  Compressive Strength
DTCO .US/F                 :  Compressional slowness
DTSM .US/F                 :  Shear slowness
IP   .RAYL/M2                 :  P Impedence
IS   .RAYL/M2                 :  S Impedance
KBULK.                     :  Bulk Mudulus
LAMBDA.                     :  Lambda
LAMRHO.                     :  
MU   .CP                   :  Mu
MURHO.(GF/C3S)2                 :  Mu*Rho
PR   .                     :  Poisson's ratio
PRESS_FG.PSI                  :  Fracture Gradient Pressure
PRESS_OB.PSI                  :  Over-burden Pressure
PRESS_PP.PSI                  :  Pore Pressure
PRESS_SHMAX.PSI                  :  Horizontal Stress (Max)
PRESS_SHMIN.PSI                  :  Horizontal Stress (Min)
PR_STAT.                     :  Poisson's ratio (Static)
PZS  .PSI                  :  Processed Zone Stress
SHMAX_GRAD.                     :  Horizontal Stress Gradient (Max)
SHMIN_GRAD.                     :  Horizontal Stress Gradient (Min)
STRESS_CUM.PSI                  :  Cumulative stress (SHPZ)
UCS_BF.PSI                  :  Uniaxial Compressive Strength (BF)
UCS_LAL.PSI                  :  Uniaxial Compressive Strength (lal)
VP   .FT/S                 :  Compressional velocity
VPVS .                     :  Vp / Vs ratio
VS   .FT/S                 :  Shear velocity
YM   .                     :  Youngs' Modulus
YM_STAT.                     :  Youngs' Modulus (Static)
~Parameter Information Block
#MNEM.UNIT            Value   Description
#---------- ----------------  -----------
ALPHA.                 0.98:  Biot's Constant
CALIB_SHMINPZS.                 6800:  Calibration Factor for processing zones
EXT_FACT.                1e-06:  Extension Factor
PR_FAC.                  0.9:  Poisson's ratio factor
PR_MAX.                  0.4:  Maximum Poisson's ratio
PR_MIN.                  0.1:  Minimum Poisson's ratio
TECT_FACT.                 1.05:  Techtonic Factor
YM_MAX.                    8:  Maximum Youngs' Modulus
YM_MIN.                    1:  Minimum Youngs' Modulus
PROJECT.          RDG_13Jul21:  
SET  .              GEOMECH:  
~Other Information Block
~Ascii Log Data
# ...
    3450.18360 
       42.6072        64.8260        34.4318        95.2203      1334.0267 
       58.7131       109.2044     13580.4561      7301.4521        29.7427 
       29.7427        77.8064        20.3791    0.000573837       0.296705 
     -999.2500     11483.0176      5322.7451     11681.8447      7506.4741 
      0.267034      1626.8903         2.5097         1.6127     11466.7285 
     3427.4365      6079.0332     17031.9746         1.8600      9157.1406 
        7.6654         5.1964
    3450.33600 
       42.0821        67.4302        40.1049        94.7555      1309.6932 
       60.1874       108.8291     13275.2988      7341.8389        26.1036 
       26.1036        68.4284        20.5624    0.000580203       0.279685 
     -999.2500     11483.6162      5322.7837     11691.2217      7331.5020 
      0.251717      1836.5493         2.5116         1.5750     11536.1025 
     3409.9575      5894.5991     16614.7715         1.8082      9188.7188 
        7.6329         5.1670
    3450.48840 
       41.7864        67.2348        41.5296        92.9400      1296.1677 
       61.0283       109.6183     13105.5654      7296.3218        24.8788 
       24.8788        65.2832        20.2878    0.000573031       0.275411 
     -999.2500     11484.2158      5322.8228     11693.9922      7288.7021 
      0.247870      2360.2129         2.5121         1.5657     12497.8301 
     3342.0315      5793.3936     16385.8418         1.7962      9122.5645 
        7.5058         5.0531
    3450.64080 
       41.6360        66.6797        41.8454        91.5140      1289.3359 
       61.4590       110.2318     12994.4316      7244.9585        24.3788 
       24.3788        63.8764        20.0329    0.000564991       0.274464 
     -999.2500     11484.8145      5322.8613     11695.0869      7279.3608 
      0.247017      2486.2854         2.5122         1.5637     12731.2920 
     3289.0735      5742.6299     16271.0098         1.7936      9071.7930 
        7.4060         4.9642
    3450.79320 
       41.6473        66.7455        41.8333        91.6576      1289.8492 
       61.4265       110.1796     13006.2695      7251.1567        24.4184 
       24.4184        64.0045        20.0595    0.000565959       0.274500 
     -999.2500     11485.4131      5322.8999     11695.6865      7279.9556 
      0.247050      2172.3435         2.5122         1.5637     12104.5986 
     3294.3938      5746.4355     16279.6191         1.7937      9076.0908 
        7.4160         4.9731
    3450.94560 
       41.6457        67.3230        42.2827        92.3633      1289.7766 
       61.4311       109.9620     13054.0684      7292.7534        24.3407 
       24.3407        64.0402        20.2145    0.000572471       0.273152 
     -999.2500     11486.0127      5322.9390     11696.9717      7266.8311 
      0.245837      1742.8068         2.5124         1.5608     11219.2754 
     3320.5742      5745.8970     16278.3994         1.7900      9094.0508 
        7.4654         5.0170
    3451.09800 
       41.6338        68.2618        43.1729        93.3507      1289.2380 
       61.4652       109.5818     13104.2002      7350.2378        24.0933 
       24.0933        63.6681        20.4446    0.000581531       0.270481 
     -999.2500     11486.6113      5322.9771     11698.9072      7240.6973 
      0.243433      1606.6602         2.5127         1.5551     10894.7148 
     3357.3459      5741.9043     16269.3691         1.7828      9125.6025 
        7.5345         5.0788
    3451.25040 
       41.5351        69.1401        44.3693        93.9108      1284.7687 
       61.7492       109.5057     13130.7080      7404.2783        23.5961 
       23.5961        62.7688        20.6092    0.000590114       0.266892 
     -999.2500     11487.2100      5323.0161     11701.2861      7205.6953 
      0.240203      1772.6946         2.5131         1.5475     11156.7793 
     3378.2839      5708.8252     16194.5410         1.7734      9131.9443 
        7.5738         5.1139
    3451.40280 
       41.7697        68.1302        41.5478        94.7127      1295.4095 
       61.0759       109.6946     13330.9551      7422.4263        25.2800 
       25.2800        67.5295        20.6241    0.000593010       0.275357 
     -999.2500     11487.8086      5323.0542     11697.7168      7289.6411 
      0.247821      1815.0634         2.5122         1.5655     11409.4092 
     3408.3474      5787.7480     16373.0703         1.7960      9116.2188 
        7.6299         5.1643
    3451.55520 
       41.7972        67.8778        40.8954        94.8602      1296.6603 
       60.9974       109.8853     13392.1338      7433.9819        25.6788 
       25.6788        68.8211        20.6204    0.000594858       0.277314 
     -999.2500     11488.4082      5323.0923     11697.3555      7309.4648 
      0.249582      1849.2106         2.5120         1.5697     11517.3516 
     3413.8892      5797.0635     16394.1426         1.8015      9100.3984 
        7.6402         5.1736
    3451.70760 
       41.8272        67.4210        40.0387        94.8033      1298.0251 
       60.9119       110.1736     13447.3105      7434.6416        26.1531 
       26.1531        70.2824        20.5683    0.000594963       0.279884 
     -999.2500     11489.0068      5323.1313     11696.6797      7335.5498 
      0.251896      2033.4810         2.5117         1.5752     11938.0615 
     3411.7510      5807.2363     16417.1523         1.8087      9076.5850 
        7.6362         5.1700
    3451.86000 
       41.7024        67.0694        40.4120        93.7267      1292.3466 
       61.2687       110.6240     13357.2090      7397.8413        25.6833 
       25.6833        68.9589        20.3831    0.000589088       0.278764 
     -999.2500     11489.6055      5323.1699     11697.8662      7324.3926 
      0.250887      2630.6938         2.5118         1.5727     13110.1729 
     3371.3970      5764.9712     16321.5469         1.8056      9039.6299 
        7.5609         5.1023
    3452.01240 
       41.7457        66.4396        39.4919        93.3874      1294.3167 
       61.1446       110.8824     13375.7949      7375.9014        26.1264 
       26.1264        70.1041        20.2753    0.000585599       0.281524 
     -999.2500     11490.2051      5323.2080     11697.0918      7352.4795 
      0.253372      2304.9805         2.5116         1.5787     12514.9199 
     3358.7168      5779.6157     16354.6748         1.8134      9018.5635 
        7.5371         5.0811
    3452.16480 
       41.7643        66.1240        39.2816        92.9663      1295.1628 
       61.0914       110.8975     13332.1621      7344.4438        26.1453 
       26.1453        69.8648        20.1861    0.000580614       0.282155 
     -999.2500     11490.8047      5323.2471     11697.3906      7359.0723 
      0.253940      2333.4524         2.5115         1.5800     12585.0488 
     3343.0125      5785.9116     16368.9160         1.8153      9017.3359 
        7.5076         5.0547
    3452.31720 
       41.5992        66.4726        40.7618        92.1833      1287.6675 
       61.5648       110.9766     13197.5137      7321.3838        25.1226 
       25.1226        66.9690        20.1084    0.000576974       0.277715 
     -999.2500     11491.4033      5323.2856     11700.2539      7314.3872 
      0.249943      2377.1877         2.5120         1.5704     12583.1494 
     3313.8887      5730.2686     16243.0479         1.8026      9010.9082 
        7.4528         5.0058
    3452.46960 
       41.2810        67.2662        43.9332        90.5992      1273.3339 
       62.4838       111.0215     12916.4805      7269.5000        23.0919 
       23.0919        61.1442        19.9578    0.000568826       0.268200 
     -999.2500     11492.0029      5323.3237     11705.6045      7219.9736 
      0.241380      2389.2288         2.5130         1.5500     12418.4043 
     3255.2866      5624.6572     16004.1484         1.7768      9007.2646 
        7.3419         4.9075
