~Version Information Block
VERS .                  2.0:  CWLS LOG ASCII STANDARD - VERSION 2.0
WRAP .                  YES:  Multiple lines per depth step
~Well Information Block
#MNEM.UNIT        Data Type   Information
#---------- ----------------  -----------
STRT .M          2682.11640:  START DEPTH
STOP .M          3633.09240:  STOP DEPTH
STEP .M             0.15240:  STEP
NULL .              -999.25:  NULL VALUE
COMP .                     :  COMPANY
WELL .       RAAG-94-07-216:  WELL
FLD  .                     :  FIELD
LOC  .                     :  LOCATION
CTRY .                     :  COUNTRY
STAT .                     :  STATE
CNTY .                     :  COUNTY
SRVC .                     :  SERVICE COMPANY
DATE .                     :  DATE
API  .                     :  API NUMBER
UWI  .                     :  UNIQUE WELL ID
~Curve Information Block
#MNEM.UNIT         API CODE   Curve Description
#---------- ----------------  -----------------
DEPTH.M                    :  
ANGLE_FAIL.DEG                  :  Fail Angle
BRIT_IND.                     :  Brittleness Index
BRIT_PR.                     :  Brittleness Index from Poisson's Ratio
BRIT_YM.                     :  Brittleness Index from Young's Modulus
CS   .M/MIN                 :  Compressive Strength
IP   .RAYL/M2                 :  P Impedence
IS   .RAYL/M2                 :  S Impedance
KBULK.                     :  Bulk Mudulus
LAMBDA.                     :  Lambda
LAMRHO.                     :  
MU   .CP                   :  Mu
MURHO.(GF/C3S)2                 :  Mu*Rho
PR   .                     :  Poisson's ratio
PRESS_FG.PSI                  :  Fracture Gradient Pressure
PRESS_OB.PSI                  :  Over-burden Pressure
PRESS_PP.PSI                  :  Pore Pressure
PRESS_SHMAX.PSI                  :  Horizontal Stress (Max)
PRESS_SHMIN.PSI                  :  Horizontal Stress (Min)
PR_STAT.                     :  Poisson's ratio (Static)
PZS  .PSI                  :  Processed Zone Stress
SHMAX_GRAD.                     :  Horizontal Stress Gradient (Max)
SHMIN_GRAD.                     :  Horizontal Stress Gradient (Min)
STRESS_CUM.PSI                  :  Cumulative stress (SHPZ)
UCS_BF.PSI                  :  Uniaxial Compressive Strength (BF)
UCS_LAL.PSI                  :  Uniaxial Compressive Strength (lal)
VP   .FT/S                 :  Compressional velocity
VPVS .                     :  Vp / Vs ratio
VS   .FT/S                 :  Shear velocity
YM   .                     :  Youngs' Modulus
YM_STAT.                     :  Youngs' Modulus (Static)
~Parameter Information Block
#MNEM.UNIT            Value   Description
#---------- ----------------  -----------
PROJECT.          RDG_13Jul21:  
SET  .              GEOMECH:  
~Other Information Block
~Ascii Log Data
# ...
    3187.32240 
       38.5863        55.3174        44.0770        66.5578      1157.2533 
    11244.9883      6332.7905        17.7432        17.7432        46.2413 
       15.3884         0.0004       0.267769      -999.2500     10699.3818 
     5255.5288     10888.5068      6916.8813       0.240992      2794.1990 
        2.4913         1.5826     12622.1602      2418.6252      4807.7183 
    14156.1846         1.7757      7972.2759         5.6590         3.5036
    3187.47480 
       38.9446        55.0492        42.4303        67.6681      1172.1720 
    11340.3350      6339.6133        18.6443        18.6443        48.2218 
       15.5391         0.0004       0.272709      -999.2500     10699.9639 
     5255.5918     10886.9473      6960.2993       0.245438      2765.9863 
        2.4908         1.5924     12652.5723      2455.0850      4908.9092 
    14385.0840         1.7888      8041.7271         5.7368         3.5648
    3187.62720 
       39.3384        54.1319        39.3514        68.9124      1188.7427 
    11555.7900      6368.0024        20.2503        20.2503        52.4334 
       15.6614         0.0004       0.281946      -999.2500     10700.5459 
     5255.6558     10883.4424      7042.6113       0.253751      2738.2039 
        2.4899         1.6112     12761.6309      2496.1970      5022.6152 
    14642.2939         1.8147      8068.8691         5.8239         3.6337
    3187.77960 
       39.6634        54.1242        37.4990        70.7494      1202.5640 
    11799.3154      6443.7949        21.5639        21.5639        56.1789 
       15.9381         0.0004       0.287503      -999.2500     10701.1270 
     5255.7188     10881.5234      7093.2070       0.258753      2676.4846 
        2.4893         1.6227     12739.3838      2557.3784      5118.5103 
    14859.2139         1.8311      8114.8545         5.9525         3.7364
    3187.93200 
       39.9043        55.3101        37.5693        73.0508      1212.8885 
    11980.4082      6544.9697        22.1129        22.1129        57.8569 
       16.3722         0.0005       0.287292      -999.2500     10701.7090 
     5255.7817     10882.2090      7091.7075       0.258563      2559.1116 
        2.4893         1.6222     12501.6377      2634.8381      5190.7729 
    15022.6777         1.8305      8206.9805         6.1136         3.8664
    3188.08440 
       40.0875        55.8675        37.3224        74.4127      1220.7924 
    12088.6797      6596.0386        22.5813        22.5813        59.1207 
       16.6179         0.0005       0.288033      -999.2500     10702.2910 
     5255.8447     10882.4648      7098.7983       0.259230      2457.3391 
        2.4893         1.6238     12312.2754      2681.1025      5246.4556 
    15148.6338         1.8327      8265.6650         6.2089         3.9440
    3188.23680 
       40.2190        55.3127        35.8035        74.8218      1226.4894 
    12214.7764      6614.0142        23.4676        23.4676        61.7104 
       16.6357         0.0005       0.292590      -999.2500     10702.8721 
     5255.9082     10880.9746      7140.8281       0.263331      2391.5242 
        2.4888         1.6333     12264.7051      2695.0635      5286.7881 
    15239.8682         1.8468      8252.0313         6.2375         3.9674
    3188.38920 
       40.3054        54.3601        33.9551        74.7652      1230.2450 
    12341.9932      6618.9521        24.4487        24.4487        64.7037 
       16.5541         0.0005       0.298135      -999.2500     10703.4541 
     5255.9712     10879.0000      7192.5200       0.268321      2347.7244 
        2.4882         1.6451     12280.4893      2693.1289      5313.4648 
    15300.2129         1.8646      8205.4307         6.2336         3.9642
    3188.54160 
       40.3505        53.4459        32.3520        74.5398      1232.2094 
    12452.8320      6621.0840        25.2914        25.2914        67.3955 
       16.4513         0.0005       0.302944      -999.2500     10704.0352 
     5256.0342     10877.3398      7237.9517       0.272650      2323.5310 
        2.4877         1.6554     12322.9658      2685.4387      5327.4468 
    15331.8408         1.8808      8151.8330         6.2178         3.9513
    3188.69400 
       40.2472        53.0197        32.3503        73.6891      1227.7134 
    12392.1914      6588.7832        25.0501        25.0501        66.7423 
       16.2936         0.0005       0.302949      -999.2500     10704.6182 
     5256.0977     10877.9395      7238.1885       0.272654      2363.7229 
        2.4877         1.6553     12403.8232      2656.4819      5295.4746 
    15259.5176         1.8808      8113.3071         6.1582         3.9027
    3188.84640 
       39.8798        53.5332        34.7720        72.2945      1211.8342 
    12153.2949      6545.7803        23.3363        23.3363        62.0081 
       16.1253         0.0005       0.295684      -999.2500     10705.1992 
     5256.1606     10881.9473      7170.2559       0.266116      2306.2773 
        2.4885         1.6397     12153.0664      2609.2815      5183.3691 
    15005.9287         1.8567      8082.2119         6.0606         3.8235
    3188.99880 
       39.4376        54.0581        37.5718        70.5443      1192.9465 
    11885.2764      6493.0806        21.4771        21.4771        56.9396 
       15.9024         0.0005       0.287284      -999.2500     10705.7822 
     5256.2236     10886.4141      7093.1494       0.258556      2195.0188 
        2.4894         1.6220     11776.3369      2550.5173      5051.6812 
    14708.0420         1.8305      8035.1943         5.9381         3.7249
    3189.15120 
       39.1095        53.7950        38.6866        68.9034      1179.0878 
    11731.1074      6443.9385        20.5476        20.5476        54.5702 
       15.6354         0.0004       0.283940      -999.2500     10706.3643 
     5256.2866     10888.5342      7062.9565       0.255546      2073.4951 
        2.4898         1.6150     11472.9033      2495.8977      4956.1968 
    14492.0518         1.8205      7960.5352         5.8232         3.6332
    3189.30360 
       38.8875        52.4239        38.0322        66.8156      1169.7858 
    11607.5000      6355.7236        20.3244        20.3244        53.9436 
       15.2197         0.0004       0.285904      -999.2500     10706.9453 
     5256.3501     10888.2520      7080.8096       0.257313      1983.9313 
        2.4896         1.6190     11329.4814      2427.0728      4892.6494 
    14348.3027         1.8263      7856.4600         5.6771         3.5177
    3189.45600 
       38.7272        51.0494        37.2472        64.8516      1163.1016 
    11475.8574      6259.3188        20.1809        20.1809        53.3372 
       14.8240         0.0004       0.288258      -999.2500     10707.5273 
     5256.4131     10887.7871      7102.3296       0.259433      1975.7854 
        2.4894         1.6239     11356.2295      2363.0044      4847.2534 
    14245.6152         1.8334      7770.0381         5.5396         3.4102
    3189.60840 
       38.4145        51.0105        38.9835        63.0375      1150.1526 
    11224.0283      6174.2529        18.9738        18.9738        49.7360 
       14.5430         0.0004       0.283050      -999.2500     10708.1094 
     5256.4766     10890.7539      7055.2139       0.254745      1996.5465 
        2.4899         1.6130     11303.5205      2304.4150      4759.9468 
    14048.1221         1.8179      7727.7661         5.4126         3.3119
    3189.76080 
       37.9760        52.4202        42.9185        61.9219      1132.1801 
    10974.6924      6148.7539        17.1532        17.1532        44.8295 
       14.4663         0.0004       0.271245      -999.2500     10708.6904 
     5256.5391     10896.6006      6950.4995       0.244120      2124.2666 
        2.4912         1.5890     11349.5322      2268.6653      4640.1572 
    13777.1514         1.7849      7718.8784         5.3345         3.2519
