~Version Information Block
VERS .                  2.0:  CWLS LOG ASCII STANDARD - VERSION 2.0
WRAP .                  YES:  Multiple lines per depth step
~Well Information Block
#MNEM.UNIT        Data Type   Information
#---------- ----------------  -----------
STRT .M          2945.58720:  START DEPTH
STOP .M          3894.88680:  STOP DEPTH
STEP .M             0.15240:  STEP
NULL .              -999.25:  NULL VALUE
COMP .                     :  COMPANY
WELL .       RAAG-97-02-106:  WELL
FLD  .                     :  FIELD
LOC  .                     :  LOCATION
CTRY .                     :  COUNTRY
STAT .                     :  STATE
CNTY .                     :  COUNTY
SRVC .                     :  SERVICE COMPANY
DATE .                     :  DATE
API  .                     :  API NUMBER
UWI  .                     :  UNIQUE WELL ID
~Curve Information Block
#MNEM.UNIT         API CODE   Curve Description
#---------- ----------------  -----------------
DEPTH.M                    :  
ANGLE_FAIL.DEG                  :  Fail Angle
BRIT_IND.                     :  Brittleness Index
BRIT_PR.                     :  Brittleness Index from Poisson's Ratio
BRIT_YM.                     :  Brittleness Index from Young's Modulus
CS   .M/MIN                 :  Compressive Strength
DEN  .G/C3                 :  (HDRS-H)                (2in)                   Standard Resolution Formation Density
DTCO .US/F                 :  Compressional slowness
DTSM .US/F                 :  Description
IP   .RAYL/M2                 :  P Impedence
IS   .RAYL/M2                 :  S Impedance
KBULK.                     :  Bulk Mudulus
LAMBDA.                     :  Lambda
LAMRHO.                     :  
MU   .CP                   :  Mu
MURHO.(GF/C3S)2                 :  Mu*Rho
PR   .                     :  Poisson's ratio
PRESS_FG.PSI                  :  Fracture Gradient Pressure
PRESS_OB.PSI                  :  Over-burden Pressure
PRESS_PP.PSI                  :  Pore Pressure
PRESS_SHMAX.PSI                  :  Horizontal Stress (Max)
PRESS_SHMIN.PSI                  :  Horizontal Stress (Min)
PR_STAT.                     :  Poisson's ratio (Static)
PZS  .PSI                  :  Processed Zone Stress
SHMAX_GRAD.                     :  Horizontal Stress Gradient (Max)
SHMIN_GRAD.                     :  Horizontal Stress Gradient (Min)
STRESS_CUM.PSI                  :  Cumulative stress (SHPZ)
UCS_BF.PSI                  :  Uniaxial Compressive Strength (BF)
UCS_LAL.PSI                  :  Uniaxial Compressive Strength (lal)
VP   .FT/S                 :  Compressional velocity
VPVS .                     :  Vp / Vs ratio
VS   .FT/S                 :  Shear velocity
YM   .                     :  Youngs' Modulus
YM_STAT.                     :  Youngs' Modulus (Static)
~Parameter Information Block
#MNEM.UNIT            Value   Description
#---------- ----------------  -----------
PROJECT.          RDG_13Jul21:  
SET  .              GEOMECH:  
~Other Information Block
~Ascii Log Data
# ...
    3162.60480 
       34.3935        45.3100        49.5626        41.0573       992.8539 
        2.4843        84.7521       147.0530      8934.4229      5149.2427 
       10.7856        10.7856        26.7945        10.6730         0.0003 
      0.251312      -999.2500      9672.6240      5111.9619      9837.4805 
     6375.4883       0.226181      1721.4369         2.4664         1.5984 
     9393.8506      1639.2776      3765.7153     11799.1113         1.7351 
     6800.2705         3.8740         2.1958
    3162.75720 
       35.1983        45.8212        46.9761        44.6663      1023.0636 
        2.5089        81.9020       143.6278      9336.9082      5324.2563 
       12.1497        12.1497        30.4824        11.2989         0.0003 
      0.259072      -999.2500      9673.2051      5112.0605      9835.3223 
     6430.8613       0.233164      2165.4170         2.4657         1.6122 
    10392.5566      1742.8159      3947.2349     12209.7197         1.7537 
     6962.4414         4.1266         2.3696
    3162.90960 
       35.9161        46.3322        44.4023        48.2621      1050.5208 
        2.5432        79.4177       140.8186      9760.7031      5504.7627 
       13.6310        13.6310        34.6665        11.9150         0.0003 
      0.266793      -999.2500      9673.7861      5112.1592      9833.1260 
     6486.9858       0.240114      2664.8757         2.4650         1.6262 
    11503.7236      1848.1921      4116.0762     12591.6484         1.7731 
     7101.3369         4.3783         2.5464
    3163.06200 
       36.2808        46.7483        43.3671        50.1296      1064.6611 
        2.5550        78.1763       139.2538      9961.6514      5592.4126 
       14.3578        14.3578        36.6843        12.2407         0.0003 
      0.269899      -999.2500      9674.3662      5112.2573      9832.5830 
     6510.0342       0.242909      2804.1563         2.4648         1.6319 
    11828.3809      1903.7926      4204.4717     12791.6035         1.7813 
     7181.1323         4.5091         2.6397
    3163.21440 
       36.5265        45.8858        40.8538        50.9177      1074.2599 
        2.5752        77.3479       139.3673     10147.8857      5632.0073 
       15.3544        15.3544        39.5406        12.3174         0.0003 
      0.277438      -999.2500      9674.9482      5112.3564      9830.3906 
     6566.0947       0.249695      2639.5393         2.4641         1.6458 
    11611.2686      1927.4355      4265.0352     12928.6025         1.8018 
     7175.2866         4.5642         2.6794
    3163.36680 
       36.4713        45.4912        39.9690        51.0134      1072.0995 
        2.6076        77.5333       140.2836     10250.9326      5665.5854 
       15.6789        15.6789        40.8839        12.3098         0.0003 
      0.280093      -999.2500      9675.5283      5112.4546      9829.9932 
     6586.2314       0.252084      2333.2876         2.4638         1.6508 
    11039.0381      1930.3131      4251.3643     12897.6787         1.8093 
     7128.4146         4.5709         2.6842
    3163.51920 
       36.3306        45.9306        40.2425        51.6186      1066.5999 
        2.6589        78.0080       140.9603     10389.0850      5749.3657 
       15.7293        15.7293        41.8227        12.4319         0.0004 
      0.279273      -999.2500      9676.1084      5112.5527      9830.8955 
     6580.3755       0.251345      2211.7695         2.4639         1.6492 
    10784.2900      1948.5536      4216.6670     12819.1914         1.8070 
     7094.1978         4.6133         2.7148
    3163.67160 
       36.5371        46.2041        39.3421        53.0661      1074.6770 
        2.6863        77.3121       140.3018     10590.6211      5835.8711 
       16.3967        16.3967        44.0465        12.6782         0.0004 
      0.281974      -999.2500      9676.6904      5112.6514      9830.4717 
     6601.0513       0.253776      2320.8413         2.4637         1.6543 
    11043.7852      1992.4277      4267.6777     12934.5801         1.8147 
     7127.4902         4.7146         2.7884
    3163.82400 
       36.9463        46.9633        38.5456        55.3809      1090.8062 
        2.6970        75.9464       138.3542     10823.9580      5941.5703 
       17.2613        17.2613        46.5536        13.0895         0.0004 
      0.284363      -999.2500      9677.2705      5112.7500      9830.1563 
     6619.5581       0.255927      2588.3643         2.4635         1.6589 
    11615.8447      2063.3376      4370.5024     13167.1768         1.8217 
     7227.8281         4.8767         2.9074
    3163.97640 
       37.3041        47.4532        37.9518        56.9545      1105.0576 
        2.6847        74.7657       136.5990     10944.6123      5990.3936 
       17.8850        17.8850        48.0149        13.3667         0.0004 
      0.286145      -999.2500      9677.8506      5112.8486      9830.0693 
     6633.4844       0.257530      2861.0784         2.4633         1.6623 
    12189.1260      2112.0671      4462.4272     13375.1162         1.8270 
     7320.6982         4.9868         2.9892
    3164.12880 
       37.5150        47.3721        37.3929        57.3513      1113.5172 
        2.6612        74.0761       135.7132     10950.1445      5976.9028 
       18.2092        18.2092        48.4589        13.4236         0.0004 
      0.287821      -999.2500      9678.4316      5112.9473      9830.0234 
     6646.5894       0.259039      2695.9102         2.4632         1.6655 
    11884.9990      2124.4211      4517.4702     13499.6260         1.8321 
     7368.4829         5.0146         3.0099
    3164.28120 
       37.5328        47.8029        38.3494        57.2563      1114.2322 
        2.6346        74.0182       134.9703     10848.8672      5949.5586 
       17.8031        17.8031        46.9034        13.4357         0.0004 
      0.284952      -999.2500      9679.0127      5113.0459      9831.7158 
     6624.9502       0.256456      2475.7346         2.4635         1.6600 
    11401.3701      2121.4590      4522.1387     13510.1865         1.8235 
     7409.0352         5.0079         3.0049
    3164.43360 
       37.3755        49.0248        40.8613        57.1883      1107.9161 
        2.6209        74.5318       134.2884     10718.2480      5948.7627 
       16.8283        16.8283        44.1053        13.5022         0.0004 
      0.277416      -999.2500      9679.5938      5113.1440      9835.1523 
     6568.4170       0.249674      2334.1467         2.4642         1.6457 
    11005.1279      2119.3420      4480.9868     13417.0986         1.8018 
     7446.6582         5.0032         3.0014
    3164.58600 
       37.2784        49.5737        42.1243        57.0231      1104.0280 
        2.6144        74.8502       134.0789     10646.3633      5943.3823 
       16.3314        16.3314        42.6975        13.5110         0.0004 
      0.273627      -999.2500      9680.1738      5113.2427      9837.1582 
     6540.4922       0.246264      2264.7188         2.4646         1.6386 
    10810.4219      2114.1995      4455.7524     13360.0166         1.7913 
     7458.2925         4.9916         2.9927
    3164.73840 
       37.2579        49.5269        42.1613        56.8925      1103.2091 
        2.6137        74.9175       134.1768     10633.7637      5937.3501 
       16.2883        16.2883        42.5727        13.4875         0.0004 
      0.273516      -999.2500      9680.7549      5113.3408      9837.7969 
     6539.9165       0.246165      2306.1445         2.4646         1.6384 
    10892.1221      2110.1392      4450.4478     13348.0166         1.7910 
     7452.8506         4.9825         2.9859
    3164.89080 
       37.2158        49.2893        41.9355        56.6431      1101.5283 
        2.6182        75.0559       134.5634     10632.3389      5930.4351 
       16.3116        16.3116        42.7065        13.4330         0.0004 
      0.274194      -999.2500      9681.3359      5113.4390      9838.1436 
     6545.1719       0.246774      2270.1670         2.4645         1.6396 
    10830.6777      2102.3904      4439.5693     13323.4102         1.7928 
     7431.4419         4.9650         2.9729
