~Version Information Block
VERS .                  2.0:  CWLS LOG ASCII STANDARD - VERSION 2.0
WRAP .                  YES:  Multiple lines per depth step
~Well Information Block
#MNEM.UNIT        Data Type   Information
#---------- ----------------  -----------
STRT .M          2776.00000:  START DEPTH
STOP .M          3750.44560:  STOP DEPTH
STEP .M             0.15240:  STEP
NULL .              -999.25:  NULL VALUE
COMP .                     :  COMPANY
WELL .      RAAG-102-07-105:  WELL
FLD  .                     :  FIELD
LOC  .                     :  LOCATION
CTRY .                     :  COUNTRY
STAT .                     :  STATE
CNTY .                     :  COUNTY
SRVC .                     :  SERVICE COMPANY
DATE .                     :  DATE
API  .                     :  API NUMBER
UWI  .                     :  UNIQUE WELL ID
~Curve Information Block
#MNEM.UNIT         API CODE   Curve Description
#---------- ----------------  -----------------
DEPTH.M                    :  
ANGLE_FAIL.DEG                  :  Fail Angle
BRIT_IND.                     :  Brittleness Index
BRIT_PR.                     :  Brittleness Index from Poisson's Ratio
BRIT_YM.                     :  Brittleness Index from Young's Modulus
CS   .M/MIN                 :  Compressive Strength
DTCO .US/F                 :  Compressional slowness
DTSM .US/F                 :  Fast Shear Slowness
IP   .RAYL/M2                 :  P Impedence
IS   .RAYL/M2                 :  S Impedance
KBULK.                     :  Bulk Mudulus
LAMBDA.                     :  Lambda
LAMRHO.                     :  
MU   .CP                   :  Mu
MURHO.(GF/C3S)2                 :  Mu*Rho
PR   .                     :  Poisson's ratio
PRESS_FG.PSI                  :  Fracture Gradient Pressure
PRESS_OB.PSI                  :  Over-burden Pressure
PRESS_PP.PSI                  :  Pore Pressure
PRESS_SHMAX.PSI                  :  Horizontal Stress (Max)
PRESS_SHMIN.PSI                  :  Horizontal Stress (Min)
PR_STAT.                     :  Poisson's ratio (Static)
PZS  .PSI                  :  Processed Zone Stress
SHMAX_GRAD.                     :  Horizontal Stress Gradient (Max)
SHMIN_GRAD.                     :  Horizontal Stress Gradient (Min)
STRESS_CUM.PSI                  :  Cumulative stress (SHPZ)
UCS_BF.PSI                  :  Uniaxial Compressive Strength (BF)
UCS_LAL.PSI                  :  Uniaxial Compressive Strength (lal)
VP   .FT/S                 :  Compressional velocity
VPVS .                     :  Vp / Vs ratio
VS   .FT/S                 :  Shear velocity
YM   .                     :  Youngs' Modulus
YM_STAT.                     :  Youngs' Modulus (Static)
~Parameter Information Block
#MNEM.UNIT            Value   Description
#---------- ----------------  -----------
PROJECT.          RDG_13Jul21:  
SET  .              GEOMECH:  
~Other Information Block
~Ascii Log Data
# ...
    2810.13760 
       36.7438        40.3909        33.0384        47.7434      1082.8044 
       76.6200       143.5702     10155.8262      5419.9229        17.3876 
       17.3876        44.3897        11.5065    0.000316196       0.300885 
     -999.2500      8825.9951      4945.9956      8950.8877      6328.1396 
      0.270796      2164.0588         2.4390         1.7244     10184.3965 
     1832.8540      4319.3306     13051.4219         1.8738      6965.2334 
        4.3420         2.5206
    2810.29000 
       37.1213        38.3755        29.1399        47.6111      1097.7588 
       75.3674       144.3401     10320.5986      5388.9160        18.9791 
       18.9791        48.4339        11.3797    0.000312588       0.312580 
     -999.2500      8826.5664      4946.1230      8947.4746      6408.3994 
      0.281322      2116.7668         2.4379         1.7461     10250.3330 
     1828.9495      4415.2227     13268.3359         1.9152      6928.0815 
        4.3328         2.5141
    2810.44240 
       35.9376        37.5445        32.1688        42.9203      1051.3512 
       79.3441       149.3788      9771.6582      5190.3179        16.3566 
       16.3566        41.6065        10.5906    0.000289973       0.303494 
     -999.2500      8827.1387      4946.2505      8951.1934      6346.0391 
      0.273144      2075.9385         2.4388         1.7290     10043.9551 
     1692.4463      4121.2407     12603.3311         1.8827      6694.3906 
        4.0044         2.2850
    2810.59480 
       33.8239        37.2508        38.8531        35.6486       971.8179 
       86.8123       157.9134      8848.1445      4864.2339        12.2884 
       12.2884        30.9681         9.3888    0.000254682       0.283441 
     -999.2500      8827.7109      4946.3774      8958.4404      6213.1226 
      0.255097      2047.1455         2.4406         1.6927      9720.5361 
     1488.2795      3641.9312     11519.1045         1.8190      6332.5845 
        3.4954         1.9424
    2810.74720 
       32.8326        37.8069        43.0433        32.5705       935.8734 
       90.4829       161.4091      8404.8164      4711.5815        10.5180 
       10.5180        26.2429         8.8972    0.000238948       0.270870 
     -999.2500      8828.2832      4946.5049      8963.0361      6133.2256 
      0.243783      2031.9462         2.4418         1.6708      9530.3428 
     1404.5831      3435.3525     11051.8115         1.7839      6195.4375 
        3.2799         1.8020
    2810.89960 
       32.6615        38.6819        45.1930        32.1708       929.7518 
       91.1276       161.0261      8276.9365      4684.0693         9.9518 
        9.9518        24.6267         8.8663    0.000236166       0.264421 
     -999.2500      8828.8545      4946.6323      8965.6299      6093.3535 
      0.237979      1986.5651         2.4423         1.6599      9359.8369 
     1393.8322      3400.7876     10973.6240         1.7670      6210.1738 
        3.2520         1.7840
    2811.05200 
       32.7688        39.9826        47.0291        32.9361       933.5862 
       90.7231       159.0616      8281.9453      4723.7280         9.7211 
        9.7211        23.9634         9.0518    0.000240182       0.258913 
     -999.2500      8829.4277      4946.7593      8967.9053      6059.8750 
      0.233021      1905.8287         2.4428         1.6507      9131.4072 
     1414.4390      3422.4172     11022.5508         1.7533      6286.8726 
        3.3055         1.8185
    2811.20440 
       32.6707        40.7785        48.6072        32.9498       930.0779 
       91.0931       158.6693      8241.0332      4731.2319         9.3975 
        9.3975        23.1455         9.0886    0.000240945       0.254178 
     -999.2500      8829.9990      4946.8862      8969.9268      6031.4395 
      0.228760      1863.1810         2.4432         1.6428      8989.2412 
     1414.8074      3402.6250     10977.7803         1.7418      6302.4165 
        3.3065         1.8192
    2811.35680 
       32.3561        39.7408        47.8876        31.5941       918.8809 
       92.2869       161.2254      8143.5596      4661.4482         9.2710 
        9.2710        22.8594         8.8126    0.000233890       0.256337 
     -999.2500      8830.5713      4947.0137      8969.8662      6044.6650 
      0.230703      1886.8043         2.4430         1.6463      9062.9385 
     1378.3704      3339.8477     10835.7744         1.7470      6202.4966 
        3.2116         1.7580
    2811.50920 
       32.0058        37.3678        45.0140        29.7216       906.5019 
       93.6299       165.5762      8064.9634      4560.5693         9.4638 
        9.4638        23.4461         8.3953    0.000223876       0.264958 
     -999.2500      8831.1426      4947.1406      8967.8203      6097.5859 
      0.238462      1960.2032         2.4423         1.6606      9315.5781 
     1328.5616      3271.1382     10680.3486         1.7684      6039.5151 
        3.0805         1.6744
    2811.66160 
       31.9695        34.7972        40.8367        28.7577       905.2216 
       93.7702       168.9709      8122.3213      4507.4727        10.1399 
       10.1399        25.3375         8.1309    0.000218694       0.277490 
     -999.2500      8831.7148      4947.2681      8964.4775      6176.4604 
      0.249741      2052.7278         2.4413         1.6820      9658.3770 
     1303.1541      3264.0737     10664.3682         1.8020      5918.1787 
        3.0130         1.6318
    2811.81400 
       32.4124        33.5940        37.4290        29.7590       920.8792 
       92.0724       168.6535      8365.8145      4567.1191        11.1866 
       11.1866        28.2697         8.2540    0.000224520       0.287713 
     -999.2500      8832.2871      4947.3950      8961.7637      6242.7490 
      0.258942      2147.9614         2.4404         1.7000      9981.4209 
     1329.5504      3351.0073     10861.0176         1.8317      5929.3164 
        3.0831         1.6761
    2811.96640 
       33.2197        32.9715        33.9548        31.9881       949.8126 
       89.0364       166.0215      8736.7246      4685.4565        12.7045 
       12.7045        32.4234         8.6021    0.000236306       0.298136 
     -999.2500      8832.8584      4947.5220      8958.8955      6312.1226 
      0.268322      2270.3665         2.4395         1.7188     10364.9775 
     1388.9285      3514.7271     11231.3623         1.8646      6023.3159 
        3.2392         1.7757
    2812.11880 
       33.9767        32.7767        31.3605        34.1930       977.4358 
       86.2559       163.1180      9066.1260      4794.1177        14.1203 
       14.1203        36.2275         8.9582    0.000247393       0.305918 
     -999.2500      8833.4307      4947.6494      8956.8418      6365.2124 
      0.275327      2408.0994         2.4388         1.7331     10746.6230 
     1448.4965      3674.7798     11593.4102         1.8911      6130.5313 
        3.3935         1.8757
    2812.27120 
       34.1533        33.3784        31.7138        35.0431       983.9492 
       85.6165       161.5918      9128.3047      4836.4678        14.2519 
       14.2519        36.5431         9.1227    0.000251783       0.304859 
     -999.2500      8834.0029      4947.7764      8957.7861      6358.3281 
      0.274373      2492.6206         2.4389         1.7311     10901.8975 
     1471.6858      3713.0552     11679.9912         1.8874      6188.4331 
        3.4530         1.9146
    2812.42360 
       33.5370        34.2063        34.8966        33.5160       961.3307 
       87.8633       163.0266      8837.9473      4763.2178        12.8481 
       12.8481        32.7328         8.9055    0.000244214       0.295310 
     -999.2500      8834.5742      4947.9033      8961.5928      6294.2090 
      0.265779      2488.0725         2.4398         1.7136     10764.5625 
     1430.1191      3581.0186     11381.3174         1.8555      6133.9683 
        3.3461         1.8449
