~Version Information Block
VERS .                  2.0:  CWLS LOG ASCII STANDARD - VERSION 2.0
WRAP .                  YES:  Multiple lines per depth step
~Well Information Block
#MNEM.UNIT        Data Type   Information
#---------- ----------------  -----------
STRT .M          2945.58720:  START DEPTH
STOP .M          3894.88680:  STOP DEPTH
STEP .M             0.15240:  STEP
NULL .              -999.25:  NULL VALUE
COMP .                     :  COMPANY
WELL .       RAAG-97-02-106:  WELL
FLD  .                     :  FIELD
LOC  .                     :  LOCATION
CTRY .                     :  COUNTRY
STAT .                     :  STATE
CNTY .                     :  COUNTY
SRVC .                     :  SERVICE COMPANY
DATE .                     :  DATE
API  .                     :  API NUMBER
UWI  .                     :  UNIQUE WELL ID
~Curve Information Block
#MNEM.UNIT         API CODE   Curve Description
#---------- ----------------  -----------------
DEPTH.M                    :  
ANGLE_FAIL.DEG                  :  Fail Angle
BRIT_IND.                     :  Brittleness Index
BRIT_PR.                     :  Brittleness Index from Poisson's Ratio
BRIT_YM.                     :  Brittleness Index from Young's Modulus
CS   .M/MIN                 :  Compressive Strength
DEN  .G/C3                 :  (HDRS-H)                (2in)                   Standard Resolution Formation Density
DTCO .US/F                 :  Compressional slowness
DTSM .US/F                 :  Description
IP   .RAYL/M2                 :  P Impedence
IS   .RAYL/M2                 :  S Impedance
KBULK.                     :  Bulk Mudulus
LAMBDA.                     :  Lambda
LAMRHO.                     :  
MU   .CP                   :  Mu
MURHO.(GF/C3S)2                 :  Mu*Rho
PR   .                     :  Poisson's ratio
PRESS_FG.PSI                  :  Fracture Gradient Pressure
PRESS_OB.PSI                  :  Over-burden Pressure
PRESS_PP.PSI                  :  Pore Pressure
PRESS_SHMAX.PSI                  :  Horizontal Stress (Max)
PRESS_SHMIN.PSI                  :  Horizontal Stress (Min)
PR_STAT.                     :  Poisson's ratio (Static)
PZS  .PSI                  :  Processed Zone Stress
SHMAX_GRAD.                     :  Horizontal Stress Gradient (Max)
SHMIN_GRAD.                     :  Horizontal Stress Gradient (Min)
STRESS_CUM.PSI                  :  Cumulative stress (SHPZ)
UCS_BF.PSI                  :  Uniaxial Compressive Strength (BF)
UCS_LAL.PSI                  :  Uniaxial Compressive Strength (lal)
VP   .FT/S                 :  Compressional velocity
VPVS .                     :  Vp / Vs ratio
VS   .FT/S                 :  Shear velocity
YM   .                     :  Youngs' Modulus
YM_STAT.                     :  Youngs' Modulus (Static)
~Parameter Information Block
#MNEM.UNIT            Value   Description
#---------- ----------------  -----------
PROJECT.          RDG_13Jul21:  
SET  .              GEOMECH:  
~Other Information Block
~Ascii Log Data
# ...
    3221.12640 
       45.0735        67.0616        20.0829       114.0403      1454.1013 
        2.7831        52.1060       105.7655     16280.3408      8020.6025 
       49.0054        49.0054       136.3894        23.1141         0.0007 
      0.339751      -999.2500      9896.0449      5148.3989     10031.2881 
     7191.1919       0.305776      2344.0715         2.4635         1.7660 
    12270.5264      4166.2896      7033.7725     19191.6504         2.0298 
     9454.8760         8.9828         6.4362
    3221.27880 
       45.3219        66.7081        18.9016       114.5146      1466.7672 
        2.7649        51.4686       105.3626     16373.7520      7998.4194 
       50.6895        50.6895       140.1503        23.1384         0.0007 
      0.343295      -999.2500      9896.6279      5148.4902     10030.2676 
     7223.8418       0.308966      2567.0713         2.4631         1.7740 
    12781.8262      4185.6904      7138.8354     19429.3105         2.0471 
     9491.0303         9.0160         6.4687
    3221.43120 
       45.4253        66.5564        18.7170       114.3958      1472.0696 
        2.7404        51.2050       104.9643     16312.0684      7957.5513 
       50.8834        50.8834       139.4383        23.1075         0.0007 
      0.343849      -999.2500      9897.2109      5148.5811     10030.6104 
     7229.2144       0.309464      2713.4697         2.4631         1.7752 
    13085.3682      4180.8281      7183.0654     19529.3613         2.0499 
     9527.0498         9.0077         6.4606
    3221.58360 
       45.4484        66.5624        18.8732       114.2517      1473.2572 
        2.7257        51.1461       104.7241     16243.6357      7933.2183 
       50.6229        50.6229       137.9838        23.0897         0.0007 
      0.343380      -999.2500      9897.7930      5148.6724     10031.4219 
     7225.2153       0.309042      2500.6506         2.4632         1.7741 
    12651.7314      4174.9307      7192.9927     19551.8184         2.0475 
     9548.8984         8.9976         6.4507
    3221.73600 
       45.0038        68.3622        22.1058       114.6185      1450.5724 
        2.7496        52.2855       104.6532     16029.1729      8008.2837 
       46.7948        46.7948       128.6692        23.3239         0.0007 
      0.333683      -999.2500      9898.3770      5148.7632     10036.4043 
     7137.8379       0.300314      2195.7876         2.4642         1.7526 
    11867.2510      4189.9458      7004.6484     19125.7715         2.0016 
     9555.3652         9.0233         6.4759
    3221.88840 
       43.8144        72.1521        31.6720       112.6322      1391.5615 
        2.7647        55.4146       104.6132     15206.8311      8055.2021 
       36.7038        36.7038       101.4751        23.4696         0.0007 
      0.304984      -999.2500      9898.9600      5148.8545     10049.3730 
     6890.6943       0.274486      2340.6672         2.4673         1.6918 
    11662.7227      4108.9092      6527.2124     18045.7832         1.8878 
     9559.0205         8.8843         6.3399
    3222.04080 
       42.9743        74.9623        39.5934       110.3313      1351.2816 
        2.7631        57.6968       104.5794     14597.0830      8053.2642 
       30.1703        30.1703        83.3647        23.4715         0.0007 
      0.281220      -999.2500      9899.5430      5148.9453     10059.5723 
     6698.9458       0.253098      2439.8958         2.4697         1.6446 
    11477.6836      4015.8818      6211.6558     17331.9746         1.8126 
     9562.1143         8.7232         6.1838
    3222.19320 
       42.5692        75.3480        43.4393       107.2568      1332.2522 
        2.7278        58.8190       104.7393     14135.3682      7938.0708 
       27.0486        27.0486        73.7827        23.1004         0.0007 
      0.269682      -999.2500      9900.1260      5149.0366     10064.6475 
     6609.7031       0.242714      2413.1941         2.4708         1.6226 
    11245.7939      3892.9895      6065.4810     17001.3164         1.7807 
     9547.5166         8.5080         5.9776
    3222.34560 
       42.5698        73.9875        42.5553       105.4197      1332.2789 
        2.7022        58.8174       105.1532     14003.1035      7832.6245 
       27.1584        27.1584        73.3869        22.7039         0.0007 
      0.272334      -999.2500      9900.7090      5149.1274     10064.2402 
     6630.0811       0.245101      2530.2439         2.4706         1.6275 
    11520.6494      3820.3289      6065.6851     17001.7793         1.7878 
     9509.9316         8.3794         5.8556
    3222.49800 
       42.3818        74.2160        43.7334       104.6985      1323.5314 
        2.7129        59.3430       105.5343     13934.3281      7835.4155 
       26.3102        26.3102        71.3780        22.6299         0.0007 
      0.268800      -999.2500      9901.2920      5149.2183     10066.1934 
     6603.2490       0.241920      2825.8545         2.4709         1.6209 
    12058.2070      3791.9653      5999.1123     16851.1875         1.7784 
     9475.5957         8.3289         5.8080
    3222.65040 
       41.7981        77.1118        50.0966       104.1270      1296.7028 
        2.7448        60.9947       105.6052     13716.3779      7922.2144 
       22.8123        22.8123        62.6161        22.8653         0.0007 
      0.249710      -999.2500      9901.8750      5149.3096     10073.9023 
     6461.3340       0.224739      2918.8997         2.4727         1.5859 
    11960.4678      3769.5498      5797.3799     16394.8574         1.7314 
     9469.2324         8.2889         5.7704
    3222.80280 
       41.6871        78.4176        51.8793       104.9559      1291.6514 
        2.7658        61.3126       105.4129     13749.6387      7997.3662 
       22.1043        22.1043        61.1368        23.1243         0.0007 
      0.244362      -999.2500      9902.4580      5149.4004     10076.4336 
     6422.9429       0.219926      2644.5081         2.4732         1.5764 
    11334.9014      3802.0771      5759.8081     16309.8691         1.7193 
     9486.5039         8.3469         5.8250
    3222.95520 
       41.4162        80.2016        56.2633       104.1399      1279.4106 
        2.7551        62.0920       105.0105     13524.3330      7996.8413 
       19.9662        19.9662        55.0086        23.2114         0.0007 
      0.231210      -999.2500      9903.0410      5149.4912     10081.6963 
     6329.9346       0.208089      2153.1030         2.4743         1.5535 
    10166.0752      3770.0540      5669.3037     16105.1416         1.6912 
     9522.8545         8.2898         5.7713
    3223.10760 
       41.4059        81.4261        58.1433       104.7090      1278.9446 
        2.7465        62.1219       104.3566     13475.8789      8021.9839 
       19.2587        19.2587        52.8949        23.4302         0.0007 
      0.225570      -999.2500      9903.6240      5149.5820     10084.2500 
     6291.0898       0.203013      1638.6085         2.4748         1.5439 
     9059.3975      3792.3760      5665.8730     16097.3818         1.6799 
     9582.5234         8.3296         5.8087
    3223.26000 
       41.7045        81.0484        55.7480       106.3488      1292.4442 
        2.7388        61.2625       103.8025     13626.5908      8042.1929 
       20.5672        20.5672        56.3303        23.6147         0.0007 
      0.232756      -999.2500      9904.2070      5149.6733     10082.3496 
     6341.3647       0.209480      1262.5283         2.4742         1.5562 
     8407.7861      3857.0056      5765.6963     16323.1875         1.6944 
     9633.6797         8.4444         5.9172
    3223.41240 
       41.8855        80.2814        53.7013       106.8614      1300.6862 
        2.7321        60.7457       103.7123     13708.6924      8029.3569 
       21.5904        21.5904        58.9871        23.5975         0.0007 
      0.238896      -999.2500      9904.7900      5149.7637     10080.7822 
     6384.9414       0.215006      1135.8203         2.4737         1.5668 
     8241.5234      3877.3015      5827.0986     16462.0840         1.7073 
     9642.0547         8.4803         5.9512
