~Version Information Block
VERS .                  2.0:  CWLS LOG ASCII STANDARD - VERSION 2.0
WRAP .                   NO:  One line per depth step
~Well Information Block
#MNEM.UNIT        Data Type   Information
#---------- ----------------  -----------
STRT .M          2889.76360:  START DEPTH
STOP .M          3614.73040:  STOP DEPTH
STEP .M             0.15240:  STEP
NULL .              -999.25:  NULL VALUE
COMP .                     :  COMPANY
WELL .       RAAG-89-05-105:  WELL
FLD  .                     :  FIELD
LOC  .                     :  LOCATION
CTRY .                     :  COUNTRY
STAT .                     :  STATE
CNTY .                     :  COUNTY
SRVC .                     :  SERVICE COMPANY
DATE .                     :  DATE
API  .                     :  API NUMBER
UWI  .                     :  UNIQUE WELL ID
~Curve Information Block
#MNEM.UNIT         API CODE   Curve Description
#---------- ----------------  -----------------
DEPTH.M                    :  
PRESS_PP.PSI                  :  Pore Pressure
PZS  .PSI                  :  Processed Zone Stress
~Parameter Information Block
#MNEM.UNIT            Value   Description
#---------- ----------------  -----------
PROJECT.          RDG_13Jul21:  
SET  .              GEOMECH:  
~Other Information Block
# 
~A       DEPTH       PRESS_PP            PZS 
# ...
    3323.79880      5307.9307      1538.3170
    3323.95120      5307.9756      1462.1095
    3324.10360      5308.0205      1438.5057
    3324.25600      5308.0649      1501.5587
    3324.40840      5308.1099      1601.1780
    3324.56080      5308.1548      1746.7162
    3324.71320      5308.1997      1746.7162
    3324.86560      5308.2441      1636.1528
    3325.01800      5308.2891      1531.2605
    3325.17040      5308.3340      1654.8047
    3325.32280      5308.3784      1942.7889
    3325.47520      5308.4233      2288.9053
    3325.62760      5308.4683      2576.8433
    3325.78000      5308.5127      2743.9028
    3325.93240      5308.5576      2855.1741
    3326.08480      5308.6016      2820.5593
    3326.23720      5308.6465      2913.6199
    3326.38960      5308.6909      2907.7327
    3326.54200      5308.7358      2772.0972
    3326.69440      5308.7798      2872.6084
    3326.84680      5308.8247      2875.5225
    3326.99920      5308.8691      2898.9194
    3327.15160      5308.9136      2913.6199
    3327.30400      5308.9580      2916.5671
    3327.45640      5309.0029      2928.3799
    3327.60880      5309.0474      2863.8806
    3327.76120      5309.0918      2746.7119
    3327.91360      5309.1357      2644.2961
    3328.06600      5309.1802      2576.8433
    3328.21840      5309.2246      2474.3713
    3328.37080      5309.2690      2407.8875
    3328.52320      5309.3130      2402.8330
    3328.67560      5309.3574      2523.8782
    3328.82800      5309.4019      2783.4397
    3328.98040      5309.4458      3066.9985
    3329.13280      5309.4902      3079.2959
    3329.28520      5309.5347      2811.9583
    3329.43760      5309.5791      2652.4846
    3329.59000      5309.6230      2741.0959
    3329.74240      5309.6675      2881.3574
    3329.89480      5309.7109      2919.5168
    3330.04720      5309.7554      2991.0264
    3330.19960      5309.7993      3021.2324
    3330.35200      5309.8438      2943.1995
    3330.50440      5309.8872      2729.8918
    3330.65680      5309.9316      2566.1797
    3330.80920      5309.9756      2584.8640
    3330.96160      5310.0195      2702.0417
    3331.11400      5310.0635      2849.3813
    3331.26640      5310.1079      2988.0190
    3331.41880      5310.1519      2791.9709
    3331.57120      5310.1958      2755.1528
    3331.72360      5310.2393      2724.3037
    3331.87600      5310.2832      2696.4993
    3332.02840      5310.3271      2991.0264
    3332.18080      5310.3711      3060.8645
    3332.33320      5310.4146      3018.2007
    3332.48560      5310.4585      2985.0142
    3332.63800      5310.5024      2955.0984
    3332.79040      5310.5464      2724.3037
    3332.94280      5310.5898      2638.8486
    3333.09520      5310.6338      2560.8613
    3333.24760      5310.6777      2531.7668
    3333.40000      5310.7217      2537.0371
    3333.55240      5310.7646      2474.3713
    3333.70480      5310.8086      2925.4231
    3333.85720      5310.8521      2878.4387
    3334.00960      5310.8960      2713.1545
    3334.16200      5310.9395      2644.2961
    3334.31440      5310.9834      2440.9482
    3334.46680      5311.0269      2332.9590
    3334.61920      5311.0708      2387.7209
    3334.77160      5311.1138      2529.1350
    3334.92400      5311.1572      2696.4993
    3335.07640      5311.2007      2855.1741
    3335.22880      5311.2441      3027.3027
    3335.38120      5311.2876      3079.2959
    3335.53360      5311.3311      2967.0359
    3335.68600      5311.3745      2746.7119
    3335.83840      5311.4180      2592.9050
    3335.99080      5311.4614      2840.7102
    3336.14320      5311.5049      2852.2766
    3336.29560      5311.5483      2895.9866
    3336.44800      5311.5918      3079.2959
    3336.60040      5311.6343      3076.2180
    3336.75280      5311.6777      2946.1707
    3336.90520      5311.7212      2893.0559
    3337.05760      5311.7646      2895.9866
    3337.21000      5311.8076      2943.1995
    3337.36240      5311.8511      3073.1423
    3337.51480      5311.8945      3079.2959
    3337.66720      5311.9375      3045.5725
    3337.81960      5311.9805      2979.0117
    3337.97200      5312.0234      2934.3005
    3338.12440      5312.0669      3073.1423
    3338.27680      5312.1099      3036.4265
    3338.42920      5312.1523      2997.0481
    3338.58160      5312.1958      2955.0984
    3338.73400      5312.2388      2943.1995
    3338.88640      5312.2822      3054.7402
    3339.03880      5312.3252      3070.0691
    3339.19120      5312.3682      2982.0117
    3339.34360      5312.4111      2928.3799
    3339.49600      5312.4541      2916.5671
    3339.64840      5312.4966      2757.9712
    3339.80080      5312.5396      2476.9575
    3339.95320      5312.5825      2400.3091
    3340.10560      5312.6255      2418.0215
    3340.25800      5312.6685      2502.9375
    3340.41040      5312.7114      2797.6699
    3340.56280      5312.7544      3015.1716
    3340.71520      5312.7969      2916.5671
    3340.86760      5312.8398      2693.7312
    3341.02000      5312.8823      2495.1206
    3341.17240      5312.9248      2362.7031
    3341.32480      5312.9678      2382.7004
    3341.47720      5313.0107      2542.3159
    3341.62960      5313.0532      2682.6824
    3341.78200      5313.0962      2690.9656
    3341.93440      5313.1387      2595.5898
    3342.08680      5313.1816      2402.8330
    3342.23920      5313.2236      2350.2732
    3342.39160      5313.2661      2271.9541
    3342.54400      5313.3091      2119.2947
    3342.69640      5313.3516      2047.2164
    3342.84880      5313.3940      2051.6631
    3343.00120      5313.4370      2053.8894
    3343.15360      5313.4795      2038.3464
    3343.30600      5313.5220      2038.3464
    3343.45840      5313.5640      2184.0151
    3343.61080      5313.6064      2328.0310
    3343.76320      5313.6489      2240.7397
    3343.91560      5313.6914      2126.1545
    3344.06800      5313.7334      2105.6277
    3344.22040      5313.7764      2144.5349
    3344.37280      5313.8188      2271.9541
    3344.52520      5313.8608      2382.7004
    3344.67760      5313.9028      2428.1899
    3344.83000      5313.9453      2471.7874
    3344.98240      5313.9878      2794.8193
    3345.13480      5314.0298      2925.4231
    3345.28720      5314.0723      2931.3391
    3345.43960      5314.1143      2826.3049
    3345.59200      5314.1567      2657.9548
    3345.74440      5314.1987      2523.8782
    3345.89680      5314.2407      2505.5474
    3346.04920      5314.2827      2453.7603
    3346.20160      5314.3252      2440.9482
    3346.35400      5314.3672      2464.0486
    3346.50640      5314.4087      2365.1956
    3346.65880      5314.4507      2497.7241
    3346.81120      5314.4937      2592.9050
    3346.96360      5314.5356      2652.4846
    3347.11600      5314.5771      2671.6697
    3347.26840      5314.6191      2595.5898
    3347.42080      5314.6611      2516.0090
    3347.57320      5314.7031      2529.1350
    3347.72560      5314.7451      2558.2053
    3347.87800      5314.7871      2555.5515
    3348.03040      5314.8291      2523.8782
    3348.18280      5314.8711      2617.1477
    3348.33520      5314.9126      2688.2021
    3348.48760      5314.9546      2702.0417
    3348.64000      5314.9961      2699.2693
    3348.79240      5315.0381      2860.9761
    3348.94480      5315.0796      2829.1814
    3349.09720      5315.1211      2702.0417
    3349.24960      5315.1631      2657.9548
    3349.40200      5315.2056      2743.9028
    3349.55440      5315.2466      2823.4309
    3349.70680      5315.2881      2707.5935
    3349.85920      5315.3301      2780.6006
    3350.01160      5315.3716      2943.1995
    3350.16400      5315.4136      3039.4727
    3350.31640      5315.4551      2843.5984
    3350.46880      5315.4966      2884.2786
    3350.62120      5315.5386      2869.6968
    3350.77360      5315.5801      2817.6899
