~Version Information Block
VERS .                  2.0:  CWLS LOG ASCII STANDARD - VERSION 2.0
WRAP .                  YES:  Multiple lines per depth step
~Well Information Block
#MNEM.UNIT        Data Type   Information
#---------- ----------------  -----------
STRT .M          2682.11640:  START DEPTH
STOP .M          3633.09240:  STOP DEPTH
STEP .M             0.15240:  STEP
NULL .              -999.25:  NULL VALUE
COMP .                     :  COMPANY
WELL .       RAAG-94-07-216:  WELL
FLD  .                     :  FIELD
LOC  .                     :  LOCATION
CTRY .                     :  COUNTRY
STAT .                     :  STATE
CNTY .                     :  COUNTY
SRVC .                     :  SERVICE COMPANY
DATE .                     :  DATE
API  .                     :  API NUMBER
UWI  .                     :  UNIQUE WELL ID
~Curve Information Block
#MNEM.UNIT         API CODE   Curve Description
#---------- ----------------  -----------------
DEPTH.M                    :  
ANGLE_FAIL.DEG                  :  Fail Angle
BRIT_IND.                     :  Brittleness Index
BRIT_PR.                     :  Brittleness Index from Poisson's Ratio
BRIT_YM.                     :  Brittleness Index from Young's Modulus
CS   .M/MIN                 :  Compressive Strength
IP   .RAYL/M2                 :  P Impedence
IS   .RAYL/M2                 :  S Impedance
KBULK.                     :  Bulk Mudulus
LAMBDA.                     :  Lambda
LAMRHO.                     :  
MU   .CP                   :  Mu
MURHO.(GF/C3S)2                 :  Mu*Rho
PR   .                     :  Poisson's ratio
PRESS_FG.PSI                  :  Fracture Gradient Pressure
PRESS_OB.PSI                  :  Over-burden Pressure
PRESS_PP.PSI                  :  Pore Pressure
PRESS_SHMAX.PSI                  :  Horizontal Stress (Max)
PRESS_SHMIN.PSI                  :  Horizontal Stress (Min)
PR_STAT.                     :  Poisson's ratio (Static)
PZS  .PSI                  :  Processed Zone Stress
SHMAX_GRAD.                     :  Horizontal Stress Gradient (Max)
SHMIN_GRAD.                     :  Horizontal Stress Gradient (Min)
STRESS_CUM.PSI                  :  Cumulative stress (SHPZ)
UCS_BF.PSI                  :  Uniaxial Compressive Strength (BF)
UCS_LAL.PSI                  :  Uniaxial Compressive Strength (lal)
VP   .FT/S                 :  Compressional velocity
VPVS .                     :  Vp / Vs ratio
VS   .FT/S                 :  Shear velocity
YM   .                     :  Youngs' Modulus
YM_STAT.                     :  Youngs' Modulus (Static)
~Parameter Information Block
#MNEM.UNIT            Value   Description
#---------- ----------------  -----------
PROJECT.          RDG_13Jul21:  
SET  .              GEOMECH:  
~Other Information Block
~Ascii Log Data
# ...
    3249.50160 
       47.5219        99.6191        30.1049       169.1334      1584.0253 
    18517.2207      9722.7363        54.9937        54.9937       153.8243 
       33.7960         0.0010       0.309685      -999.2500     10937.3027 
     5279.7861     11113.3721      7415.9248       0.278717      2718.4912 
        2.4929         1.6635     13468.8320      6677.5854      8151.2432 
    21719.4375         1.9045     11404.1064        12.8393        10.6501
    3249.65400 
       46.9574        92.1780        29.8199       154.5361      1553.0233 
    17591.3281      9221.5244        50.9526        50.9526       139.3818 
       31.0860         0.0009       0.310540      -999.2500     10937.8877 
     5279.8418     11113.6289      7423.0664       0.279486      2349.5625 
        2.4929         1.6651     12745.2578      5961.6250      7876.5728 
    21098.1152         1.9076     11059.8125        11.8175         9.4487
    3249.80640 
       45.7455        82.2569        30.9211       133.5927      1488.6189 
    16220.3135      8556.1611        43.5097        43.5097       116.6828 
       27.2984         0.0008       0.307237      -999.2500     10938.4717 
     5279.8975     11115.9873      7388.1621       0.276513      1889.4681 
        2.4933         1.6572     11755.2598      4998.0864      7322.0557 
    19843.7656         1.8957     10467.5205        10.3515         7.8319
    3249.95880 
       44.9535        74.3309        29.9086       118.7533      1448.0247 
    15317.9092      8033.8628        40.0704        40.0704       105.5524 
       24.5021         0.0007       0.310274      -999.2500     10939.0557 
     5279.9531     11115.1494      7417.1982       0.279247      1587.8059 
        2.4930         1.6636     11210.0088      4360.8047      6983.6631 
    19078.3008         1.9067     10006.0947         9.3127         6.7626
    3250.11120 
       44.8096        66.3045        24.3753       108.2337      1440.7675 
    15004.4980      7609.4688        42.0708        42.0708       109.3269 
       22.2824         0.0006       0.326874      -999.2500     10939.6406 
     5280.0078     11107.3252      7585.9482       0.294187      1461.1370 
        2.4911         1.7014     11294.1709      3931.8628      6924.0703 
    18943.5000         1.9718      9607.1172         8.5764         6.0428
    3250.26360 
       44.4541        66.7921        26.8336       106.7506      1422.9998 
    14707.5527      7574.7026        39.1818        39.1818       101.5599 
       22.1357         0.0006       0.319499      -999.2500     10940.2256 
     5280.0635     11111.7422      7509.9019       0.287549      1499.5234 
        2.4920         1.6842     11218.8506      3872.9121      6779.3223 
    18616.0703         1.9417      9587.6729         8.4725         5.9439
    3250.41600 
       43.5236        70.4143        34.8446       105.9840      1377.4933 
    14228.4492      7666.3604        32.3638        32.3638        84.9026 
       22.4036         0.0006       0.295466      -999.2500     10940.8096 
     5280.1191     11124.2822      7271.3755       0.265920      1689.0236 
        2.4947         1.6306     11120.7979      3842.5881      6416.0498 
    17794.3262         1.8560      9587.6729         8.4189         5.8930
    3250.56840 
       43.0271        73.9164        40.4401       107.3927      1353.7825 
    14131.4766      7827.6982        28.9150        28.9150        77.1529 
       22.9635         0.0007       0.278680      -999.2500     10941.3945 
     5280.1743     11132.8057      7113.1675       0.250812      2166.0381 
        2.4965         1.5951     11758.4111      3898.3879      6231.0044 
    17375.7422         1.8053      9624.7598         8.5175         5.9866
    3250.72080 
       43.6156        77.6582        39.6795       115.6369      1381.9305 
    14748.4287      8140.1016        31.3951        31.3951        84.9936 
       24.4757         0.0007       0.280962      -999.2500     10941.9795 
     5280.2300     11132.3125      7135.3306       0.252865      2491.0334 
        2.4962         1.6000     12452.7285      4231.7573      6451.0015 
    17873.3887         1.8118      9864.8604         9.0946         6.5460
    3250.87320 
       45.8771        79.3652        26.9835       131.7470      1495.4753 
    16513.1758      8512.4160        47.1058        47.1058       127.7626 
       26.7163         0.0008       0.319049      -999.2500     10942.5645 
     5280.2856     11114.2510      7508.8296       0.287144      2363.5251 
        2.4921         1.6837     12944.7090      4916.7686      7380.0591 
    19974.9727         1.9399     10296.9453        10.2223         7.6955
    3251.02560 
       47.0072        83.4976        24.3038       142.6914      1555.7339 
    17230.2500      8734.2285        53.9964        53.9964       144.3080 
       28.5446         0.0008       0.327089      -999.2500     10943.1484 
     5280.3408     11110.6387      7593.3477       0.294380      1845.7649 
        2.4911         1.7025     12078.2246      5407.4658      7900.3862 
    21151.9824         1.9727     10722.2041        10.9884         8.5189
    3251.17800 
       46.7049        86.4596        29.9156       143.0036      1539.3688 
    16587.5566      8700.1104        47.3667        47.3667       123.7632 
       28.9688         0.0008       0.310253      -999.2500     10943.7334 
     5280.3965     11119.8438      7421.5371       0.279228      1456.3353 
        2.4931         1.6639     10955.7451      5421.7671      7757.1958 
    20828.0781         1.9066     10924.2471        11.0103         8.5429
    3251.33040 
       44.7306        89.8963        48.6546       131.1380      1436.8033 
    14756.0156      8473.1670        28.9026        28.9026        74.1509 
       27.9841         0.0008       0.254036      -999.2500     10944.3184 
     5280.4517     11146.7930      6894.8291       0.228633      1128.6573 
        2.4990         1.5458      9246.9736      4890.0649      6891.6338 
    18870.1250         1.7415     10835.5615        10.1797         7.6507
    3251.48280 
       41.5220        93.6574        80.4330       106.8817      1284.1770 
    12609.5225      8031.3945        11.7340        11.7340        29.9935 
       25.2349         0.0007       0.158701      -999.2500     10944.9023 
     5280.5073     11184.9824      6143.3027       0.142831      1046.1608 
        2.5074         1.3772      7578.9272      3878.1074      5704.4536 
    16184.6523         1.5700     10308.5059         8.4817         5.9526
    3251.63520 
       40.0359        84.7847        78.4266        91.1429      1218.5602 
    11813.6201      7484.6372        10.7316        10.7316        27.5220 
       21.8436         0.0006       0.164720      -999.2500     10945.4873 
     5280.5625     11183.5049      6185.1187       0.148248      1122.8663 
        2.5070         1.3865      7815.9702      3275.3486      5230.6982 
    15112.9902         1.5784      9574.9854         7.3800         4.9412
    3251.78760 
       39.8667        75.6270        65.2864        85.9676      1211.2701 
    11823.3672      7208.8428        13.8629        13.8629        35.8572 
       20.0913         0.0006       0.204141      -999.2500     10946.0713 
     5280.6182     11169.3936      6479.6221       0.183727      1327.9803 
        2.5037         1.4525      8815.2051      3086.4097      5179.4102 
    14996.9736         1.6401      9143.8262         7.0177         4.6241
    3251.94000 
       41.0838        65.2562        43.4006        87.1117      1264.5249 
    12645.5156      7100.1812        22.5845        22.5845        59.0839 
       19.2699         0.0005       0.269798      -999.2500     10946.6572 
     5280.6733     11142.3828      7032.1357       0.242818      1824.9333 
        2.4975         1.5762     10914.1377      3127.7861      5560.2710 
    15858.5039         1.7810      8904.2031         7.0978         4.6935
