~Version Information Block
VERS .                  2.0:  CWLS LOG ASCII STANDARD - VERSION 2.0
WRAP .                  YES:  Multiple lines per depth step
~Well Information Block
#MNEM.UNIT        Data Type   Information
#---------- ----------------  -----------
STRT .M          2888.43720:  START DEPTH
STOP .M          3831.03120:  STOP DEPTH
STEP .M             0.15240:  STEP
NULL .              -999.25:  NULL VALUE
COMP .                     :  COMPANY
WELL .       RAAG-99-02-105:  WELL
FLD  .                     :  FIELD
LOC  .                     :  LOCATION
CTRY .                     :  COUNTRY
STAT .                     :  STATE
CNTY .                     :  COUNTY
SRVC .                     :  SERVICE COMPANY
DATE .                     :  DATE
API  .                     :  API NUMBER
UWI  .                     :  UNIQUE WELL ID
~Curve Information Block
#MNEM.UNIT         API CODE   Curve Description
#---------- ----------------  -----------------
DEPTH.M                    :  
ANGLE_FAIL.DEG                  :  Fail Angle
BRIT_IND.                     :  Brittleness Index
BRIT_PR.                     :  Brittleness Index from Poisson's Ratio
BRIT_YM.                     :  Brittleness Index from Young's Modulus
CS   .M/MIN                 :  Compressive Strength
DTCO .US/F                 :  Compressional slowness
DTSM .US/F                 :  Fast Shear Slowness
IP   .RAYL/M2                 :  P Impedence
IS   .RAYL/M2                 :  S Impedance
KBULK.                     :  Bulk Mudulus
LAMBDA.                     :  Lambda
LAMRHO.                     :  
MU   .CP                   :  Mu
MURHO.(GF/C3S)2                 :  Mu*Rho
PR   .                     :  Poisson's ratio
PRESS_FG.PSI                  :  Fracture Gradient Pressure
PRESS_OB.PSI                  :  Over-burden Pressure
PRESS_PP.PSI                  :  Pore Pressure
PRESS_SHMAX.PSI                  :  Horizontal Stress (Max)
PRESS_SHMIN.PSI                  :  Horizontal Stress (Min)
PR_STAT.                     :  Poisson's ratio (Static)
PZS  .PSI                  :  Processed Zone Stress
SHMAX_GRAD.                     :  Horizontal Stress Gradient (Max)
SHMIN_GRAD.                     :  Horizontal Stress Gradient (Min)
STRESS_CUM.PSI                  :  Cumulative stress (SHPZ)
UCS_BF.PSI                  :  Uniaxial Compressive Strength (BF)
UCS_LAL.PSI                  :  Uniaxial Compressive Strength (lal)
VP   .FT/S                 :  Compressional velocity
VPVS .                     :  Vp / Vs ratio
VS   .FT/S                 :  Shear velocity
YM   .                     :  Youngs' Modulus
YM_STAT.                     :  Youngs' Modulus (Static)
~Parameter Information Block
#MNEM.UNIT            Value   Description
#---------- ----------------  -----------
PROJECT.          RDG_13Jul21:  
SET  .              GEOMECH:  
~Other Information Block
~Ascii Log Data
# ...
    3817.46760 
       44.0758        76.2434        41.4673       111.0195      1404.3271 
       54.7167        98.3097     13737.2705      7645.8184        29.1133 
       29.1133        71.7955        23.7051    0.000629242       0.275598 
     -999.2500     12400.2500      5359.0122     12639.3594      7618.0576 
      0.248038      2676.9172         2.5357         1.5283     13789.9492 
     4043.6125      6628.9663     18275.9551         1.7967     10171.9365 
        8.7714         6.2303
    3817.62000 
       44.1060        76.8843        41.8456       111.9229      1405.8081 
       54.6365        97.9950     13780.3086      7683.1245        29.0814 
       29.0814        71.8361        23.8973    0.000635398       0.274463 
     -999.2500     12400.8574      5359.0215     12640.6289      7605.4395 
      0.247017      2807.1357         2.5359         1.5257     14025.1504 
     4080.1362      6640.8257     18302.7813         1.7936     10204.6025 
        8.8346         6.2916
    3817.77240 
       43.9809        80.3419        46.5029       114.1810      1399.6816 
       54.9693        96.5898     13695.1045      7793.8906        26.7492 
       26.7492        66.0664        24.5945    0.000653851       0.260491 
     -999.2500     12401.4648      5359.0308     12649.0508      7449.7480 
      0.234442      2911.7371         2.5374         1.4944     13922.9697 
     4172.0415      6591.8394     18191.9727         1.7572     10353.0605 
        8.9927         6.4458
    3817.92480 
       43.9068        80.4552        47.3962       113.5142      1396.0602 
       55.1673        96.5744     13599.7061      7768.7158        26.1006 
       26.1006        64.2461        24.5190    0.000649634       0.257811 
     -999.2500     12402.0742      5359.0396     12651.1514      7420.5200 
      0.232030      2830.3323         2.5377         1.4885     13701.7051 
     4144.8101      6562.9751     18126.6797         1.7506     10354.7109 
        8.9460         6.4001
    3818.07720 
       44.0134        75.7110        41.7270       109.6949      1401.2673 
       54.8829        98.4905     13609.0898      7583.5361        28.6423 
       28.6423        70.1873        23.4689    0.000619033       0.274819 
     -999.2500     12402.6816      5359.0488     12642.3203      7609.8979 
      0.247337      2734.3857         2.5359         1.5264     13888.5674 
     3990.3105      6604.5000     18220.6113         1.7946     10153.2627 
        8.6786         6.1409
    3818.22960 
       44.3217        71.0220        34.9340       107.1100      1416.4359 
       54.0656       100.2969     13806.8096      7442.6377        32.6012 
       32.6012        79.8423        22.6180    0.000596244       0.295198 
     -999.2500     12403.2891      5359.0581     12631.0840      7847.3901 
      0.265678      2769.5073         2.5335         1.5740     14433.7949 
     3887.1624      6726.2642     18496.0488         1.8551      9970.3975 
        8.4977         5.9678
    3818.38200 
       44.7047        69.8607        31.5275       108.1939      1435.5046 
       53.0613       100.2508     14069.6865      7446.8813        35.5379 
       35.5379        87.0440        22.6413    0.000596924       0.305417 
     -999.2500     12403.8975      5359.0664     12625.5244      7971.3564 
      0.274876      3078.9124         2.5323         1.5988     15300.5371 
     3930.2754      6881.0249     18846.1289         1.8893      9974.9824 
        8.5736         6.0401
    3818.53440 
       44.9850        73.9461        33.5601       114.3321      1449.6171 
       52.3342        97.7897     14320.4902      7663.9092        35.6289 
       35.6289        87.6054        23.8876    0.000632224       0.299320 
     -999.2500     12404.5059      5359.0757     12629.8301      7898.0054 
      0.269388      3076.4216         2.5330         1.5840     15148.8535 
     4178.2197      6996.7759     19107.9629         1.8686     10226.0254 
        9.0032         6.4562
    3818.68680 
       45.1459        78.8830        37.3423       120.4238      1457.7836 
       51.9196        95.1446     14437.7803      7878.5742        34.2799 
       34.2799        84.3056        25.2394    0.000668137       0.287973 
     -999.2500     12405.1133      5359.0840     12637.1826      7763.7261 
      0.259176      2921.0935         2.5344         1.5570     14569.6396 
     4430.6606      7064.2300     19260.5488         1.8325     10510.3184 
        9.4297         6.8798
    3818.83920 
       45.1252        80.4775        39.0221       121.9328      1456.7288 
       51.9729        94.4627     14432.7090      7940.8037        33.3973 
       33.3973        82.1904        25.6224    0.000678733       0.282934 
     -999.2500     12405.7217      5359.0933     12640.7441      7705.2695 
      0.254640      2798.4202         2.5350         1.5452     14207.3799 
     4494.1763      7055.4985     19240.7969         1.8175     10586.1895 
        9.5353         6.9864
    3818.99160 
       44.9182        80.9423        41.0435       120.8410      1446.2432 
       52.5068        94.5245     14257.3936      7919.7471        31.6882 
       31.6882        77.8285        25.5377    0.000675138       0.276869 
     -999.2500     12406.3291      5359.1025     12644.8691      7635.5391 
      0.249182      2755.8977         2.5357         1.5312     13982.8730 
     4448.1836      6969.0088     19045.1523         1.8002     10579.2676 
        9.4589         6.9092
    3819.14400 
       44.7073        81.3624        42.8642       119.8605      1435.6354 
       53.0545        94.7182     14125.7217      7912.2397        30.2301 
       30.2301        74.3289        25.4613    0.000673859       0.271407 
     -999.2500     12406.9365      5359.1108     12648.6035      7573.6060 
      0.244267      2723.1270         2.5364         1.5187     13793.4658 
     4407.0532      6882.0928     18848.5430         1.7853     10557.6328 
        9.3902         6.8402
    3819.29640 
       44.7001        78.0177        39.3694       116.6660      1435.2720 
       53.0734        96.3021     14132.7520      7788.7520        31.8608 
       31.8608        78.4054        24.6517    0.000652989       0.281892 
     -999.2500     12407.5449      5359.1201     12643.2549      7693.3403 
      0.253703      2744.9412         2.5352         1.5426     14076.5625 
     4274.1885      6879.1255     18841.8320         1.8145     10383.9893 
        9.1666         6.6172
    3819.44880 
       44.8016        73.8366        34.1077       113.5656      1440.3660 
       52.8093        98.3912     14299.2393      7674.8008        34.9805 
       34.9805        86.6631        23.7753    0.000634022       0.297677 
     -999.2500     12408.1533      5359.1284     12634.5850      7879.5142 
      0.267909      2702.5798         2.5333         1.5799     14364.1885 
     4146.9077      6920.7813     18936.0586         1.8631     10163.5107 
        8.9496         6.4036
    3819.60120 
       44.8882        74.1537        33.4861       114.8213      1444.7273 
       52.5846        98.2964     14452.6797      7731.5986        35.8245 
       35.8245        89.3247        23.9743    0.000643441       0.299542 
     -999.2500     12408.7607      5359.1367     12634.0820      7902.3398 
      0.269587      2611.6951         2.5331         1.5844     14228.0703 
     4198.2573      6956.5522     19016.9746         1.8693     10173.3125 
        9.0375         6.4898
    3819.75360 
       45.0392        78.7445        36.5797       120.9093      1452.3649 
       52.1942        96.0134     14651.9990      7965.0273        34.9928 
       34.9928        87.7977        25.2854    0.000682880       0.290261 
     -999.2500     12409.3691      5359.1455     12640.2246      7792.2515 
      0.261235      2543.7334         2.5342         1.5623     13871.9697 
     4451.0557      7019.4341     19159.2168         1.8395     10415.2129 
        9.4637         6.9140
