~Version Information Block
VERS .                  2.0:  CWLS LOG ASCII STANDARD - VERSION 2.0
WRAP .                  YES:  Multiple lines per depth step
~Well Information Block
#MNEM.UNIT        Data Type   Information
#---------- ----------------  -----------
STRT .M          2738.62800:  START DEPTH
STOP .M          3798.57000:  STOP DEPTH
STEP .M             0.15240:  STEP
NULL .              -999.25:  NULL VALUE
COMP .                     :  COMPANY
WELL .      RAAG-106-07-211:  WELL
FLD  .                     :  FIELD
LOC  .                     :  LOCATION
CTRY .                     :  COUNTRY
STAT .                     :  STATE
CNTY .                     :  COUNTY
SRVC .                     :  SERVICE COMPANY
DATE .                     :  DATE
API  .                     :  API NUMBER
UWI  .                     :  UNIQUE WELL ID
~Curve Information Block
#MNEM.UNIT         API CODE   Curve Description
#---------- ----------------  -----------------
DEPTH.M                    :  
ANGLE_FAIL.DEG                  :  Fail Angle
BRIT_IND.                     :  Brittleness Index
BRIT_PR.                     :  Brittleness Index from Poisson's Ratio
BRIT_YM.                     :  Brittleness Index from Young's Modulus
CS   .M/MIN                 :  Compressive Strength
DTCO .US/F                 :  Compressional slowness
DTSM .US/F                 :  Fast Shear Slowness
IP   .RAYL/M2                 :  P Impedence
IS   .RAYL/M2                 :  S Impedance
KBULK.                     :  Bulk Mudulus
LAMBDA.                     :  Lambda
LAMRHO.                     :  
MU   .CP                   :  Mu
MURHO.(GF/C3S)2                 :  Mu*Rho
PR   .                     :  Poisson's ratio
PRESS_FG.PSI                  :  Fracture Gradient Pressure
PRESS_OB.PSI                  :  Over-burden Pressure
PRESS_PP.PSI                  :  Pore Pressure
PRESS_SHMAX.PSI                  :  Horizontal Stress (Max)
PRESS_SHMIN.PSI                  :  Horizontal Stress (Min)
PR_STAT.                     :  Poisson's ratio (Static)
PZS  .PSI                  :  Processed Zone Stress
SHMAX_GRAD.                     :  Horizontal Stress Gradient (Max)
SHMIN_GRAD.                     :  Horizontal Stress Gradient (Min)
STRESS_CUM.PSI                  :  Cumulative stress (SHPZ)
UCS_BF.PSI                  :  Uniaxial Compressive Strength (BF)
UCS_LAL.PSI                  :  Uniaxial Compressive Strength (lal)
VP   .FT/S                 :  Compressional velocity
VPVS .                     :  Vp / Vs ratio
VS   .FT/S                 :  Shear velocity
YM   .                     :  Youngs' Modulus
YM_STAT.                     :  Youngs' Modulus (Static)
~Parameter Information Block
#MNEM.UNIT            Value   Description
#---------- ----------------  -----------
PROJECT.          RDG_13Jul21:  
SET  .              GEOMECH:  
~Other Information Block
~Ascii Log Data
# ...
    3606.69840 
       42.3870        59.4482        32.2892        86.6073      1323.7729 
       59.3284       111.6222     12873.0996      6842.1904        28.7685 
       28.7685        72.0855        18.6836    0.000503919       0.303132 
     -999.2500     11713.3408      5337.3560     11915.5498      7669.1709 
      0.272819      1715.9138         2.5148         1.6186     11970.1699 
     3109.5149      6000.9448     16855.3340         1.8814      8958.7910 
        7.0625         4.6629
    3606.85080 
       41.8530        58.7621        33.9938        83.5305      1299.2036 
       60.8382       113.4184     12615.1563      6766.8330        26.8318 
       26.8318        67.5621        18.1852    0.000492880       0.298019 
     -999.2500     11713.9336      5337.3867     11918.9785      7613.0469 
      0.268217      1761.3474         2.5154         1.6067     11948.7891 
     2999.0225      5816.0283     16437.0410         1.8643      8816.9111 
        6.8471         4.4775
    3607.00320 
       41.0977        59.3420        37.8257        80.8583      1265.1439 
       63.0171       115.2054     12331.7158      6745.4214        23.9530 
       23.9530        61.0698        17.8464    0.000489766       0.286523 
     -999.2500     11714.5264      5337.4170     11925.7793      7489.4600 
      0.257871      1799.9255         2.5168         1.5805     11778.7705 
     2904.3767      5564.7822     15868.7080         1.8282      8680.1484 
        6.6601         4.3187
    3607.15560 
       40.3181        61.0309        42.8392        79.2226      1230.7960 
       65.3207       116.6302     12125.0488      6790.8369        21.0838 
       21.0838        54.7859        17.7471    0.000496383       0.271482 
     -999.2500     11715.1191      5337.4478     11934.2285      7332.9346 
      0.244334      1824.3728         2.5184         1.5474     11514.6152 
     2847.0442      5317.3857     15309.0830         1.7855      8574.1084 
        6.5456         4.2225
    3607.30800 
       39.7739        62.7840        47.1963        78.3717      1207.2900 
       66.9618       117.3195     11982.3789      6839.1157        19.0055 
       19.0055        50.0304        17.7683    0.000503466       0.258411 
     -999.2500     11715.7119      5337.4785     11941.4258      7201.4429 
      0.232570      1802.8806         2.5198         1.5196     11208.6465 
     2817.3979      5151.5215     14933.8887         1.7520      8523.7314 
        6.4860         4.1727
    3607.46040 
       39.6473        63.7709        49.0355        78.5063      1201.8743 
       67.3476       117.1039     11939.5791      6866.5693        18.2910 
       18.2910        48.2540        17.8724    0.000507516       0.252894 
     -999.2500     11716.3037      5337.5093     11944.7549      7147.2866 
      0.227604      1704.0753         2.5204         1.5081     10902.7236 
     2822.0786      5113.7021     14848.3379         1.7388      8539.4258 
        6.4954         4.1806
    3607.61280 
       39.9900        63.5630        47.3743        79.7517      1216.5796 
       66.3068       116.0855     12029.0801      6870.8823        19.2144 
       19.2144        50.2807        18.0405    0.000508154       0.257877 
     -999.2500     11716.8965      5337.5400     11942.9092      7196.6553 
      0.232089      1549.7405         2.5199         1.5185     10692.7910 
     2865.5366      5216.7373     15081.4092         1.7507      8614.3398 
        6.5826         4.2535
    3607.76520 
       40.6941        62.3712        42.7747        81.9676      1247.2605 
       64.2028       114.6675     12272.6504      6871.5063        21.7333 
       21.7333        56.1827        18.2653    0.000508246       0.271676 
     -999.2500     11717.4883      5337.5703     11936.5645      7335.9756 
      0.244508      1426.3480         2.5185         1.5478     10724.6475 
     2943.5193      5435.2266     15575.6445         1.7860      8720.8662 
        6.7377         4.3843
    3607.91760 
       41.4894        60.9541        37.3273        84.5809      1282.7085 
       61.8807       113.4071     12630.6357      6891.9194        25.1672 
       25.1672        64.5359        18.5232    0.000511270       0.288018 
     -999.2500     11718.0820      5337.6011     11928.6357      7507.0010 
      0.259216      1360.2467         2.5167         1.5838     10934.4951 
     3036.5635      5693.6113     16160.1279         1.8327      8817.7910 
        6.9207         4.5405
    3608.07000 
       42.0952        59.6365        33.0033        86.2697      1310.2974 
       60.1502       112.7305     12928.5439      6898.3506        28.2096 
       28.2096        71.9728        18.6517    0.000512225       0.300990 
     -999.2500     11718.6738      5337.6318     11922.2217      7647.7036 
      0.270891      1356.2944         2.5152         1.6134     11207.9961 
     3097.3152      5899.1416     16625.0488         1.8742      8870.7139 
        7.0389         4.6424
    3608.22240 
       42.3690        58.6148        30.4984        86.7312      1322.9376 
       59.3789       112.8360     13105.5137      6896.6548        30.0130 
       30.0130        76.6268        18.6297    0.000511973       0.308505 
     -999.2500     11719.2656      5337.6621     11918.6602      7731.3594 
      0.277654      1452.4702         2.5144         1.6310     11567.6592 
     3113.9983      5994.6079     16841.0000         1.9003      8862.4199 
        7.0712         4.6704
    3608.37480 
       42.2243        58.1110        30.3778        85.8443      1316.2421 
       59.7858       113.6870     13093.7598      6885.7559        29.8326 
       29.8326        76.6193        18.4610    0.000510356       0.308867 
     -999.2500     11719.8584      5337.6929     11919.0723      7735.5879 
      0.277980      1677.4166         2.5143         1.6318     12026.0098 
     3081.9631      5943.9375     16726.3809         1.9016      8796.0811 
        7.0091         4.6167
    3608.52720 
       41.5787        58.8115        34.0145        83.6085      1286.7404 
       61.6237       114.8702     12786.0430      6859.2485        26.8406 
       26.8406        69.3843        18.2005    0.000506434       0.297957 
     -999.2500     11720.4502      5337.7236     11925.7236      7614.9731 
      0.268161      2005.2413         2.5156         1.6063     12440.4287 
     3001.8059      5723.4053     16227.5225         1.8641      8705.4775 
        6.8526         4.4822
    3608.67960 
       40.5988        61.4545        41.9717        80.9373      1243.0729 
       64.4847       115.5918     12260.6406      6839.7910        21.8812 
       21.8812        56.7578        18.0356    0.000503565       0.274085 
     -999.2500     11721.0420      5337.7544     11938.9990      7361.9082 
      0.246676      2402.6057         2.5183         1.5529     12729.0283 
     2907.1570      5405.1250     15507.5527         1.7925      8651.1328 
        6.6656         4.3233
    3608.83200 
       39.8119        65.6161        51.4570        79.7752      1208.9193 
       66.8463       115.1161     11851.8828      6882.2217        17.5962 
       17.5962        45.7372        18.2225    0.000509832       0.245629 
     -999.2500     11721.6348      5337.7847     11953.7891      7078.5645 
      0.221066      2745.4675         2.5213         1.4930     12848.0635 
     2866.3601      5162.9287     14959.6914         1.7221      8686.8818 
        6.5843         4.2549
    3608.98440 
       39.6991        69.6717        57.0803        82.2630      1204.0887 
       67.1895       113.2971     11884.7021      7048.0820        15.9915 
       15.9915        41.8952        18.9613    0.000534702       0.228759 
     -999.2500     11722.2275      5337.8154     11962.3633      6919.5049 
      0.205883      2826.6167         2.5230         1.4594     12692.2432 
     2953.9788      5129.1484     14883.2783         1.6862      8826.3516 
        6.7584         4.4019
