~Version Information Block
VERS .                  2.0:  CWLS LOG ASCII STANDARD - VERSION 2.0
WRAP .                  YES:  Multiple lines per depth step
~Well Information Block
#MNEM.UNIT        Data Type   Information
#---------- ----------------  -----------
STRT .M          2556.50000:  START DEPTH
STOP .M          3600.74480:  STOP DEPTH
STEP .M             0.15240:  STEP
NULL .              -999.25:  NULL VALUE
COMP .                     :  COMPANY
WELL .      RAAG-100-07-213:  WELL
FLD  .                     :  FIELD
LOC  .                     :  LOCATION
CTRY .                     :  COUNTRY
STAT .                     :  STATE
CNTY .                     :  COUNTY
SRVC .                     :  SERVICE COMPANY
DATE .                     :  DATE
API  .                     :  API NUMBER
UWI  .                     :  UNIQUE WELL ID
~Curve Information Block
#MNEM.UNIT         API CODE   Curve Description
#---------- ----------------  -----------------
DEPTH.M                    :  
ANGLE_FAIL.DEG                  :  Fail Angle
BRIT_IND.                     :  Brittleness Index
BRIT_PR.                     :  Brittleness Index from Poisson's Ratio
BRIT_YM.                     :  Brittleness Index from Young's Modulus
CS   .M/MIN                 :  Compressive Strength
DTCO .US/F                 :  Compressional slowness
DTSM .US/F                 :  Description
IP   .RAYL/M2                 :  P Impedence
IS   .RAYL/M2                 :  S Impedance
KBULK.                     :  Bulk Mudulus
LAMBDA.                     :  Lambda
LAMRHO.                     :  
MU   .CP                   :  Mu
MURHO.(GF/C3S)2                 :  Mu*Rho
PR   .                     :  Poisson's ratio
PRESS_FG.PSI                  :  Fracture Gradient Pressure
PRESS_OB.PSI                  :  Over-burden Pressure
PRESS_PP.PSI                  :  Pore Pressure
PRESS_SHMAX.PSI                  :  Horizontal Stress (Max)
PRESS_SHMIN.PSI                  :  Horizontal Stress (Min)
PR_STAT.                     :  Poisson's ratio (Static)
PZS  .PSI                  :  Processed Zone Stress
SHMAX_GRAD.                     :  Horizontal Stress Gradient (Max)
SHMIN_GRAD.                     :  Horizontal Stress Gradient (Min)
STRESS_CUM.PSI                  :  Cumulative stress (SHPZ)
UCS_BF.PSI                  :  Uniaxial Compressive Strength (BF)
UCS_LAL.PSI                  :  Uniaxial Compressive Strength (lal)
VP   .FT/S                 :  Compressional velocity
VPVS .                     :  Vp / Vs ratio
VS   .FT/S                 :  Shear velocity
YM   .                     :  Youngs' Modulus
YM_STAT.                     :  Youngs' Modulus (Static)
~Parameter Information Block
#MNEM.UNIT            Value   Description
#---------- ----------------  -----------
PROJECT.          RDG_13Jul21:  
SET  .              GEOMECH:  
~Other Information Block
~Ascii Log Data
# ...
    3456.26960 
       44.5337        81.4236        40.6490       122.1981      1426.9615 
       53.5081        96.5045     14715.6689      8159.2842        32.2848 
       32.2848        83.4031        25.7703    0.000716596       0.278053 
     -999.2500     11872.2109      5343.7173     12092.7764      7460.8975 
      0.250248      1647.6934         2.5218         1.5559     11417.1816 
     4505.3848      6811.4565     18688.7598         1.8035     10362.2129 
        9.5539         7.0052
    3456.42200 
       44.6192        81.2332        39.9200       122.5465      1431.2267 
       53.2844        96.4317     14767.5430      8159.9717        32.8901 
       32.8901        84.9100        25.7919    0.000716717       0.280240 
     -999.2500     11872.8145      5343.7437     12092.2314      7484.4722 
      0.252216      1730.9221         2.5216         1.5607     11630.7891 
     4520.1177      6846.1411     18767.2188         1.8098     10370.0381 
        9.5783         7.0299
    3456.57440 
       44.3992        80.9845        41.4034       120.5656      1420.2742 
       53.8614        96.8015     14559.1250      8100.8511        31.3752 
       31.3752        80.7206        25.5072    0.000706369       0.275790 
     -999.2500     11873.4170      5343.7700     12095.2285      7437.1743 
      0.248211      1780.9091         2.5221         1.5508     11636.1660 
     4436.6157      6757.2637     18566.1719         1.7972     10330.4141 
        9.4396         6.8898
    3456.72680 
       43.9716        79.3157        42.6645       115.9669      1399.2252 
       54.9942        98.2697     14236.1055      7966.8857        29.4809 
       29.4809        75.7241        24.7106    0.000683199       0.272007 
     -999.2500     11874.0186      5343.7959     12097.8643      7397.1196 
      0.244806      1784.7926         2.5225         1.5424     11563.8252 
     4245.3418      6588.1978     18183.7344         1.7869     10176.0801 
        9.1177         6.5688
    3456.87920 
       43.4656        78.8427        45.5378       112.1476      1374.7024 
       56.3548        99.4331     13900.4424      7878.2256        26.8823 
       26.8823        69.0894        24.1497    0.000668078       0.263387 
     -999.2500     11874.6230      5343.8213     12102.9775      7307.5278 
      0.237048      1744.5449         2.5235         1.5236     11304.1455 
     4089.2402      6394.1191     17744.7168         1.7644     10057.0098 
        8.8503         6.3069
    3457.03160 
       43.2812        79.6410        47.8305       111.4515      1365.8689 
       56.8560        99.3510     13754.3184      7871.2378        25.4392 
       25.4392        65.2685        24.1482    0.000666893       0.256508 
     -999.2500     11875.2246      5343.8477     12107.1074      7237.5762 
      0.230858      1676.8054         2.5242         1.5090     11028.7637 
     4061.0603      6324.9683     17588.2949         1.7474     10065.3223 
        8.8016         6.2596
    3457.18400 
       43.3368        76.7156        44.5504       108.8807      1368.5244 
       56.7047       100.4801     13710.4561      7737.3296        26.7552 
       26.7552        68.2441        23.4707    0.000644395       0.266349 
     -999.2500     11875.8271      5343.8730     12102.7090      7338.1870 
      0.239714      1669.1548         2.5232         1.5299     11214.6836 
     3957.6985      6345.7139     17635.2227         1.7720      9952.2236 
        8.6217         6.0861
    3457.33640 
       43.4700        73.5332        40.7754       106.2911      1374.9152 
       56.3428       101.5570     13677.1934      7587.9712        28.4430 
       28.4430        71.9110        22.7736    0.000619757       0.277674 
     -999.2500     11876.4297      5343.8994     12097.4043      7456.9360 
      0.249906      1715.7455         2.5220         1.5546     11545.3633 
     3854.7219      6395.7900     17748.4961         1.8025      9846.6895 
        8.4404         5.9134
    3457.48880 
       42.8492        72.8223        44.7072       100.9373      1345.3809 
       58.0417       102.7787     13115.5313      7406.6646        24.9445 
       24.9445        62.2998        21.9652    0.000590494       0.265878 
     -999.2500     11877.0332      5343.9253     12104.2324      7333.0479 
      0.239290      1703.3781         2.5233         1.5287     11272.8516 
     3645.4692      6166.1299     17228.9922         1.7708      9729.6387 
        8.0656         5.5622
    3457.64120 
       41.6898        72.6281        52.7022        92.5541      1291.7761 
       61.3047       105.0653     12264.3896      7156.1650        19.4563 
       19.4563        47.9939        20.7604    0.000551227       0.241893 
     -999.2500     11877.6357      5343.9512     12116.9434      7091.4941 
      0.217704      1561.1638         2.5258         1.4783     10505.3164 
     3327.6660      5760.7344     16311.9629         1.7138      9517.8887 
        7.4788         5.0289
    3457.79360 
       40.9661        69.5922        53.9753        85.2091      1259.2870 
       63.4022       108.1363     11734.4990      6880.1411        17.6269 
       17.6269        43.0258        19.3928    0.000509524       0.238074 
     -999.2500     11878.2383      5343.9771     12119.4531      7053.9409 
      0.214267      1281.3555         2.5262         1.4704      9870.5928 
     3059.1030      5522.1729     15772.3242         1.7056      9247.5879 
        6.9646         4.5783
    3457.94600 
       40.2873        65.4313        53.1780        77.6847      1229.4563 
       65.4128       111.9024     11237.0176      6568.6265        16.5771 
       16.5771        39.9768        17.8916    0.000464429       0.240466 
     -999.2500     11878.8418      5344.0034     12118.9443      7076.7930 
      0.216419      1016.1834         2.5260         1.4751      9385.9521 
     2793.5544      5307.8564     15287.5264         1.7107      8936.3623 
        6.4379         4.1327
    3458.09840 
       40.0264        60.0800        48.0391        72.1210      1218.1515 
       66.1968       115.5736     10991.3369      6295.4824        17.4032 
       17.4032        41.5433        16.6030    0.000426607       0.255883 
     -999.2500     11879.4443      5344.0288     12111.9434      7229.4668 
      0.230295       878.2339         2.5244         1.5068      9415.4014 
     2603.4331      5227.8159     15106.4707         1.7459      8652.4971 
        6.0485         3.8137
    3458.25080 
       40.0316        59.4184        47.3914        71.4455      1218.3762 
       66.1811       115.8572     10944.6641      6251.9204        17.5107 
       17.5107        41.6127        16.4477    0.000420724       0.257826 
     -999.2500     11880.0469      5344.0547     12111.5850      7249.2783 
      0.232043       846.6315         2.5243         1.5109      9391.8193 
     2580.7095      5229.4004     15110.0537         1.7506      8631.3164 
        6.0012         3.7756
    3458.40320 
       40.4870        59.8444        45.4663        74.2225      1238.1709 
       64.8168       114.3988     11196.9785      6344.0557        18.8479 
       18.8479        44.8782        16.9029    0.000433216       0.263601 
     -999.2500     11880.6504      5344.0801     12109.2500      7308.6685 
      0.237241       892.9901         2.5237         1.5232      9603.3174 
     2674.6213      5369.9995     15428.0986         1.7650      8741.3506 
        6.1956         3.9331
    3458.55560 
       41.3739        61.0367        41.7954        80.2781      1277.5065 
       62.2144       111.6123     11761.1953      6555.8721        21.8137 
       21.8137        52.3668        17.9033    0.000462627       0.274614 
     -999.2500     11881.2529      5344.1060     12104.1113      7424.0840 
      0.247152       974.6870         2.5225         1.5472      9997.5420 
     2883.9866      5655.2930     16073.4482         1.7940      8959.5889 
        6.6195         4.2845
