~Version Information Block
VERS .                  2.0:  CWLS LOG ASCII STANDARD - VERSION 2.0
WRAP .                  YES:  Multiple lines per depth step
~Well Information Block
#MNEM.UNIT        Data Type   Information
#---------- ----------------  -----------
STRT .M          2945.58720:  START DEPTH
STOP .M          3894.88680:  STOP DEPTH
STEP .M             0.15240:  STEP
NULL .              -999.25:  NULL VALUE
COMP .                     :  COMPANY
WELL .       RAAG-97-02-106:  WELL
FLD  .                     :  FIELD
LOC  .                     :  LOCATION
CTRY .                     :  COUNTRY
STAT .                     :  STATE
CNTY .                     :  COUNTY
SRVC .                     :  SERVICE COMPANY
DATE .                     :  DATE
API  .                     :  API NUMBER
UWI  .                     :  UNIQUE WELL ID
~Curve Information Block
#MNEM.UNIT         API CODE   Curve Description
#---------- ----------------  -----------------
DEPTH.M                    :  
ANGLE_FAIL.DEG                  :  Fail Angle
BRIT_IND.                     :  Brittleness Index
BRIT_PR.                     :  Brittleness Index from Poisson's Ratio
BRIT_YM.                     :  Brittleness Index from Young's Modulus
CS   .M/MIN                 :  Compressive Strength
DEN  .G/C3                 :  (HDRS-H)                (2in)                   Standard Resolution Formation Density
DTCO .US/F                 :  Compressional slowness
DTSM .US/F                 :  Description
IP   .RAYL/M2                 :  P Impedence
IS   .RAYL/M2                 :  S Impedance
KBULK.                     :  Bulk Mudulus
LAMBDA.                     :  Lambda
LAMRHO.                     :  
MU   .CP                   :  Mu
MURHO.(GF/C3S)2                 :  Mu*Rho
PR   .                     :  Poisson's ratio
PRESS_FG.PSI                  :  Fracture Gradient Pressure
PRESS_OB.PSI                  :  Over-burden Pressure
PRESS_PP.PSI                  :  Pore Pressure
PRESS_SHMAX.PSI                  :  Horizontal Stress (Max)
PRESS_SHMIN.PSI                  :  Horizontal Stress (Min)
PR_STAT.                     :  Poisson's ratio (Static)
PZS  .PSI                  :  Processed Zone Stress
SHMAX_GRAD.                     :  Horizontal Stress Gradient (Max)
SHMIN_GRAD.                     :  Horizontal Stress Gradient (Min)
STRESS_CUM.PSI                  :  Cumulative stress (SHPZ)
UCS_BF.PSI                  :  Uniaxial Compressive Strength (BF)
UCS_LAL.PSI                  :  Uniaxial Compressive Strength (lal)
VP   .FT/S                 :  Compressional velocity
VPVS .                     :  Vp / Vs ratio
VS   .FT/S                 :  Shear velocity
YM   .                     :  Youngs' Modulus
YM_STAT.                     :  Youngs' Modulus (Static)
~Parameter Information Block
#MNEM.UNIT            Value   Description
#---------- ----------------  -----------
PROJECT.          RDG_13Jul21:  
SET  .              GEOMECH:  
~Other Information Block
~Ascii Log Data
# ...
    3574.69440 
       43.6613        73.4030        39.3860       107.4200      1384.1355 
        2.5302        55.8261       101.2889     13814.4941      7613.9585 
       29.6004        29.6004        74.8955        22.9120         0.0006 
      0.281842      -999.2500     11264.4824      5307.2935     11464.2119 
     7269.9053       0.253658      3724.5178         2.5056         1.5889 
    15188.8467      3899.4717      6468.4072     17912.7617         1.8144 
     9872.7480         8.5194         5.9884
    3574.84680 
       43.3615        72.9572        41.1128       104.8017      1369.7090 
        2.5173        56.6374       101.9277     13547.0117      7527.5635 
       27.8845        27.8845        70.1931        22.5101         0.0006 
      0.276662      -999.2500     11265.0791      5307.3394     11467.3623 
     7219.4160       0.248995      3746.4221         2.5062         1.5778 
    15131.6768      3796.0166      6354.9800     17656.1836         1.7997 
     9810.8740         8.3361         5.8148
    3574.99920 
       43.0498        72.9864        43.0362       102.9367      1354.8574 
        2.5199        57.4892       102.5561     13360.1523      7489.2085 
       26.3174        26.3174        66.3172        22.2582         0.0006 
      0.270892      -999.2500     11265.6768      5307.3853     11470.7617 
     7163.9746       0.243802      3341.2366         2.5068         1.5656 
    14210.4219      3723.0420      6239.3311     17394.5781         1.7839 
     9750.7578         8.2056         5.6924
    3575.15160 
       42.7587        73.1896        45.1355       101.2436      1341.1249 
        2.5190        58.2922       103.0302     13171.4229      7452.0923 
       24.7793        24.7793        62.4190        22.0459         0.0006 
      0.264593      -999.2500     11266.2734      5307.4312     11474.3711 
     7104.3252       0.238134      2678.9980         2.5075         1.5525 
    12766.6465      3657.3110      6133.4048     17154.9648         1.7675 
     9705.8896         8.0871         5.5821
    3575.30400 
       42.6088        73.0211        45.7231       100.3191      1334.1002 
        2.5254        58.7087       103.5040     13111.1621      7436.8115 
       24.2696        24.2696        61.2902        21.9000         0.0006 
      0.262831      -999.2500     11266.8701      5307.4766     11475.8184 
     7087.9048       0.236548      2122.7869         2.5077         1.5489 
    11621.3828      3621.6221      6079.5947     17033.2441         1.7630 
     9661.4648         8.0223         5.5222
    3575.45640 
       42.5201        72.1160        45.1549        99.0771      1329.9641 
        2.5281        58.9559       104.1945     13069.9736      7395.3164 
       24.3044        24.3044        61.4428        21.6335         0.0006 
      0.264535      -999.2500     11267.4668      5307.5225     11475.6387 
     7104.0278       0.238082      1933.5244         2.5075         1.5523 
    11275.1045      3573.9124      6048.0303     16961.8438         1.7673 
     9597.4326         7.9354         5.4422
    3575.60880 
       42.4035        70.8660        44.5691        97.1630      1324.5391 
        2.5223        59.2821       105.0386     12968.4375      7319.1782 
       24.2000        24.2000        61.0396        21.2387         0.0006 
      0.266293      -999.2500     11268.0635      5307.5679     11475.4336 
     7120.6641       0.239664      1971.2838         2.5074         1.5559 
    11383.8955      3500.9004      6006.7617     16868.4902         1.7718 
     9520.3057         7.8014         5.3196
    3575.76120 
       42.2767        69.7260        44.1959        95.2560      1318.6633 
        2.5150        59.6382       105.8428     12853.7930      7242.6064 
       23.9797        23.9797        60.3093        20.8569         0.0006 
      0.267412      -999.2500     11268.6602      5307.6143     11475.5273 
     7131.3203       0.240671      2680.9126         2.5073         1.5581 
    12824.4658      3428.7805      5962.2349     16767.7695         1.7747 
     9447.9775         7.6679         5.1986
    3575.91360 
       42.1764        68.9301        43.8233        94.0370      1314.0325 
        2.5167        59.9209       106.5196     12801.8115      7201.4570 
       23.9059        23.9059        60.1644        20.6066         0.0006 
      0.268530      -999.2500     11269.2578      5307.6592     11475.6182 
     7142.0508       0.241677      3370.2051         2.5072         1.5604 
    14224.5117      3383.0078      5927.2661     16688.6680         1.7777 
     9387.9473         7.5826         5.1218
    3576.06600 
       42.0448        68.5781        44.0344        93.1218      1307.9828 
        2.5231        60.2929       107.0808     12754.9941      7181.8228 
       23.5952        23.5952        59.5327        20.4427         0.0006 
      0.267897      -999.2500     11269.8545      5307.7051     11476.5381 
     7136.1792       0.241107      3160.7583         2.5073         1.5590 
    13793.8750      3348.8086      5881.7485     16585.7051         1.7760 
     9338.7422         7.5185         5.0644
    3576.21840 
       41.8689        68.4500        44.8060        92.0941      1299.9292 
        2.5280        60.7929       107.6041     12674.9443      7160.9370 
       22.9807        22.9807        58.0962        20.2841         0.0006 
      0.265582      -999.2500     11270.4502      5307.7505     11478.2529 
     7114.4033       0.239024      2616.6194         2.5075         1.5542 
    12662.0459      3310.5740      5821.4448     16449.2949         1.7700 
     9293.3242         7.4466         5.0003
    3576.37080 
       41.7360        68.0202        45.1863        90.8542      1293.8762 
        2.5238        61.1723       108.0971     12575.1836      7116.3169 
       22.5261        22.5261        56.8513        20.0658         0.0005 
      0.264441      -999.2500     11271.0469      5307.7964     11479.4111 
     7103.7651       0.237997      2490.4189         2.5077         1.5518 
    12388.3682      3264.6917      5776.3403     16347.2656         1.7671 
     9250.9443         7.3598         4.9233
    3576.52320 
       41.7469        67.2620        44.0791        90.4449      1294.3716 
        2.5292        61.1411       108.5659     12608.4404      7100.7036 
       22.9848        22.9848        58.1328        19.9353         0.0005 
      0.267763      -999.2500     11271.6445      5307.8423     11478.4590 
     7135.3486       0.240987      2558.5894         2.5073         1.5586 
    12587.8760      3249.6006      5780.0249     16355.5986         1.7757 
     9210.9932         7.3311         4.8980
    3576.67560 
       41.7183        66.3449        43.1164        89.5735      1293.0721 
        2.5307        61.2230       109.1776     12599.2266      7065.2036 
       23.2766        23.2766        58.9063        19.7245         0.0005 
      0.270651      -999.2500     11272.2412      5307.8877     11477.7031 
     7163.0029       0.243586      2617.4849         2.5070         1.5646 
    12760.9756      3217.5723      5770.3623     16333.7412         1.7833 
     9159.3877         7.2701         4.8442
    3576.82800 
       41.6753        65.1877        42.0006        88.3748      1291.1200 
        2.5304        61.3461       109.9512     12572.4512      7014.6660 
       23.5753        23.5753        59.6554        19.4456         0.0005 
      0.273998      -999.2500     11272.8379      5307.9336     11476.7168 
     7195.2471       0.246598      2576.7974         2.5067         1.5716 
    12744.0889      3173.7231      5755.8633     16300.9443         1.7923 
     9094.9404         7.1862         4.7706
    3576.98040 
       41.7526        63.6011        39.8442        87.3579      1294.6312 
        2.5250        61.1248       110.6606     12590.7754      6954.6753 
       24.4727        24.4727        61.7926        19.1557         0.0005 
      0.280467      -999.2500     11273.4355      5307.9795     11474.1963 
     7258.2017       0.252421      2399.2737         2.5060         1.5852 
    12514.9502      3136.7161      5781.9556     16359.9678         1.8104 
     9036.6357         7.1151         4.7085
