~Version Information Block
VERS .                  2.0:  CWLS LOG ASCII STANDARD - VERSION 2.0
WRAP .                  YES:  Multiple lines per depth step
~Well Information Block
#MNEM.UNIT        Data Type   Information
#---------- ----------------  -----------
STRT .M          2738.62800:  START DEPTH
STOP .M          3798.57000:  STOP DEPTH
STEP .M             0.15240:  STEP
NULL .              -999.25:  NULL VALUE
COMP .                     :  COMPANY
WELL .      RAAG-106-07-211:  WELL
FLD  .                     :  FIELD
LOC  .                     :  LOCATION
CTRY .                     :  COUNTRY
STAT .                     :  STATE
CNTY .                     :  COUNTY
SRVC .                     :  SERVICE COMPANY
DATE .                     :  DATE
API  .                     :  API NUMBER
UWI  .                     :  UNIQUE WELL ID
~Curve Information Block
#MNEM.UNIT         API CODE   Curve Description
#---------- ----------------  -----------------
DEPTH.M                    :  
ANGLE_FAIL.DEG                  :  Fail Angle
BRIT_IND.                     :  Brittleness Index
BRIT_PR.                     :  Brittleness Index from Poisson's Ratio
BRIT_YM.                     :  Brittleness Index from Young's Modulus
CS   .M/MIN                 :  Compressive Strength
DTCO .US/F                 :  Compressional slowness
DTSM .US/F                 :  Fast Shear Slowness
IP   .RAYL/M2                 :  P Impedence
IS   .RAYL/M2                 :  S Impedance
KBULK.                     :  Bulk Mudulus
LAMBDA.                     :  Lambda
LAMRHO.                     :  
MU   .CP                   :  Mu
MURHO.(GF/C3S)2                 :  Mu*Rho
PR   .                     :  Poisson's ratio
PRESS_FG.PSI                  :  Fracture Gradient Pressure
PRESS_OB.PSI                  :  Over-burden Pressure
PRESS_PP.PSI                  :  Pore Pressure
PRESS_SHMAX.PSI                  :  Horizontal Stress (Max)
PRESS_SHMIN.PSI                  :  Horizontal Stress (Min)
PR_STAT.                     :  Poisson's ratio (Static)
PZS  .PSI                  :  Processed Zone Stress
SHMAX_GRAD.                     :  Horizontal Stress Gradient (Max)
SHMIN_GRAD.                     :  Horizontal Stress Gradient (Min)
STRESS_CUM.PSI                  :  Cumulative stress (SHPZ)
UCS_BF.PSI                  :  Uniaxial Compressive Strength (BF)
UCS_LAL.PSI                  :  Uniaxial Compressive Strength (lal)
VP   .FT/S                 :  Compressional velocity
VPVS .                     :  Vp / Vs ratio
VS   .FT/S                 :  Shear velocity
YM   .                     :  Youngs' Modulus
YM_STAT.                     :  Youngs' Modulus (Static)
~Parameter Information Block
#MNEM.UNIT            Value   Description
#---------- ----------------  -----------
PROJECT.          RDG_13Jul21:  
SET  .              GEOMECH:  
~Other Information Block
~Ascii Log Data
# ...
    3545.73840 
       41.7782        64.9484        42.5558        87.3411      1295.7933 
       61.0518       109.1477     12339.8672      6902.3086        23.0565 
       23.0565        56.9886        19.2750    0.000512813       0.272333 
     -999.2500     11476.8535      5323.5225     11687.9102      7255.7065 
      0.245099      2228.6951         2.5121         1.5595     12168.8027 
     3136.1074      5790.6055     16379.5342         1.7878      9161.8975 
        7.1139         4.7075
    3545.89080 
       41.8954        64.7829        42.0902        87.4756      1301.1393 
       60.7174       108.7798     12327.1084      6880.5967        23.3231 
       23.3231        57.2724        19.2794    0.000509592       0.273729 
     -999.2500     11477.4434      5323.5610     11687.8271      7269.7759 
      0.246356      2219.6550         2.5120         1.5625     12178.8613 
     3140.9922      5830.4849     16469.7441         1.7916      9192.8828 
        7.1233         4.7157
    3546.04320 
       42.0014        64.9510        41.7955        88.1065      1305.9915 
       60.4160       108.3859     12366.7100      6893.3975        23.6194 
       23.6194        57.8976        19.3854    0.000511490       0.274614 
     -999.2500     11478.0332      5323.5991     11687.9932      7278.8335 
      0.247152      2327.3093         2.5119         1.5643     12412.2861 
     3163.9414      5866.8071     16551.9063         1.7940      9226.2920 
        7.1675         4.7542
    3546.19560 
       42.0954        65.4210        41.8212        89.0207      1310.3040 
       60.1498       107.8956     12419.9697      6923.9033        23.8169 
       23.8169        58.3748        19.5597    0.000516027       0.274536 
     -999.2500     11478.6230      5323.6377     11688.6357      7278.3584 
      0.247083      2406.1162         2.5119         1.5642     12568.9492 
     3197.3188      5899.1904     16625.1602         1.7938      9268.2188 
        7.2314         4.8102
    3546.34800 
       42.1518        66.0749        42.3791        89.7707      1312.9000 
       59.9903       107.3359     12429.9248      6947.1157        23.6990 
       23.6990        57.9782        19.7276    0.000519492       0.272863 
     -999.2500     11479.2139      5323.6758     11690.0732      7262.0200 
      0.245576      2392.5520         2.5121         1.5606     12509.1445 
     3224.8081      5918.7314     16669.3613         1.7892      9316.5469 
        7.2839         4.8564
    3546.50040 
       42.1398        66.9986        43.5747        90.4224      1312.3491 
       60.0241       106.8208     12416.0195      6976.7349        23.2335 
       23.2335        56.8079        19.9073    0.000523931       0.269276 
     -999.2500     11479.8037      5323.7144     11692.4492      7226.8936 
      0.242348      2327.5034         2.5125         1.5530     12308.7939 
     3248.7708      5914.5815     16659.9746         1.7796      9361.4727 
        7.3296         4.8966
    3546.65280 
       42.0453        68.0389        45.2673        90.8105      1308.0020 
       60.2917       106.5036     12382.7002      7009.8481        22.4772 
       22.4772        55.0553        20.0613    0.000528917       0.264198 
     -999.2500     11480.3936      5323.7524     11695.5371      7177.5381 
      0.237778      2257.0071         2.5131         1.5423     12069.0908 
     3263.0791      5881.8931     16586.0313         1.7665      9389.3535 
        7.3567         4.9206
    3546.80520 
       41.8833        69.0310        47.0892        90.9728      1300.5859 
       60.7519       106.4873     12357.5352      7050.0776        21.6403 
       21.6403        53.3015        20.1795    0.000535005       0.258732 
     -999.2500     11480.9834      5323.7905     11698.7813      7125.0249 
      0.232859      2208.2964         2.5137         1.5309     11866.6426 
     3269.0681      5826.3501     16460.3906         1.7528      9390.7910 
        7.3681         4.9306
    3546.95760 
       41.6943        69.4548        48.6198        90.2898      1291.9789 
       61.2919       106.7550     12275.2168      7047.6455        20.7998 
       20.7998        51.3423        20.1220    0.000534636       0.254141 
     -999.2500     11481.5732      5323.8286     11701.5820      7081.3896 
      0.228727      2280.8264         2.5141         1.5215     11924.4316 
     3243.8892      5762.2402     16315.3701         1.7417      9367.2432 
        7.3203         4.8884
    3547.11000 
       41.5128        69.7170        49.7279        89.7061      1283.7621 
       61.8134       107.1808     12232.8975      7054.9668        20.1943 
       20.1943        50.0987        20.0629    0.000535747       0.250816 
     -999.2500     11482.1641      5323.8672     11703.7656      7050.1328 
      0.225735      2427.2952         2.5145         1.5147     12154.8555 
     3222.4377      5701.3896     16177.7227         1.7339      9330.0293 
        7.2794         4.8524
    3547.26240 
       41.3482        69.8666        50.5582        89.1749      1276.3517 
       62.2888       107.6478     12207.3057      7063.5767        19.7340 
       19.7340        49.2301        20.0002    0.000537056       0.248325 
     -999.2500     11482.7539      5323.9053     11705.5459      7026.9077 
      0.223493      2506.8572         2.5148         1.5096     12267.5303 
     3202.9631      5646.8062     16054.2500         1.7282      9289.5537 
        7.2422         4.8197
    3547.41480 
       41.2007        69.6992        50.9433        88.4551      1269.7427 
       62.7169       108.2228     12179.8701      7058.4355        19.4344 
       19.4344        48.7062        19.8795    0.000536274       0.247170 
     -999.2500     11483.3438      5323.9434     11706.6982      7016.2490 
      0.222453      2451.0332         2.5149         1.5073     12134.5645 
     3176.6538      5598.3613     15944.6660         1.7256      9240.1973 
        7.1919         4.7755
    3547.56720 
       41.0792        68.4429        50.3901        86.4958      1264.3167 
       63.0713       109.0729     12051.7959      6968.9395        19.2930 
       19.2930        48.1135        19.4744    0.000522761       0.248830 
     -999.2500     11483.9336      5323.9814     11706.5400      7031.8145 
      0.223947      2354.9685         2.5148         1.5105     11973.5654 
     3105.4839      5558.7539     15855.0723         1.7294      9168.1807 
        7.0547         4.6561
    3547.71960 
       40.9919        66.4705        49.0377        83.9034      1260.4330 
       63.3266       110.1112     11879.5596      6832.1123        19.3539 
       19.3539        47.7684        18.9120    0.000502435       0.252887 
     -999.2500     11484.5244      5324.0195     11705.2500      7070.0142 
      0.227598      2325.1467         2.5144         1.5187     11990.3213 
     3012.3281      5530.4971     15791.1533         1.7388      9081.7285 
        6.8732         4.4998
    3547.87200 
       40.9299        64.8639        47.8357        81.8922      1257.6815 
       63.5083       110.9730     11751.4561      6725.1943        19.4566 
       19.4566        47.6402        18.4715    0.000486833       0.256493 
     -999.2500     11485.1143      5324.0576     11704.1543      7104.3213 
      0.230844      2314.2034         2.5140         1.5260     12037.0498 
     2940.8516      5510.5244     15745.9727         1.7474      9011.2012 
        6.7325         4.3799
    3548.02440 
       40.8774        64.2928        47.5021        81.0835      1255.3547 
       63.6625       111.3967     11704.0332      6688.7798        19.4327 
       19.4327        47.5048        18.3016    0.000481575       0.257494 
     -999.2500     11485.7051      5324.0957     11704.2891      7114.0234 
      0.231744      2287.3457         2.5139         1.5280     12002.7383 
     2912.3054      5493.6641     15707.8350         1.7498      8976.9268 
        6.6758         4.3320
