~Version Information Block
VERS .                  2.0:  CWLS LOG ASCII STANDARD - VERSION 2.0
WRAP .                  YES:  Multiple lines per depth step
~Well Information Block
#MNEM.UNIT        Data Type   Information
#---------- ----------------  -----------
STRT .M          2656.78920:  START DEPTH
STOP .M          3640.98840:  STOP DEPTH
STEP .M             0.15240:  STEP
NULL .              -999.25:  NULL VALUE
COMP .                     :  COMPANY
WELL .       RAAG-98-07-214:  WELL
FLD  .                     :  FIELD
LOC  .                     :  LOCATION
CTRY .                     :  COUNTRY
STAT .                     :  STATE
CNTY .                     :  COUNTY
SRVC .                     :  SERVICE COMPANY
DATE .                     :  DATE
API  .                     :  API NUMBER
UWI  .                     :  UNIQUE WELL ID
~Curve Information Block
#MNEM.UNIT         API CODE   Curve Description
#---------- ----------------  -----------------
DEPTH.M                    :  
ANGLE_FAIL.DEG                  :  Fail Angle
BRIT_IND.                     :  Brittleness Index
BRIT_PR.                     :  Brittleness Index from Poisson's Ratio
BRIT_YM.                     :  Brittleness Index from Young's Modulus
CS   .M/MIN                 :  Compressive Strength
IP   .RAYL/M2                 :  P Impedence
IS   .RAYL/M2                 :  S Impedance
KBULK.                     :  Bulk Mudulus
LAMBDA.                     :  Lambda
LAMRHO.                     :  
MU   .CP                   :  Mu
MURHO.(GF/C3S)2                 :  Mu*Rho
PR   .                     :  Poisson's ratio
PRESS_FG.PSI                  :  Fracture Gradient Pressure
PRESS_OB.PSI                  :  Over-burden Pressure
PRESS_PP.PSI                  :  Pore Pressure
PRESS_SHMAX.PSI                  :  Horizontal Stress (Max)
PRESS_SHMIN.PSI                  :  Horizontal Stress (Min)
PR_STAT.                     :  Poisson's ratio (Static)
PZS  .PSI                  :  Processed Zone Stress
SHMAX_GRAD.                     :  Horizontal Stress Gradient (Max)
SHMIN_GRAD.                     :  Horizontal Stress Gradient (Min)
STRESS_CUM.PSI                  :  Cumulative stress (SHPZ)
UCS_BF.PSI                  :  Uniaxial Compressive Strength (BF)
UCS_LAL.PSI                  :  Uniaxial Compressive Strength (lal)
VP   .FT/S                 :  Compressional velocity
VPVS .                     :  Vp / Vs ratio
VS   .FT/S                 :  Shear velocity
YM   .                     :  Youngs' Modulus
YM_STAT.                     :  Youngs' Modulus (Static)
~Parameter Information Block
#MNEM.UNIT            Value   Description
#---------- ----------------  -----------
PROJECT.          RDG_13Jul21:  
SET  .              GEOMECH:  
~Other Information Block
~Ascii Log Data
# ...
    2915.86920 
       44.8383        70.8095        23.8310       117.7881      1442.2128 
    16245.9805      8210.0986        45.9556        45.9556       129.1205 
       23.9905    0.000725549       0.328507      -999.2500      9666.5459 
     5110.9277      9801.2031      6973.3950       0.295656      2590.2859 
        2.4587         1.7493     12327.3613      4320.6567      6935.9170 
    18970.2969         1.9788      9586.8633         9.2452         6.6952
    2916.02160 
       44.9070        73.1416        24.9903       121.2929      1445.6780 
    16417.7031      8358.9697        45.8679        45.8679       129.7962 
       24.6918    0.000752100       0.325029      -999.2500      9667.1172 
     5111.0254      9803.2363      6944.7344       0.292526      2766.6626 
        2.4591         1.7420     12622.7939      4467.1943      6964.3628 
    19034.6426         1.9641      9691.3691         9.4905         6.9411
    2916.17400 
       45.0626        75.1579        26.0533       124.2626      1453.5477 
    16467.9063      8440.6777        45.6919        45.6919       128.7019 
       25.2935    0.000766875       0.321840      -999.2500      9667.6895 
     5111.1226      9805.1396      6918.6777       0.289656      2778.9475 
        2.4594         1.7354     12595.2500      4593.0034      7029.1997 
    19181.3066         1.9510      9831.4395         9.6984         7.1522
    2916.32640 
       45.2425        75.6807        25.5583       125.8032      1462.7095 
    16586.9668      8475.4814        46.7508        46.7508       131.4599 
       25.5461    0.000773212       0.323325      -999.2500      9668.2617 
     5111.2202      9805.0996      6931.5068       0.290993      2675.6978 
        2.4593         1.7385     12414.4092      4658.8633      7105.0850 
    19352.9648         1.9571      9888.8291         9.8062         7.2627
    2916.47880 
       45.5491        75.4549        23.6956       127.2142      1478.4456 
    16827.8672      8496.6533        49.3983        49.3983       138.7908 
       25.6949    0.000777080       0.328913      -999.2500      9668.8340 
     5111.3174      9803.3271      6978.9688       0.296022      2584.4849 
        2.4587         1.7503     12326.9063      4719.5425      7236.4453 
    19650.1094         1.9805      9921.6484         9.9050         7.3645
    2916.63120 
       45.1879        77.9775        27.8781       128.0769      1459.9226 
    16515.4160      8559.6221        44.9616        44.9616       126.2247 
       26.0980    0.000788641       0.316366      -999.2500      9669.4063 
     5111.4146      9809.1436      6874.6709       0.284729      2559.9827 
        2.4600         1.7241     12069.3076      4756.8066      7081.9556 
    19300.6445         1.9295     10003.1523         9.9654         7.4271
    2916.78360 
       44.0744        80.3206        37.2950       123.3463      1404.2561 
    15552.3857      8484.8115        35.0605        35.0605        97.8926 
       25.7841    0.000774916       0.288115      -999.2500      9669.9785 
     5111.5122      9820.9541      6650.4692       0.259304      2503.0813 
        2.4629         1.6678     11507.1006      4554.0239      6628.3979 
    18274.6699         1.8330      9969.9902         9.6342         7.0868
    2916.93600 
       43.0284        80.9704        45.5636       116.3772      1353.8431 
    14667.2461      8313.7451        27.7660        27.7660        76.8914 
       24.9591    0.000743984       0.263309      -999.2500      9670.5498 
     5111.6094      9830.7939      6465.6836       0.236978      2348.6523 
        2.4652         1.6213     10828.6719      4262.2598      6231.4736 
    17376.8027         1.7642      9849.5869         9.1464         6.5972
    2917.08840 
       42.1749        81.1397        52.5949       109.6844      1313.9648 
    13918.4014      8117.9248        22.6283        22.6283        61.9205 
       24.0828    0.000709349       0.242215      -999.2500      9671.1230 
     5111.7065      9838.8379      6316.8159       0.217994      2099.7844 
        2.4671         1.5839     10033.2002      3989.8901      5926.7563 
    16687.5156         1.7145      9733.0137         8.6779         6.1402
    2917.24080 
       41.1836        80.6243        60.4996       100.7490      1268.9747 
    13024.3975      7816.8501        17.6835        17.6835        47.4286 
       22.7819    0.000657709       0.218501      -999.2500      9671.6953 
     5111.8037      9847.3945      6157.7144       0.196651      1884.0499 
        2.4691         1.5440      9283.5283      3638.2007      5592.7461 
    15931.9639         1.6662      9561.8838         8.0524         5.5500
    2917.39320 
       40.8381        77.7649        61.2952        94.2346      1253.6177 
    12441.9580      7487.4521        16.3932        16.3932        42.6784 
       21.5340    0.000603446       0.216114      -999.2500      9672.2676 
     5111.9014      9848.7852      6141.9141       0.194503      1768.0012 
        2.4693         1.5399      9019.8311      3390.4106      5481.0952 
    15679.4033         1.6617      9435.7158         7.5964         5.1342
    2917.54560 
       41.2959        70.7757        50.8072        90.7441      1274.0048 
    12405.5869      7185.3843        19.9259        19.9259        50.6391 
       20.3157    0.000555738       0.247578      -999.2500      9672.8408 
     5111.9985      9838.8320      6353.0088       0.222820      1747.3018 
        2.4667         1.5928      9400.6211      3260.6299      5629.5767 
    16015.2773         1.7265      9276.1367         7.3521         4.9165
    2917.69800 
       41.6717        67.0730        44.6502        89.4958      1290.9529 
    12492.4053      7053.0146        22.4954        22.4954        56.5701 
       19.7814    0.000535451       0.266049      -999.2500      9673.4121 
     5112.0952      9832.8613      6484.4360       0.239444      1783.9872 
        2.4650         1.6256      9736.8467      3214.7207      5754.6226 
    16298.1377         1.7712      9201.6719         7.2647         4.8394
    2917.85040 
       41.6545        61.8038        37.7432        85.8644      1290.1748 
    12656.5225      6920.2769        25.2595        25.2595        64.4071 
       18.7818    0.000515486       0.286770      -999.2500      9673.9854 
     5112.1924      9825.7500      6638.6909       0.258093      1770.9431 
        2.4631         1.6642     10019.2676      3082.6882      5748.8501 
    16285.0801         1.8289      8904.2832         7.0105         4.6179
    2918.00280 
       41.3663        63.0093        39.7270        86.2915      1277.1646 
    12695.9150      7008.8433        24.2785        24.2785        62.9385 
       18.9496    0.000528765       0.280819      -999.2500      9674.5566 
     5112.2896      9828.5908      6593.8760       0.252737      1811.5585 
        2.4637         1.6529     10010.8691      3098.1016      5652.7793 
    16067.7627         1.8114      8870.2891         7.0404         4.6437
    2918.15520 
       41.1149        64.7466        42.6944        86.7987      1265.9080 
    12647.3398      7078.7290        22.8642        22.8642        59.7384 
       19.1784    0.000539362       0.271917      -999.2500      9675.1289 
     5112.3867      9832.4912      6527.8848       0.244725      1898.3816 
        2.4646         1.6362     10052.5322      3116.4443      5570.3540 
    15881.3125         1.7867      8888.7861         7.0759         4.6745
    2918.30760 
       40.9847        63.5676        42.5029        84.6324      1260.1138 
    12467.0488      6971.7778        22.4679        22.4679        58.2159 
       18.7589    0.000523187       0.272491      -999.2500      9675.7012 
     5112.4839      9832.8770      6532.1963       0.245242      2029.6635 
        2.4645         1.6372     10323.7197      3038.4072      5528.1782 
    15785.9072         1.7882      8827.7383         6.9243         4.5436
