~Version Information Block
VERS .                  2.0:  CWLS LOG ASCII STANDARD - VERSION 2.0
WRAP .                  YES:  Multiple lines per depth step
~Well Information Block
#MNEM.UNIT        Data Type   Information
#---------- ----------------  -----------
STRT .M          2776.00000:  START DEPTH
STOP .M          3750.44560:  STOP DEPTH
STEP .M             0.15240:  STEP
NULL .              -999.25:  NULL VALUE
COMP .                     :  COMPANY
WELL .      RAAG-102-07-105:  WELL
FLD  .                     :  FIELD
LOC  .                     :  LOCATION
CTRY .                     :  COUNTRY
STAT .                     :  STATE
CNTY .                     :  COUNTY
SRVC .                     :  SERVICE COMPANY
DATE .                     :  DATE
API  .                     :  API NUMBER
UWI  .                     :  UNIQUE WELL ID
~Curve Information Block
#MNEM.UNIT         API CODE   Curve Description
#---------- ----------------  -----------------
DEPTH.M                    :  
ANGLE_FAIL.DEG                  :  Fail Angle
BRIT_IND.                     :  Brittleness Index
BRIT_PR.                     :  Brittleness Index from Poisson's Ratio
BRIT_YM.                     :  Brittleness Index from Young's Modulus
CS   .M/MIN                 :  Compressive Strength
DTCO .US/F                 :  Compressional slowness
DTSM .US/F                 :  Fast Shear Slowness
IP   .RAYL/M2                 :  P Impedence
IS   .RAYL/M2                 :  S Impedance
KBULK.                     :  Bulk Mudulus
LAMBDA.                     :  Lambda
LAMRHO.                     :  
MU   .CP                   :  Mu
MURHO.(GF/C3S)2                 :  Mu*Rho
PR   .                     :  Poisson's ratio
PRESS_FG.PSI                  :  Fracture Gradient Pressure
PRESS_OB.PSI                  :  Over-burden Pressure
PRESS_PP.PSI                  :  Pore Pressure
PRESS_SHMAX.PSI                  :  Horizontal Stress (Max)
PRESS_SHMIN.PSI                  :  Horizontal Stress (Min)
PR_STAT.                     :  Poisson's ratio (Static)
PZS  .PSI                  :  Processed Zone Stress
SHMAX_GRAD.                     :  Horizontal Stress Gradient (Max)
SHMIN_GRAD.                     :  Horizontal Stress Gradient (Min)
STRESS_CUM.PSI                  :  Cumulative stress (SHPZ)
UCS_BF.PSI                  :  Uniaxial Compressive Strength (BF)
UCS_LAL.PSI                  :  Uniaxial Compressive Strength (lal)
VP   .FT/S                 :  Compressional velocity
VPVS .                     :  Vp / Vs ratio
VS   .FT/S                 :  Shear velocity
YM   .                     :  Youngs' Modulus
YM_STAT.                     :  Youngs' Modulus (Static)
~Parameter Information Block
#MNEM.UNIT            Value   Description
#---------- ----------------  -----------
PROJECT.          RDG_13Jul21:  
SET  .              GEOMECH:  
~Other Information Block
~Ascii Log Data
# ...
    2997.89440 
       46.5211        97.4418        31.9756       162.9080      1529.5073 
       48.4627        91.3361     18518.0742      9825.6426        50.8883 
       50.8883       149.8326        32.7894    0.001039183       0.304073 
     -999.2500      9535.1797      5088.0381      9676.2305      6714.1455 
      0.273666      3079.2876         2.4576         1.7053     12786.8662 
     6367.7866      7671.5874     20634.4258         1.8847     10948.5732 
       12.4036        10.1303
    2998.04680 
       46.5315        97.5828        32.0263       163.1393      1530.0620 
       48.4372        91.2626     18524.3223      9831.6973        50.8957 
       50.8957       149.8260        32.8360    0.001040464       0.303921 
     -999.2500      9535.7578      5088.1411      9676.8828      6713.2705 
      0.273529      3079.2878         2.4577         1.7050     12785.1162 
     6379.1777      7676.3896     20645.2891         1.8841     10957.3906 
       12.4197        10.1494
    2998.19920 
       46.5901        96.7624        30.7939       162.7310      1533.2021 
       48.2932        91.6172     18628.3145      9819.3457        52.2359 
       52.2359       154.1750        32.6678    0.001037851       0.307618 
     -999.2500      9536.3369      5088.2446      9676.0352      6742.3887 
      0.276857      3079.2888         2.4573         1.7123     12843.3545 
     6359.0776      7703.6030     20706.8477         1.8971     10914.9814 
       12.3912        10.1157
    2998.35160 
       46.7662        96.6116        29.2395       163.9838      1542.6711 
       47.8625        91.6109     18859.1094      9853.0205        54.5351 
       54.5351       161.5020        32.7821    0.001044982       0.312281 
     -999.2500      9536.9160      5088.3477      9674.7803      6779.6289 
      0.281053      3079.2896         2.4569         1.7217     12917.8369 
     6420.8486      7785.9775     20893.1855         1.9140     10915.7314 
       12.4789        10.2193
    2998.50400 
       46.8746        98.8384        30.0176       167.6591      1548.5306 
       47.5986        90.6981     19004.6699      9973.7002        54.6621 
       54.6621       162.2281        33.5176    0.001070737       0.309947 
     -999.2500      9537.4961      5088.4512      9676.2783      6761.8589 
      0.278952      3079.2891         2.4571         1.7171     12882.2959 
     6603.6226      7837.1865     21009.0215         1.9055     11025.5889 
       12.7361        10.5260
    2998.65640 
       47.0234       103.3093        32.3774       174.2412      1556.6158 
       47.2377        88.8316     19137.7773     10176.8359        53.6482 
       53.6482       159.1185        34.9189    0.001114797       0.302868 
     -999.2500      9538.0752      5088.5547      9679.6045      6707.4976 
      0.272581      3079.2881         2.4578         1.7032     12773.5713 
     6936.7271      7908.1440     21169.5313         1.8805     11257.2559 
       13.1969        11.0850
    2998.80880 
       46.9806       108.3327        36.7787       179.8867      1554.2863 
       47.3413        86.9992     19057.8320     10370.4697        50.0356 
       50.0356       148.1077        36.3327    0.001157622       0.289664 
     -999.2500      9538.6543      5088.6572      9685.2061      6607.6143 
      0.260698      3066.2280         2.4591         1.6777     12547.6846 
     7228.3359      7887.6641     21123.2051         1.8377     11494.3584 
       13.5921        11.5743
    2998.96120 
       46.8320       100.5137        31.9886       169.0389      1546.2250 
       47.7022        89.8964     18856.0234     10005.6719        52.6334 
       52.6334       155.3227        33.9249    0.001077612       0.304034 
     -999.2500      9539.2334      5088.7607      9680.3691      6716.5161 
      0.273631      3028.5437         2.4577         1.7053     12690.1201 
     6672.8350      7817.0151     20963.3926         1.8845     11123.9160 
       12.8327        10.6422
    2999.11360 
       46.8320        92.5222        26.2068       158.8375      1546.2250 
       47.7022        92.9793     18798.9688      9644.6426        56.8855 
       56.8855       167.3629        31.6166    0.001001250       0.321380 
     -999.2500      9539.8135      5088.8638      9674.1250      6853.5913 
      0.289242      3017.9304         2.4560         1.7400     12943.0439 
     6168.8076      7817.0151     20963.3926         1.9492     10755.0820 
       12.1186         9.7964
    2999.26600 
       46.7629        89.0759        24.3542       153.7976      1542.4897 
       47.8707        94.4052     18671.0313      9467.6504        57.7461 
       57.7461       169.3346        30.5676    0.000964838       0.326937 
     -999.2500      9540.3926      5088.9668      9672.4717      6898.8125 
      0.294244      3053.1450         2.4555         1.7513     13103.9141 
     5926.3706      7784.3950     20889.6035         1.9721     10592.6367 
       11.7658         9.3896
    2999.41840 
       46.6219        88.8927        25.4618       152.3237      1534.9041 
       48.2154        94.4173     18425.8438      9409.3926        55.7302 
       55.7302       162.4384        30.3756    0.000953001       0.323615 
     -999.2500      9540.9717      5089.0698      9674.4365      6871.6655 
      0.291253      3075.5715         2.4558         1.7444     13094.4746 
     5856.2905      7718.3740     20740.2598         1.9582     10591.2793 
       11.6627         9.2720
    2999.57080 
       46.9656        91.9911        26.3953       157.5870      1553.4695 
       47.3777        92.2394     18501.0488      9502.8486        56.2215 
       56.2215       161.6805        31.4016    0.000972026       0.320814 
     -999.2500      9541.5518      5089.1729      9676.1416      6849.7427 
      0.288733      3076.1428         2.4561         1.7387     13051.7705 
     6108.2490      7880.4897     21106.9766         1.9469     10841.3535 
       12.0311         9.6948
    2999.72320 
       46.9285        93.8739        29.3065       158.4413      1551.4512 
       47.4678        90.8201     18110.7695      9465.7285        52.7572 
       52.7572       148.8000        31.7678    0.000964447       0.312080 
     -999.2500      9542.1309      5089.2759      9680.2373      6779.9917 
      0.280872      3048.4077         2.4570         1.7209     12856.7979 
     6149.5947      7862.7788     21066.9121         1.9133     11010.7783 
       12.0909         9.7642
    2999.87560 
       46.8033        94.9268        31.6705       158.1830      1544.6733 
       47.7721        90.1862     17814.8379      9436.6123        49.8785 
       49.8785       139.2692        31.8927    0.000958522       0.304988 
     -999.2500      9542.7100      5089.3789      9683.6250      6724.4038 
      0.274490      2955.3987         2.4578         1.7067     12559.6045 
     6137.0815      7803.4556     20932.7207         1.8878     11088.1699 
       12.0728         9.7432
    3000.02800 
       46.6107        97.3420        34.8514       159.8326      1534.3042 
       48.2428        89.5335     17682.1895      9527.5879        46.8470 
       46.8470       131.1099        32.4349    0.000977093       0.295446 
     -999.2500      9543.2900      5089.4824      9687.8916      6651.2520 
      0.265901      2857.0796         2.4587         1.6880     12216.6631 
     6217.1914      7713.1665     20728.4805         1.8559     11169.0039 
       12.1883         9.8776
    3000.18040 
       46.1307        94.4303        35.1214       153.7391      1508.7804 
       49.4287        91.6059     17444.7871      9412.8555        44.9338 
       44.9338       127.1169        31.3194    0.000953702       0.294636 
     -999.2500      9543.8691      5089.5850      9688.8281      6644.6836 
      0.265172      2878.2654         2.4588         1.6863     12245.8984 
     5923.5815      7493.3140     20231.1621         1.8533     10916.3271 
       11.7617         9.3849
