~Version Information Block
VERS .                  2.0:  CWLS LOG ASCII STANDARD - VERSION 2.0
WRAP .                  YES:  Multiple lines per depth step
~Well Information Block
#MNEM.UNIT        Data Type   Information
#---------- ----------------  -----------
STRT .M          2738.62800:  START DEPTH
STOP .M          3798.57000:  STOP DEPTH
STEP .M             0.15240:  STEP
NULL .              -999.25:  NULL VALUE
COMP .                     :  COMPANY
WELL .      RAAG-106-07-211:  WELL
FLD  .                     :  FIELD
LOC  .                     :  LOCATION
CTRY .                     :  COUNTRY
STAT .                     :  STATE
CNTY .                     :  COUNTY
SRVC .                     :  SERVICE COMPANY
DATE .                     :  DATE
API  .                     :  API NUMBER
UWI  .                     :  UNIQUE WELL ID
~Curve Information Block
#MNEM.UNIT         API CODE   Curve Description
#---------- ----------------  -----------------
DEPTH.M                    :  
ANGLE_FAIL.DEG                  :  Fail Angle
BRIT_IND.                     :  Brittleness Index
BRIT_PR.                     :  Brittleness Index from Poisson's Ratio
BRIT_YM.                     :  Brittleness Index from Young's Modulus
CS   .M/MIN                 :  Compressive Strength
DTCO .US/F                 :  Compressional slowness
DTSM .US/F                 :  Fast Shear Slowness
IP   .RAYL/M2                 :  P Impedence
IS   .RAYL/M2                 :  S Impedance
KBULK.                     :  Bulk Mudulus
LAMBDA.                     :  Lambda
LAMRHO.                     :  
MU   .CP                   :  Mu
MURHO.(GF/C3S)2                 :  Mu*Rho
PR   .                     :  Poisson's ratio
PRESS_FG.PSI                  :  Fracture Gradient Pressure
PRESS_OB.PSI                  :  Over-burden Pressure
PRESS_PP.PSI                  :  Pore Pressure
PRESS_SHMAX.PSI                  :  Horizontal Stress (Max)
PRESS_SHMIN.PSI                  :  Horizontal Stress (Min)
PR_STAT.                     :  Poisson's ratio (Static)
PZS  .PSI                  :  Processed Zone Stress
SHMAX_GRAD.                     :  Horizontal Stress Gradient (Max)
SHMIN_GRAD.                     :  Horizontal Stress Gradient (Min)
STRESS_CUM.PSI                  :  Cumulative stress (SHPZ)
UCS_BF.PSI                  :  Uniaxial Compressive Strength (BF)
UCS_LAL.PSI                  :  Uniaxial Compressive Strength (lal)
VP   .FT/S                 :  Compressional velocity
VPVS .                     :  Vp / Vs ratio
VS   .FT/S                 :  Shear velocity
YM   .                     :  Youngs' Modulus
YM_STAT.                     :  Youngs' Modulus (Static)
~Parameter Information Block
#MNEM.UNIT            Value   Description
#---------- ----------------  -----------
PROJECT.          RDG_13Jul21:  
SET  .              GEOMECH:  
~Other Information Block
~Ascii Log Data
# ...
    3055.62000 
       42.1771        71.6413        41.6273       101.6552      1314.0668 
       59.9188       107.5770     13903.8281      7744.2266        26.8434 
       26.8434        73.3703        21.9419    0.000645544       0.275118 
     -999.2500      9611.7529      5102.5444      9766.0664      6525.4736 
      0.247606      2435.3242         2.4625         1.6454     11121.5947 
     3673.2454      5927.5244     16689.2520         1.7954      9295.6670 
        8.1159         5.6088
    3055.77240 
       42.3852        73.0372        41.9068       104.1676      1323.6885 
       59.3335       106.3896     14039.5449      7829.8569        27.2579 
       27.2579        74.4955        22.4321    0.000659899       0.274280 
     -999.2500      9612.3242      5102.6431      9766.9502      6519.7954 
      0.246852      2532.9204         2.4626         1.6438     11305.4316 
     3771.1387      6000.3047     16853.8867         1.7931      9399.4150 
        8.2917         5.7731
    3055.92480 
       42.7501        74.6127        41.4859       107.7396      1340.7194 
       58.3161       104.7678     14255.8926      7935.1489        28.3398 
       28.3398        77.2973        23.0857    0.000677767       0.275542 
     -999.2500      9612.8945      5102.7427      9767.0576      6529.6299 
      0.247988      2673.7017         2.4624         1.6462     11606.6631 
     3912.1814      6130.2910     17147.9238         1.7966      9544.9170 
        8.5418         6.0098
    3056.07720 
       43.1976        76.1217        40.3603       111.8831      1361.8796 
       57.0843       103.0939     14542.2109      8052.1924        30.0347 
       30.0347        81.8003        23.8065    0.000697908       0.278919 
     -999.2500      9613.4658      5102.8418      9766.3799      6555.1758 
      0.251027      2838.3149         2.4621         1.6526     11986.9805 
     4078.5232      6293.8716     17517.9512         1.8060      9699.8945 
        8.8318         6.2889
    3056.22960 
       43.6311        76.8762        38.5573       115.1951      1382.6757 
       55.9075       101.8428     14807.8574      8128.9043        32.0733 
       32.0733        87.1145        24.3286    0.000711269       0.284328 
     -999.2500      9614.0361      5102.9409      9764.9336      6596.0879 
      0.255895      2923.9531         2.4616         1.6628     12240.0820 
     4213.5986      6456.8804     17886.6875         1.8216      9819.0547 
        9.0637         6.5155
    3056.38200 
       43.9513        77.1940        36.6985       117.6896      1398.2310 
       55.0485       101.2035     15071.3730      8197.9033        34.0691 
       34.0691        92.7351        24.6901    0.000723395       0.289905 
     -999.2500      9614.6064      5103.0396      9763.3994      6638.7432 
      0.260914      2943.9937         2.4611         1.6735     12365.4736 
     4316.5698      6580.2690     18165.7988         1.8384      9881.0820 
        9.2383         6.6883
    3056.53440 
       44.1196        77.5174        35.5101       119.5247      1406.4739 
       54.6005       100.9881     15298.5313      8271.3457        35.4732 
       35.4732        97.2148        24.9644    0.000736415       0.293470 
     -999.2500      9615.1777      5103.1387      9762.6143      6666.4434 
      0.264123      2956.4456         2.4608         1.6804     12445.7783 
     4393.0059      6646.1611     18314.8516         1.8496      9902.1572 
        9.3667         6.8166
    3056.68680 
       44.1720        77.8098        35.1346       120.4850      1409.0537 
       54.4613       100.9259     15415.2588      8318.3301        36.0302 
       36.0302        99.2410        25.1217    0.000744805       0.294596 
     -999.2500      9615.7480      5103.2378      9762.7617      6675.4658 
      0.265137      2993.2727         2.4607         1.6826     12537.4766 
     4433.2319      6666.8550     18361.6621         1.8532      9908.2588 
        9.4340         6.8841
    3056.83920 
       44.1831        77.9825        35.2182       120.7467      1409.5979 
       54.4320       100.8280     15426.5244      8328.0098        36.0325 
       36.0325        99.2662        25.1753    0.000746539       0.294345 
     -999.2500      9616.3193      5103.3369      9763.4434      6673.8281 
      0.264911      3048.6726         2.4607         1.6820     12645.0010 
     4444.2207      6671.2246     18371.5469         1.8524      9917.8799 
        9.4523         6.9025
    3056.99160 
       44.2162        78.2288        35.2769       121.1807      1411.2271 
       54.3444       100.6352     15443.9326      8339.9365        36.1006 
       36.1006        99.4060        25.2597    0.000748679       0.294169 
     -999.2500      9616.8896      5103.4355      9764.0947      6672.7808 
      0.264752      3062.4592         2.4608         1.6817     12670.4805 
     4462.4727      6684.3164     18401.1602         1.8518      9936.8809 
        9.4827         6.9332
    3057.14400 
       44.2756        78.7651        34.9653       122.5648      1414.1577 
       54.1873       100.5063     15595.6357      8408.2832        36.7257 
       36.7257       101.8254        25.4993    0.000761000       0.295104 
     -999.2500      9617.4600      5103.5347      9764.3135      6680.3843 
      0.265594      3033.9063         2.4607         1.6835     12628.5811 
     4520.8940      6707.8999     18454.5078         1.8548      9949.6250 
        9.5795         7.0312
    3057.29640 
       44.3070        78.8108        34.3928       123.2288      1415.7108 
       54.1043       100.6528     15720.2881      8450.1895        37.3830 
       37.3830       104.3161        25.5891    0.000768605       0.296822 
     -999.2500      9618.0313      5103.6333      9764.2324      6693.9976 
      0.267140      2990.5088         2.4605         1.6869     12569.0127 
     4549.0386      6720.4155     18482.8184         1.8603      9935.1436 
        9.6260         7.0784
    3057.44880 
       44.2581        78.4750        34.1243       122.8256      1413.2966 
       54.2334       101.0356     15746.2637      8452.2031        37.4999 
       37.4999       105.0653        25.4983    0.000768971       0.297627 
     -999.2500      9618.6016      5103.7324      9764.5078      6700.4741 
      0.267864      2951.6741         2.4605         1.6884     12504.2959 
     4531.9370      6700.9658     18438.8223         1.8630      9897.5020 
        9.5978         7.0497
    3057.60120 
       44.1402        78.0838        34.5518       121.6158      1407.4866 
       54.5458       101.3896     15642.3330      8415.2969        36.8122 
       36.8122       103.0482        25.2983    0.000762270       0.296345 
     -999.2500      9619.1719      5103.8311      9765.5957      6690.6860 
      0.266710      2923.1160         2.4606         1.6858     12427.6035 
     4480.8018      6654.2803     18333.2188         1.8588      9862.9443 
        9.5131         6.9639
    3057.75360 
       44.0356        78.2962        35.3252       121.2671      1402.3577 
       54.8236       101.4973     15584.0313      8417.6895        36.0845 
       36.0845       101.1470        25.2786    0.000762704       0.294024 
     -999.2500      9619.7432      5103.9302      9767.0791      6673.0117 
      0.264622      2848.0203         2.4609         1.6813     12242.0645 
     4466.1108      6613.2124     18240.3203         1.8513      9852.4795 
        9.4887         6.9393
    3057.90600 
       44.0255        78.7135        35.7069       121.7202      1401.8629 
       54.8505       101.3481     15596.3379      8440.8779        35.8965 
       35.8965       100.7489        25.3856    0.000766912       0.292879 
     -999.2500      9620.3135      5104.0283      9768.1025      6664.5200 
      0.263591      2774.3347         2.4610         1.6791     12077.7100 
     4485.2046      6609.2583     18231.3750         1.8477      9866.9834 
        9.5204         6.9713
