~Version Information Block
VERS .                  2.0:  CWLS LOG ASCII STANDARD - VERSION 2.0
WRAP .                  YES:  Multiple lines per depth step
~Well Information Block
#MNEM.UNIT        Data Type   Information
#---------- ----------------  -----------
STRT .M          2776.00000:  START DEPTH
STOP .M          3750.44560:  STOP DEPTH
STEP .M             0.15240:  STEP
NULL .              -999.25:  NULL VALUE
COMP .                     :  COMPANY
WELL .      RAAG-102-07-105:  WELL
FLD  .                     :  FIELD
LOC  .                     :  LOCATION
CTRY .                     :  COUNTRY
STAT .                     :  STATE
CNTY .                     :  COUNTY
SRVC .                     :  SERVICE COMPANY
DATE .                     :  DATE
API  .                     :  API NUMBER
UWI  .                     :  UNIQUE WELL ID
~Curve Information Block
#MNEM.UNIT         API CODE   Curve Description
#---------- ----------------  -----------------
DEPTH.M                    :  
ANGLE_FAIL.DEG                  :  Fail Angle
BRIT_IND.                     :  Brittleness Index
BRIT_PR.                     :  Brittleness Index from Poisson's Ratio
BRIT_YM.                     :  Brittleness Index from Young's Modulus
CS   .M/MIN                 :  Compressive Strength
DTCO .US/F                 :  Compressional slowness
DTSM .US/F                 :  Fast Shear Slowness
IP   .RAYL/M2                 :  P Impedence
IS   .RAYL/M2                 :  S Impedance
KBULK.                     :  Bulk Mudulus
LAMBDA.                     :  Lambda
LAMRHO.                     :  
MU   .CP                   :  Mu
MURHO.(GF/C3S)2                 :  Mu*Rho
PR   .                     :  Poisson's ratio
PRESS_FG.PSI                  :  Fracture Gradient Pressure
PRESS_OB.PSI                  :  Over-burden Pressure
PRESS_PP.PSI                  :  Pore Pressure
PRESS_SHMAX.PSI                  :  Horizontal Stress (Max)
PRESS_SHMIN.PSI                  :  Horizontal Stress (Min)
PR_STAT.                     :  Poisson's ratio (Static)
PZS  .PSI                  :  Processed Zone Stress
SHMAX_GRAD.                     :  Horizontal Stress Gradient (Max)
SHMIN_GRAD.                     :  Horizontal Stress Gradient (Min)
STRESS_CUM.PSI                  :  Cumulative stress (SHPZ)
UCS_BF.PSI                  :  Uniaxial Compressive Strength (BF)
UCS_LAL.PSI                  :  Uniaxial Compressive Strength (lal)
VP   .FT/S                 :  Compressional velocity
VPVS .                     :  Vp / Vs ratio
VS   .FT/S                 :  Shear velocity
YM   .                     :  Youngs' Modulus
YM_STAT.                     :  Youngs' Modulus (Static)
~Parameter Information Block
#MNEM.UNIT            Value   Description
#---------- ----------------  -----------
PROJECT.          RDG_13Jul21:  
SET  .              GEOMECH:  
~Other Information Block
~Ascii Log Data
# ...
    3249.04960 
       43.1924        67.3081        29.5912       105.0249      1361.6323 
       57.0985       109.0667     15008.3662      7857.1660        36.2012 
       36.2012       101.7809        21.9578    0.000664511       0.311226 
     -999.2500     10497.8916      5231.7031     10661.5410      7224.8936 
      0.280104      2919.6667         2.4824         1.6822     13489.1211 
     3804.7920      6291.9458     17513.5957         1.9102      9168.7012 
        8.3517         5.8296
    3249.20200 
       43.3352        68.8585        30.2215       107.4956      1368.4489 
       56.7090       107.9321     15126.9385      7947.8999        36.4147 
       36.4147       102.4860        22.4449    0.000679947       0.309335 
     -999.2500     10498.4795      5231.7744     10663.0146      7207.7783 
      0.278402      2981.4170         2.4826         1.6782     13578.3906 
     3902.4756      6345.1230     17633.8848         1.9033      9265.0850 
        8.5247         5.9935
    3249.35440 
       43.3596        70.2398        31.4266       109.0530      1369.6172 
       56.6426       107.0771     15138.1113      8007.8931        35.8701 
       35.8701       100.9097        22.7948    0.000690250       0.305720 
     -999.2500     10499.0684      5231.8457     10665.2852      7174.7378 
      0.275148      3049.7234         2.4831         1.6704     13648.9219 
     3964.5916      6354.2612     17654.5566         1.8904      9339.0645 
        8.6337         6.0977
    3249.50680 
       43.3163        70.2224        31.6102       108.8346      1367.5457 
       56.7604       107.1905     15118.2744      8005.5537        35.6561 
       35.6561       100.3844        22.7641    0.000689847       0.305169 
     -999.2500     10499.6582      5231.9165     10666.1455      7169.9131 
      0.274652      3013.9705         2.4831         1.6692     13567.7676 
     3955.8550      6338.0640     17617.9160         1.8885      9329.1855 
        8.6184         6.0831
    3249.65920 
       43.2931        69.1239        30.6950       107.5527      1366.4349 
       56.8237       107.8605     15099.8428      7954.9878        36.0354 
       36.0354       101.4416        22.4798    0.000681160       0.307915 
     -999.2500     10500.2471      5231.9878     10665.4893      7195.4097 
      0.277123      2834.0645         2.4828         1.6750     13258.9482 
     3904.7488      6329.3877     17598.2910         1.8982      9271.2344 
        8.5287         5.9973
    3249.81160 
       43.3841        68.5668        29.5051       107.6286      1370.7909 
       56.5760       108.1224     15207.6699      7957.5474        37.0654 
       37.0654       104.6281        22.4325    0.000681598       0.311485 
     -999.2500     10500.8359      5232.0586     10664.4326      7228.9067 
      0.280336      2623.7537         2.4825         1.6828     12905.3203 
     3907.7637      6363.4487     17675.3398         1.9111      9248.7773 
        8.5340         6.0024
    3249.96400 
       43.5093        67.4432        27.6290       107.2574      1376.8029 
       56.2365       108.6679     15341.3594      7939.2754        38.6123 
       38.6123       109.2931        22.2687    0.000678472       0.317113 
     -999.2500     10501.4248      5232.1294     10662.3896      7282.1357 
      0.285402      2535.5474         2.4819         1.6951     12835.3672 
     3893.0142      6410.6211     17782.0449         1.9323      9202.3496 
        8.5080         5.9776
    3250.11640 
       43.7245        64.8625        24.0883       105.6368      1387.1984 
       55.6559       109.9469     15531.5986      7862.2051        41.4670 
       41.4670       117.6020        21.7960    0.000665363       0.327735 
     -999.2500     10502.0146      5232.2007     10657.8975      7384.3535 
      0.294962      2578.4619         2.4807         1.7188     13125.6309 
     3828.8857      6492.6265     17967.5469         1.9755      9095.2998 
        8.3946         5.8700
    3250.26880 
       43.8672        62.3934        21.3203       103.4665      1394.1305 
       55.2732       111.2284     15618.4795      7761.3574        43.5899 
       43.5899       123.4596        21.2685    0.000648404       0.336039 
     -999.2500     10502.6035      5232.2715     10654.4238      7466.2031 
      0.302435      2605.3411         2.4798         1.7377     13343.0889 
     3743.7112      6547.6221     18091.9492         2.0123      8990.5098 
        8.2427         5.7271
    3250.42120 
       43.3416        60.2709        22.3703        98.1716      1368.7548 
       56.6916       113.2701     15117.4180      7566.2559        40.5579 
       40.5579       114.0399        20.3601    0.000616215       0.332889 
     -999.2500     10503.1924      5232.3418     10656.6123      7434.7827 
      0.299600      2669.1348         2.4802         1.7303     13407.8350 
     3539.2927      6347.5156     17639.2988         1.9980      8828.4551 
        7.8720         5.3841
    3250.57360 
       41.7426        61.9419        32.6427        91.2411      1294.1736 
       61.1536       114.8348     13836.4570      7368.4033        29.8481 
       29.8481        82.8608        19.5576    0.000584409       0.302072 
     -999.2500     10503.7822      5232.4131     10671.8809      7141.8076 
      0.271865      2676.2468         2.4836         1.6621     12836.1094 
     3278.9780      5778.5518     16352.2666         1.8778      8708.1611 
        7.3869         4.9473
    3250.72600 
       40.4634        59.4606        37.5975        81.3236      1237.1389 
       64.8870       118.7575     12781.6855      6983.6870        24.1923 
       24.1923        65.8277        17.9242    0.000524976       0.287207 
     -999.2500     10504.3711      5232.4839     10679.1934      7007.9209 
      0.258487      2580.9773         2.4852         1.6308     12377.7959 
     2920.7676      5362.6211     15411.4072         1.8302      8420.5205 
        6.6927         4.3462
    3250.87840 
       39.3435        58.0892        42.6728        73.5056      1188.9584 
       68.2796       122.0049     11912.6016      6666.8447        19.8668 
       19.8668        53.0164        16.6555    0.000478422       0.271982 
     -999.2500     10504.9600      5232.5547     10686.4131      6875.8887 
      0.244784      2464.5815         2.4867         1.6000     11880.9404 
     2650.2539      5024.1045     14645.6631         1.7868      8196.3916 
        6.1454         3.8922
    3251.03080 
       38.6356        55.6113        43.6423        67.5802      1159.2959 
       70.4852       125.4000     11394.2529      6404.5151        18.1384 
       18.1384        47.7934        15.5670    0.000441512       0.269073 
     -999.2500     10505.5498      5232.6260     10688.2734      6851.0732 
      0.242166      2374.4854         2.4870         1.5942     11651.1172 
     2452.1912      4821.5073     14187.3750         1.7791      7974.4819 
        5.7306         3.5599
    3251.18320 
       38.0960        53.7917        43.8955        63.6879      1137.0786 
       72.1988       128.3046     11098.0713      6245.0410        17.1811 
       17.1811        45.1661        14.8357    0.000419798       0.268314 
     -999.2500     10506.1387      5232.6963     10689.2139      6844.6299 
      0.241482      2411.9409         2.4871         1.5926     11713.1406 
     2325.3567      4672.6475     13850.6455         1.7771      7793.9531 
        5.4582         3.3471
    3251.33560 
       38.2479        52.8695        41.7893        63.9497      1143.3000 
       71.7135       128.6572     11216.5107      6252.0811        18.0495 
       18.0495        47.6331        14.8117    0.000420745       0.274632 
     -999.2500     10506.7275      5232.7676     10687.1396      6898.4795 
      0.247169      2482.7302         2.4865         1.6050     11962.4199 
     2333.8062      4714.0830     13944.3750         1.7940      7772.5923 
        5.4765         3.3612
