~Version Information Block
VERS .                  2.0:  CWLS LOG ASCII STANDARD - VERSION 2.0
WRAP .                  YES:  Multiple lines per depth step
~Well Information Block
#MNEM.UNIT        Data Type   Information
#---------- ----------------  -----------
STRT .M          2556.50000:  START DEPTH
STOP .M          3600.74480:  STOP DEPTH
STEP .M             0.15240:  STEP
NULL .              -999.25:  NULL VALUE
COMP .                     :  COMPANY
WELL .      RAAG-100-07-213:  WELL
FLD  .                     :  FIELD
LOC  .                     :  LOCATION
CTRY .                     :  COUNTRY
STAT .                     :  STATE
CNTY .                     :  COUNTY
SRVC .                     :  SERVICE COMPANY
DATE .                     :  DATE
API  .                     :  API NUMBER
UWI  .                     :  UNIQUE WELL ID
~Curve Information Block
#MNEM.UNIT         API CODE   Curve Description
#---------- ----------------  -----------------
DEPTH.M                    :  
ANGLE_FAIL.DEG                  :  Fail Angle
BRIT_IND.                     :  Brittleness Index
BRIT_PR.                     :  Brittleness Index from Poisson's Ratio
BRIT_YM.                     :  Brittleness Index from Young's Modulus
CS   .M/MIN                 :  Compressive Strength
DTCO .US/F                 :  Compressional slowness
DTSM .US/F                 :  Description
IP   .RAYL/M2                 :  P Impedence
IS   .RAYL/M2                 :  S Impedance
KBULK.                     :  Bulk Mudulus
LAMBDA.                     :  Lambda
LAMRHO.                     :  
MU   .CP                   :  Mu
MURHO.(GF/C3S)2                 :  Mu*Rho
PR   .                     :  Poisson's ratio
PRESS_FG.PSI                  :  Fracture Gradient Pressure
PRESS_OB.PSI                  :  Over-burden Pressure
PRESS_PP.PSI                  :  Pore Pressure
PRESS_SHMAX.PSI                  :  Horizontal Stress (Max)
PRESS_SHMIN.PSI                  :  Horizontal Stress (Min)
PR_STAT.                     :  Poisson's ratio (Static)
PZS  .PSI                  :  Processed Zone Stress
SHMAX_GRAD.                     :  Horizontal Stress Gradient (Max)
SHMIN_GRAD.                     :  Horizontal Stress Gradient (Min)
STRESS_CUM.PSI                  :  Cumulative stress (SHPZ)
UCS_BF.PSI                  :  Uniaxial Compressive Strength (BF)
UCS_LAL.PSI                  :  Uniaxial Compressive Strength (lal)
VP   .FT/S                 :  Compressional velocity
VPVS .                     :  Vp / Vs ratio
VS   .FT/S                 :  Shear velocity
YM   .                     :  Youngs' Modulus
YM_STAT.                     :  Youngs' Modulus (Static)
~Parameter Information Block
#MNEM.UNIT            Value   Description
#---------- ----------------  -----------
PROJECT.          RDG_13Jul21:  
SET  .              GEOMECH:  
~Other Information Block
~Ascii Log Data
# ...
    2868.61520 
       41.6083        68.3500        48.6322        88.0678      1288.0819 
       61.5385       107.1791     12061.8740      6925.5098        20.3524 
       20.3524        49.5634        19.6950    0.000516266       0.254103 
     -999.2500      9592.1729      5098.0991      9753.5303      6365.0254 
      0.228693      1883.5449         2.4639         1.6079      9697.1416 
     3162.5337      5733.3374     16249.9893         1.7417      9330.1807 
        7.1647         4.7519
    2868.76760 
       41.8600        67.6403        46.0968        89.1838      1299.5221 
       60.8183       107.0520     12234.3291      6950.5601        21.7347 
       21.7347        53.0582        19.7897    0.000520008       0.261710 
     -999.2500      9592.7539      5098.2002      9751.4521      6418.7778 
      0.235539      1719.0118         2.4633         1.6214      9475.5791 
     3203.2883      5818.4058     16442.4199         1.7602      9341.2578 
        7.2429         4.8202
    2868.92000 
       42.2816        69.9537        46.1598        93.7475      1318.8890 
       59.6245       104.9225     12518.3613      7113.8350        22.6624 
       22.6624        55.4961        20.6657    0.000544725       0.261521 
     -999.2500      9593.3330      5098.3013      9752.0977      6418.0552 
      0.235368      1687.4973         2.4633         1.6211      9411.1045 
     3372.1748      5963.9409     16771.6289         1.7597      9530.8477 
        7.5623         5.1036
    2869.07240 
       42.5140        71.5756        46.4166        96.7347      1329.6765 
       58.9731       103.6630     12703.9805      7227.1973        23.1598 
       23.1598        56.9263        21.2501    0.000562225       0.260750 
     -999.2500      9593.9131      5098.4028      9752.9541      6413.0972 
      0.234675      1726.3163         2.4634         1.6198      9478.8271 
     3484.6492      6045.8379     16956.8848         1.7578      9646.6416 
        7.7714         5.2924
    2869.22480 
       42.7761        72.7508        45.6768        99.8247      1341.9413 
       58.2440       102.7050     12954.9854      7346.7681        24.1891 
       24.1891        59.8816        21.8032    0.000580982       0.262969 
     -999.2500      9594.4932      5098.5034      9752.7510      6429.3408 
      0.236673      1807.3171         2.4632         1.6238      9673.3154 
     3602.5991      6139.6753     17169.1504         1.7634      9736.6201 
        7.9877         5.4903
    2869.37720 
       43.0967        75.3896        45.9526       104.8266      1357.0837 
       57.3604       101.0275     13294.9883      7548.4946        25.0989 
       25.0989        62.7972        22.7738    0.000613325       0.262142 
     -999.2500      9595.0732      5098.6050      9753.6201      6424.1382 
      0.235928      1924.2485         2.4633         1.6224      9896.7734 
     3796.9956      6256.5952     17433.6309         1.7613      9898.2910 
        8.3379         5.8165
    2869.52960 
       43.4922        77.1710        44.8049       109.5370      1375.9819 
       56.2827        99.6215     13658.7930      7716.7446        26.7494 
       26.7494        67.4663        23.6100    0.000640971       0.265585 
     -999.2500      9595.6523      5098.7065      9752.9688      6449.3389 
      0.239027      2086.6602         2.4630         1.6287     10271.9980 
     3983.9763      6404.1685     17767.4492         1.7700     10037.9932 
        8.6676         6.1302
    2869.68200 
       43.8863        81.4762        46.5724       116.3800      1395.0610 
       55.2221        97.0055     13987.6689      7962.7319        27.1661 
       27.1661        68.8447        25.0196    0.000682487       0.260283 
     -999.2500      9596.2324      5098.8076      9755.4199      6412.4814 
      0.234254      2220.7332         2.4635         1.6193     10466.4297 
     4262.3789      6555.0234     18108.6914         1.7566     10308.6982 
        9.1466         6.5974
    2869.83440 
       44.0183        83.6196        47.7083       119.5309      1401.5081 
       54.8698        95.9289     14136.9561      8086.1113        27.1455 
       27.1455        69.0831        25.6924    0.000703800       0.256875 
     -999.2500      9596.8135      5098.9087      9757.2031      6389.0166 
      0.231188      2240.7703         2.4638         1.6133     10459.5732 
     4393.2637      6606.4229     18224.9609         1.7483     10424.3838 
        9.3672         6.8170
    2869.98680 
       44.0993        83.3759        46.6418       120.1099      1405.4791 
       54.6543        95.9799     14233.0186      8104.7808        27.8996 
       27.8996        71.2039        25.7381    0.000707054       0.260074 
     -999.2500      9597.3926      5099.0103      9756.6699      6411.8413 
      0.234067      2176.8650         2.4635         1.6190     10377.4131 
     4417.5000      6638.1904     18296.8203         1.7561     10418.8525 
        9.4077         6.8577
    2870.13920 
       44.0981        83.4336        46.5432       120.3240      1405.4182 
       54.6576        96.0257     14265.0947      8119.6597        28.0037 
       28.0037        71.6352        25.7730    0.000709653       0.260370 
     -999.2500      9597.9727      5099.1113      9757.1611      6414.1987 
      0.234333      2075.7766         2.4635         1.6195     10179.9512 
     4426.4751      6637.7021     18295.7168         1.7569     10413.8809 
        9.4227         6.8728
    2870.29160 
       43.9707        82.8347        47.0409       118.6285      1399.1812 
       54.9966        96.4188     14130.1934      8059.7588        27.3547 
       27.3547        69.7429        25.4786    0.000699221       0.258877 
     -999.2500      9598.5527      5099.2124      9758.2930      6403.7476 
      0.232990      1991.5398         2.4636         1.6167      9990.5742 
     4355.6040      6587.8472     18182.9414         1.7532     10371.4170 
        9.3040         6.7538
    2870.44400 
       43.7766        81.9967        47.7980       116.1955      1389.7250 
       55.5160        97.0226     13939.5322      7976.1567        26.4176 
       26.4176        67.0724        25.0574    0.000684790       0.256606 
     -999.2500      9599.1328      5099.3140      9759.6992      6387.8008 
      0.230945      1968.8306         2.4639         1.6126      9913.2627 
     4254.7651      6512.6431     18012.8242         1.7477     10306.8818 
        9.1337         6.5846
    2870.59640 
       43.6459        82.0108        48.9306       115.0909      1383.3911 
       55.8676        97.1839     13817.6328      7943.2686        25.5604 
       25.5604        64.7359        24.9126    0.000679154       0.253208 
     -999.2500      9599.7119      5099.4146      9761.4873      6364.2104 
      0.227887      1987.9720         2.4642         1.6066      9904.3652 
     4209.3203      6462.5278     17899.4629         1.7395     10289.7676 
        9.0564         6.5084
    2870.74880 
       44.0096        80.7596        44.6492       116.8701      1401.0836 
       54.8929        97.2276     14124.4238      7974.3901        28.4297 
       28.4297        72.3176        24.9990    0.000684487       0.266052 
     -999.2500      9600.2930      5099.5156      9757.5400      6455.3481 
      0.239447      2078.2886         2.4630         1.6295     10267.2734 
     4282.6245      6603.0327     18217.2930         1.7712     10285.1484 
        9.1809         6.6314
    2870.90120 
       44.6770        79.8817        38.4199       121.3434      1434.1176 
       53.1335        96.8543     14756.3623      8095.2222        33.6985 
       33.6985        86.6850        25.4756    0.000705387       0.284740 
     -999.2500      9600.8721      5099.6167      9751.2617      6593.0908 
      0.256266      2252.0396         2.4613         1.6642     10890.2598 
     4469.3232      6869.7041     18820.5195         1.8228     10324.7852 
        9.4940         6.9447
