~Version Information Block
VERS .                  2.0:  CWLS LOG ASCII STANDARD - VERSION 2.0
WRAP .                  YES:  Multiple lines per depth step
~Well Information Block
#MNEM.UNIT        Data Type   Information
#---------- ----------------  -----------
STRT .M          2682.11640:  START DEPTH
STOP .M          3633.09240:  STOP DEPTH
STEP .M             0.15240:  STEP
NULL .              -999.25:  NULL VALUE
COMP .                     :  COMPANY
WELL .       RAAG-94-07-216:  WELL
FLD  .                     :  FIELD
LOC  .                     :  LOCATION
CTRY .                     :  COUNTRY
STAT .                     :  STATE
CNTY .                     :  COUNTY
SRVC .                     :  SERVICE COMPANY
DATE .                     :  DATE
API  .                     :  API NUMBER
UWI  .                     :  UNIQUE WELL ID
~Curve Information Block
#MNEM.UNIT         API CODE   Curve Description
#---------- ----------------  -----------------
DEPTH.M                    :  
ANGLE_FAIL.DEG                  :  Fail Angle
BRIT_IND.                     :  Brittleness Index
BRIT_PR.                     :  Brittleness Index from Poisson's Ratio
BRIT_YM.                     :  Brittleness Index from Young's Modulus
CS   .M/MIN                 :  Compressive Strength
IP   .RAYL/M2                 :  P Impedence
IS   .RAYL/M2                 :  S Impedance
KBULK.                     :  Bulk Mudulus
LAMBDA.                     :  Lambda
LAMRHO.                     :  
MU   .CP                   :  Mu
MURHO.(GF/C3S)2                 :  Mu*Rho
PR   .                     :  Poisson's ratio
PRESS_FG.PSI                  :  Fracture Gradient Pressure
PRESS_OB.PSI                  :  Over-burden Pressure
PRESS_PP.PSI                  :  Pore Pressure
PRESS_SHMAX.PSI                  :  Horizontal Stress (Max)
PRESS_SHMIN.PSI                  :  Horizontal Stress (Min)
PR_STAT.                     :  Poisson's ratio (Static)
PZS  .PSI                  :  Processed Zone Stress
SHMAX_GRAD.                     :  Horizontal Stress Gradient (Max)
SHMIN_GRAD.                     :  Horizontal Stress Gradient (Min)
STRESS_CUM.PSI                  :  Cumulative stress (SHPZ)
UCS_BF.PSI                  :  Uniaxial Compressive Strength (BF)
UCS_LAL.PSI                  :  Uniaxial Compressive Strength (lal)
VP   .FT/S                 :  Compressional velocity
VPVS .                     :  Vp / Vs ratio
VS   .FT/S                 :  Shear velocity
YM   .                     :  Youngs' Modulus
YM_STAT.                     :  Youngs' Modulus (Static)
~Parameter Information Block
#MNEM.UNIT            Value   Description
#---------- ----------------  -----------
PROJECT.          RDG_13Jul21:  
SET  .              GEOMECH:  
~Other Information Block
~Ascii Log Data
# ...
    3627.75840 
       43.8793    -26008.1797        48.4018    -52064.7617      1394.7217 
 -5513529.5000  -3162690.2500    -10401.5898    -10401.5898  10393789.0000 
   -10010.1172       107.6672       0.254795      -999.2500     12404.5527 
     5359.3525    -12472.2607    509940.8125       0.229315      3076.1072 
       -2.5003       102.2264   1019233.8125 230819408.0000      6552.3232 
    18102.5859         1.7433     10384.0684     -3643.5332    387315.6875
    3627.91080 
       42.9906    -24851.6348        55.9411    -49759.2109      1352.0527 
 -5282931.5000  -3120100.2500     -8445.6455     -8445.6455   8439311.0000 
    -9742.3330       104.7869       0.232177      -999.2500     12405.1494 
     5359.3608     -9687.8975    454266.0938       0.208959      3034.4124 
       -1.9420        91.0616    907801.0000 210782576.0000      6217.6177 
    17345.4609         1.6932     10244.2324     -3482.1448    353693.7813
    3628.06320 
       42.6524    -24572.9160        60.5060    -49206.3398      1336.1394 
 -5198583.0000  -3120100.2500     -7560.8809     -7560.8809   7555210.0000 
    -9742.3330       104.7869       0.218482      -999.2500     12405.7471 
     5359.3696     -8849.6777    437514.2500       0.196634      2965.7234 
       -1.7739        87.6998    874159.9375 206112928.0000      6095.1885 
    17068.5176         1.6662     10244.2324     -3443.4436    345858.0938
    3628.21560 
       42.8022    -24698.5449        58.4485    -49455.5391      1343.1686 
 -5235730.5000  -3120100.2500     -7948.7827     -7948.7827   7942821.0000 
    -9742.3330       104.7869       0.224655      -999.2500     12406.3447 
     5359.3779     -9222.7119    444987.4688       0.202189      2911.1328 
       -1.8486        89.1940    888997.1875 208211232.0000      6149.1074 
    17190.4863         1.6781     10244.2324     -3460.8877    349379.0625
    3628.36800 
       43.1937    -25010.9727        53.3315    -50075.2773      1361.6948 
 -5334475.5000  -3120100.2500     -8993.3223     -8993.3223   8986577.0000 
    -9742.3330       104.7869       0.240006      -999.2500     12406.9414 
     5359.3867    -10179.2285    464130.3438       0.216005      2944.1135 
       -2.0403        93.0270    927348.9375 213475616.0000      6292.4326 
    17514.6973         1.7097     10244.2324     -3504.2695    358212.7188
    3628.52040 
       43.6271    -25332.2949        48.0689    -50712.6602      1382.4856 
 -5446740.0000  -3120100.2500    -10204.5762    -10204.5762  10196923.0000 
    -9742.3330       104.7869       0.255793      -999.2500     12407.5400 
     5359.3945    -11206.3018    484684.3750       0.230214      2880.9287 
       -2.2460        97.1426    968330.6250 218958400.0000      6455.3804 
    17883.2949         1.7457     10244.2324     -3548.8862    367412.8750
    3628.67280 
       43.7666    -25430.6387        46.4582    -50907.7383      1389.2413 
 -5483550.0000  -3120100.2500    -10607.2256    -10607.2256  10599270.0000 
    -9742.3330       104.7869       0.260625      -999.2500     12408.1377 
     5359.4033    -11529.3672    491158.2188       0.234563      2788.0745 
       -2.3107        98.4359    981092.6250 220650352.0000      6508.8091 
    18004.1543         1.7575     10244.2324     -3562.5415    370251.9688
    3628.82520 
       43.6741      -999.2500        47.5217      -999.2500      1384.7587 
     -999.2500      -999.2500      -999.2500      -999.2500      -999.2500 
     -999.2500      -999.2500       0.257435      -999.2500     12408.7344 
     5359.4116      -999.2500      -999.2500       0.231691      2694.2759 
     -999.2500      -999.2500      -999.2500      -999.2500      6473.3311 
    17923.9004         1.7497     10244.2324      -999.2500      -999.2500
    3628.97760 
       43.5375      -999.2500        49.1244      -999.2500      1378.1620 
     -999.2500      -999.2500      -999.2500      -999.2500      -999.2500 
     -999.2500      -999.2500       0.252627      -999.2500     12409.3320 
     5359.4199      -999.2500      -999.2500       0.227364      2668.2617 
     -999.2500      -999.2500      -999.2500      -999.2500      6421.3110 
    17806.2266         1.7382     10244.2324      -999.2500      -999.2500
    3629.13000 
       43.3252      -999.2500        51.6921      -999.2500      1367.9709 
     -999.2500      -999.2500      -999.2500      -999.2500      -999.2500 
     -999.2500      -999.2500       0.244924      -999.2500     12409.9297 
     5359.4287      -999.2500      -999.2500       0.220431      2927.1162 
     -999.2500      -999.2500      -999.2500      -999.2500      6341.3872 
    17625.4336         1.7205     10244.2324      -999.2500      -999.2500
    3629.28240 
       43.1897      -999.2500        53.3823      -999.2500      1361.5031 
     -999.2500      -999.2500      -999.2500      -999.2500      -999.2500 
     -999.2500      -999.2500       0.239853      -999.2500     12410.5264 
     5359.4370      -999.2500      -999.2500       0.215868      2928.2234 
     -999.2500      -999.2500      -999.2500      -999.2500      6290.9399 
    17511.3203         1.7094     10244.2324      -999.2500      -999.2500
    3629.43480 
       43.1665      -999.2500        53.6759      -999.2500      1360.3983 
     -999.2500      -999.2500      -999.2500      -999.2500      -999.2500 
     -999.2500      -999.2500       0.238972      -999.2500     12411.1240 
     5359.4458      -999.2500      -999.2500       0.215075      2958.0342 
     -999.2500      -999.2500      -999.2500      -999.2500      6282.3447 
    17491.8789         1.7075     10244.2324      -999.2500      -999.2500
    3629.58720 
       43.2360      -999.2500        52.7996      -999.2500      1363.7120 
     -999.2500      -999.2500      -999.2500      -999.2500      -999.2500 
     -999.2500      -999.2500       0.241601      -999.2500     12411.7217 
     5359.4541      -999.2500      -999.2500       0.217441      2929.6584 
     -999.2500      -999.2500      -999.2500      -999.2500      6308.1455 
    17550.2402         1.7132     10244.2324      -999.2500      -999.2500
    3629.73960 
       43.4227      -999.2500        51.2980      -999.2500      1372.6422 
     -999.2500      -999.2500      -999.2500      -999.2500      -999.2500 
     -999.2500      -999.2500       0.246106      -999.2500     12412.3184 
     5359.4619      -999.2500      -999.2500       0.221495      2806.7070 
     -999.2500      -999.2500      -999.2500      -999.2500      6377.9551 
    17708.1543         1.7232     10276.4785      -999.2500      -999.2500
    3629.89200 
       43.5660      -999.2500        53.0328      -999.2500      1379.5348 
     -999.2500      -999.2500      -999.2500      -999.2500      -999.2500 
     -999.2500      -999.2500       0.240902      -999.2500     12412.9160 
     5359.4702      -999.2500      -999.2500       0.216811      2849.0408 
     -999.2500      -999.2500      -999.2500      -999.2500      6432.1182 
    17830.6738         1.7117     10417.2021      -999.2500      -999.2500
    3630.04440 
       43.6384      -999.2500        52.9550      -999.2500      1383.0327 
     -999.2500      -999.2500      -999.2500      -999.2500      -999.2500 
     -999.2500      -999.2500       0.241135      -999.2500     12413.5137 
     5359.4785      -999.2500      -999.2500       0.217022      2906.4434 
     -999.2500      -999.2500      -999.2500      -999.2500      6459.6987 
    17893.0625         1.7122     10450.5479      -999.2500      -999.2500
    3630.19680 
       43.5411      -999.2500        57.9964      -999.2500      1378.3354 
     -999.2500      -999.2500      -999.2500      -999.2500      -999.2500 
     -999.2500      -999.2500       0.226011      -999.2500     12414.1113 
     5359.4868      -999.2500      -999.2500       0.203410      2999.5835 
     -999.2500      -999.2500      -999.2500      -999.2500      6422.6763 
    17809.3145         1.6807     10596.1123      -999.2500      -999.2500
