~Version Information Block
VERS .                  2.0:  CWLS LOG ASCII STANDARD - VERSION 2.0
WRAP .                  YES:  Multiple lines per depth step
~Well Information Block
#MNEM.UNIT        Data Type   Information
#---------- ----------------  -----------
STRT .M          2676.97280:  START DEPTH
STOP .M          3838.10840:  STOP DEPTH
STEP .M             0.15240:  STEP
NULL .              -999.25:  NULL VALUE
COMP .                     :  COMPANY
WELL .      RAAG-107-07-210:  WELL
FLD  .                     :  FIELD
LOC  .                     :  LOCATION
CTRY .                     :  COUNTRY
STAT .                     :  STATE
CNTY .                     :  COUNTY
SRVC .                     :  SERVICE COMPANY
DATE .                     :  DATE
API  .                     :  API NUMBER
UWI  .                     :  UNIQUE WELL ID
~Curve Information Block
#MNEM.UNIT         API CODE   Curve Description
#---------- ----------------  -----------------
DEPTH.M                    :  
ANGLE_FAIL.DEG                  :  Fail Angle
BRIT_IND.                     :  Brittleness Index
BRIT_PR.                     :  Brittleness Index from Poisson's Ratio
BRIT_YM.                     :  Brittleness Index from Young's Modulus
CS   .M/MIN                 :  Compressive Strength
DTCO .US/F                 :  Compressional slowness
DTSM .US/F                 :  Fast Shear Slowness
IP   .RAYL/M2                 :  P Impedence
IS   .RAYL/M2                 :  S Impedance
KBULK.                     :  Bulk Mudulus
LAMBDA.                     :  Lambda
LAMRHO.                     :  
MU   .CP                   :  Mu
MURHO.(GF/C3S)2                 :  Mu*Rho
PR   .                     :  Poisson's ratio
PRESS_FG.PSI                  :  Fracture Gradient Pressure
PRESS_OB.PSI                  :  Over-burden Pressure
PRESS_PP.PSI                  :  Pore Pressure
PRESS_SHMAX.PSI                  :  Horizontal Stress (Max)
PRESS_SHMIN.PSI                  :  Horizontal Stress (Min)
PR_STAT.                     :  Poisson's ratio (Static)
PZS  .PSI                  :  Processed Zone Stress
SHMAX_GRAD.                     :  Horizontal Stress Gradient (Max)
SHMIN_GRAD.                     :  Horizontal Stress Gradient (Min)
STRESS_CUM.PSI                  :  Cumulative stress (SHPZ)
UCS_BF.PSI                  :  Uniaxial Compressive Strength (BF)
UCS_LAL.PSI                  :  Uniaxial Compressive Strength (lal)
VP   .FT/S                 :  Compressional velocity
VPVS .                     :  Vp / Vs ratio
VS   .FT/S                 :  Shear velocity
YM   .                     :  Youngs' Modulus
YM_STAT.                     :  Youngs' Modulus (Static)
~Parameter Information Block
#MNEM.UNIT            Value   Description
#---------- ----------------  -----------
PROJECT.          RDG_13Jul21:  
SET  .              GEOMECH:  
~Other Information Block
~Ascii Log Data
# ...
    3830.33600 
       40.9766        53.4851        32.4336        74.5367      1259.7537 
       63.3714       119.1349     12090.2461      6431.1616        25.2434 
       25.2434        63.4544        16.4538    0.000445194       0.302699 
     -999.2500     12375.4717      5358.6289     12598.0264      7924.3818 
      0.272429      2762.6514         2.5319         1.5926     14574.0654 
     2685.3303      5525.5620     15779.9893         1.8799      8393.8457 
        6.2176         3.9511
    3830.48840 
       41.4403        54.1089        30.9407        77.2772      1280.4918 
       62.0226       117.5662     12358.6758      6519.8770        26.9281 
       26.9281        67.7193        16.9033    0.000457561       0.307178 
     -999.2500     12376.0713      5358.6382     12595.9043      7979.4131 
      0.276460      2834.6763         2.5314         1.6036     14828.1797 
     2779.4495      5677.2671     16123.1563         1.8955      8505.8457 
        6.4094         4.1090
    3830.64080 
       41.9288        54.0971        28.6002        79.5941      1302.6652 
       60.6224       116.4685     12655.1367      6587.0576        29.1512 
       29.1512        73.3738        17.2384    0.000467039       0.314199 
     -999.2500     12376.6699      5358.6479     12592.1709      8066.6523 
      0.282779      2736.6953         2.5305         1.6211     14806.6953 
     2860.0227      5841.8950     16495.5527         1.9212      8586.0127 
        6.5716         4.2442
    3830.79320 
       42.3608        54.0573        26.5840        81.5307      1322.5575 
       59.4019       115.5151     12907.2500      6637.3589        31.2021 
       31.2021        78.4880        17.5134    0.000474199       0.320248 
     -999.2500     12377.2695      5358.6577     12588.9785      8143.0864 
      0.288223      2631.3567         2.5298         1.6364     14748.8867 
     2928.0767      5991.7251     16834.4785         1.9446      8656.8770 
        6.7071         4.3584
    3830.94560 
       42.6077        54.2946        25.7627        82.8266      1334.0486 
       58.7118       114.7552     13037.6904      6670.4277        32.2502 
       32.2502        80.9922        17.7172    0.000478936       0.322712 
     -999.2500     12377.8691      5358.6675     12588.0244      8174.7529 
      0.290441      2570.5486         2.5295         1.6427     14690.6035 
     2973.9741      6079.1997     17032.3516         1.9546      8714.2012 
        6.7979         4.4355
    3831.09800 
       42.5601        55.4272        27.1420        83.7124      1331.8284 
       58.8443       114.0418     13004.9561      6710.4126        31.4928 
       31.4928        79.0696        17.9349    0.000484695       0.318574 
     -999.2500     12378.4678      5358.6772     12591.2607      8122.6040 
      0.286717      2560.3103         2.5300         1.6321     14565.8291 
     3005.5095      6062.2456     16994.0000         1.9380      8768.7139 
        6.8599         4.4884
    3831.25040 
       42.5206        56.5106        28.2795        84.7417      1329.9834 
       58.9547       113.4792     13021.5430      6764.9507        30.9816 
       30.9816        78.0315        18.1704    0.000492606       0.315161 
     -999.2500     12379.0674      5358.6870     12594.0176      8080.0669 
      0.283645      2735.0264         2.5305         1.6235     14830.1865 
     3042.3250      6048.1772     16962.1758         1.9249      8812.1875 
        6.9319         4.5501
    3831.40280 
       42.6763        56.8472        27.5316        86.1628      1337.2593 
       58.5209       113.1484     13206.3252      6830.3755        31.9843 
       31.9843        81.0990        18.3997    0.000502180       0.317405 
     -999.2500     12379.6680      5358.6963     12593.2227      8108.5791 
      0.285665      2754.4580         2.5302         1.6291     14926.0742 
     3093.4526      6103.7617     17087.9121         1.9335      8837.9512 
        7.0314         4.6359
    3831.55520 
       42.7480        57.4391        27.5335        87.3447      1340.6211 
       58.3219       112.7623     13316.0195      6887.1914        32.3592 
       32.3592        82.4496        18.6163    0.000510569       0.317399 
     -999.2500     12380.2666      5358.7061     12593.8369      8108.8506 
      0.285659      2694.9297         2.5302         1.6291     14807.5605 
     3136.2366      6129.5376     17146.2188         1.9334      8868.2119 
        7.1141         4.7077
    3831.70760 
       42.7223      -999.2500        28.3008      -999.2500      1339.4165 
       58.3931       112.3840      -999.2500      -999.2500      -999.2500 
     -999.2500      -999.2500      -999.2500 -999.250000000       0.315097 
     -999.2500     12380.8662      5358.7153      -999.2500      -999.2500 
      0.283588      2649.2871      -999.2500      -999.2500      -999.2500 
     -999.2500      6120.2949     17125.3105         1.9246      8898.0635 
     -999.2500      -999.2500
    3831.86000 
       42.6149      -999.2500        29.5410      -999.2500      1334.3860 
       58.6917       112.1425      -999.2500      -999.2500      -999.2500 
     -999.2500      -999.2500      -999.2500 -999.250000000       0.311377 
     -999.2500     12381.4658      5358.7246      -999.2500      -999.2500 
      0.280239      2657.0784      -999.2500      -999.2500      -999.2500 
     -999.2500      6081.7783     17038.1855         1.9107      8917.2256 
     -999.2500      -999.2500
    3832.01240 
       42.4604      -999.2500        31.3693      -999.2500      1327.1849 
       59.1227       111.8011      -999.2500      -999.2500      -999.2500 
     -999.2500      -999.2500      -999.2500 -999.250000000       0.305892 
     -999.2500     12382.0654      5358.7344      -999.2500      -999.2500 
      0.275303      2831.0398      -999.2500      -999.2500      -999.2500 
     -999.2500      6026.8696     16913.9785         1.8910      8944.4551 
     -999.2500      -999.2500
    3832.16480 
       42.5194      -999.2500        31.8243      -999.2500      1329.9316 
       58.9578       111.2085      -999.2500      -999.2500      -999.2500 
     -999.2500      -999.2500      -999.2500 -999.250000000       0.304527 
     -999.2500     12382.6641      5358.7441      -999.2500      -999.2500 
      0.274074      3002.5171      -999.2500      -999.2500      -999.2500 
     -999.2500      6047.7827     16961.2832         1.8862      8992.1182 
     -999.2500      -999.2500
    3832.31720 
       42.7907      -999.2500        30.6056      -999.2500      1342.6270 
       58.2036       110.5356      -999.2500      -999.2500      -999.2500 
     -999.2500      -999.2500      -999.2500 -999.250000000       0.308183 
     -999.2500     12383.2646      5358.7529      -999.2500      -999.2500 
      0.277365      3069.0857      -999.2500      -999.2500      -999.2500 
     -999.2500      6144.9434     17181.0684         1.8991      9046.8594 
     -999.2500      -999.2500
    3832.46960 
       43.0357      -999.2500        29.3892      -999.2500      1354.1876 
       57.5280       110.0155      -999.2500      -999.2500      -999.2500 
     -999.2500      -999.2500      -999.2500 -999.250000000       0.311832 
     -999.2500     12383.8643      5358.7627      -999.2500      -999.2500 
      0.280649      2981.6653      -999.2500      -999.2500      -999.2500 
     -999.2500      6234.1421     17382.8398         1.9124      9089.6279 
     -999.2500      -999.2500
    3832.62200 
       43.1923      -999.2500        28.5664      -999.2500      1361.6305 
       57.0986       109.7204      -999.2500      -999.2500      -999.2500 
     -999.2500      -999.2500      -999.2500 -999.250000000       0.314301 
     -999.2500     12384.4629      5358.7720      -999.2500      -999.2500 
      0.282871      2838.0894      -999.2500      -999.2500      -999.2500 
     -999.2500      6291.9321     17513.5664         1.9216      9114.0752 
     -999.2500      -999.2500
