~Version Information Block
VERS .                  2.0:  CWLS LOG ASCII STANDARD - VERSION 2.0
WRAP .                  YES:  Multiple lines per depth step
~Well Information Block
#MNEM.UNIT        Data Type   Information
#---------- ----------------  -----------
STRT .M          2888.43720:  START DEPTH
STOP .M          3831.03120:  STOP DEPTH
STEP .M             0.15240:  STEP
NULL .              -999.25:  NULL VALUE
COMP .                     :  COMPANY
WELL .       RAAG-99-02-105:  WELL
FLD  .                     :  FIELD
LOC  .                     :  LOCATION
CTRY .                     :  COUNTRY
STAT .                     :  STATE
CNTY .                     :  COUNTY
SRVC .                     :  SERVICE COMPANY
DATE .                     :  DATE
API  .                     :  API NUMBER
UWI  .                     :  UNIQUE WELL ID
~Curve Information Block
#MNEM.UNIT         API CODE   Curve Description
#---------- ----------------  -----------------
DEPTH.M                    :  
ANGLE_FAIL.DEG                  :  Fail Angle
BRIT_IND.                     :  Brittleness Index
BRIT_PR.                     :  Brittleness Index from Poisson's Ratio
BRIT_YM.                     :  Brittleness Index from Young's Modulus
CS   .M/MIN                 :  Compressive Strength
DTCO .US/F                 :  Compressional slowness
DTSM .US/F                 :  Fast Shear Slowness
IP   .RAYL/M2                 :  P Impedence
IS   .RAYL/M2                 :  S Impedance
KBULK.                     :  Bulk Mudulus
LAMBDA.                     :  Lambda
LAMRHO.                     :  
MU   .CP                   :  Mu
MURHO.(GF/C3S)2                 :  Mu*Rho
PR   .                     :  Poisson's ratio
PRESS_FG.PSI                  :  Fracture Gradient Pressure
PRESS_OB.PSI                  :  Over-burden Pressure
PRESS_PP.PSI                  :  Pore Pressure
PRESS_SHMAX.PSI                  :  Horizontal Stress (Max)
PRESS_SHMIN.PSI                  :  Horizontal Stress (Min)
PR_STAT.                     :  Poisson's ratio (Static)
PZS  .PSI                  :  Processed Zone Stress
SHMAX_GRAD.                     :  Horizontal Stress Gradient (Max)
SHMIN_GRAD.                     :  Horizontal Stress Gradient (Min)
STRESS_CUM.PSI                  :  Cumulative stress (SHPZ)
UCS_BF.PSI                  :  Uniaxial Compressive Strength (BF)
UCS_LAL.PSI                  :  Uniaxial Compressive Strength (lal)
VP   .FT/S                 :  Compressional velocity
VPVS .                     :  Vp / Vs ratio
VS   .FT/S                 :  Shear velocity
YM   .                     :  Youngs' Modulus
YM_STAT.                     :  Youngs' Modulus (Static)
~Parameter Information Block
#MNEM.UNIT            Value   Description
#---------- ----------------  -----------
PROJECT.          RDG_13Jul21:  
SET  .              GEOMECH:  
~Other Information Block
~Ascii Log Data
# ...
    2949.39720 
       32.5268        39.4480        46.5198        32.3762       924.9479 
       91.6376       161.0103      8291.7480      4719.1758         9.7123 
        9.7123        24.2118         8.9336    0.000239719       0.260441 
     -999.2500      9033.8633      4990.8955      9177.4678      6161.7720 
      0.234397      2024.9055         2.4483         1.6438      9573.3545 
     1399.3534      3373.7888     10912.5508         1.7570      6210.7827 
        3.2663         1.7932
    2949.54960 
       32.4506        38.5955        45.5353        31.6557       922.2361 
       91.9271       162.1991      8239.3096      4669.6675         9.7686 
        9.7686        24.2746         8.7751    0.000234716       0.263394 
     -999.2500      9034.4375      4991.0151      9177.1172      6180.8501 
      0.237055      2152.6272         2.4480         1.6488      9866.9551 
     1380.0193      3358.5964     10878.1846         1.7644      6165.2627 
        3.2159         1.7608
    2949.70200 
       32.2689        36.4744        43.0170        29.9318       915.7875 
       92.6202       165.2413      8120.2598      4551.5259         9.9314 
        9.9314        24.5058         8.3956    0.000222989       0.270949 
     -999.2500      9035.0117      4991.1357      9175.2686      6229.8667 
      0.243854      2125.5735         2.4474         1.6617      9910.8799 
     1334.1229      3322.6099     10796.7803         1.7841      6051.7559 
        3.0952         1.6838
    2949.85440 
       32.0500        33.4586        39.2751        27.6421       908.0582 
       93.4597       169.6601      7973.7451      4392.4521        10.2224 
       10.2224        24.9933         7.8912    0.000207675       0.282175 
     -999.2500      9035.5850      4991.2559      9172.1523      6304.2476 
      0.253957      1863.3302         2.4464         1.6815      9535.1553 
     1273.9486      3279.7366     10699.7988         1.8153      5894.1377 
        2.9349         1.5828
    2950.00680 
       31.8551        30.7232        35.8863        25.5600       901.2042 
       94.2122       173.9177      7837.1343      4245.4199        10.4744 
       10.4744        25.3735         7.4403    0.000194004       0.292341 
     -999.2500      9036.1602      4991.3760      9169.2979      6373.4028 
      0.263107      1563.3419         2.4455         1.6998      9073.4893 
     1220.0088      3241.9561     10614.3369         1.8460      5749.8462 
        2.7892         1.4923
    2950.15920 
       31.6336        28.5466        33.2904        23.8028       893.4525 
       95.0725       177.9053      7721.5249      4126.3789        10.6158 
       10.6158        25.5679         7.0696    0.000183277       0.300129 
     -999.2500      9036.7344      4991.4961      9167.1895      6427.6167 
      0.270116      1296.9215         2.4448         1.7142      8649.0762 
     1175.0635      3199.4954     10518.2891         1.8713      5620.9678 
        2.6662         1.4169
    2950.31160 
       31.3693        28.2819        33.4210        23.1428       884.2468 
       96.1071       179.7156      7661.8711      4097.3638        10.4010 
       10.4010        25.1275         6.9492    0.000180709       0.299737 
     -999.2500      9037.3076      4991.6157      9167.9170      6425.1216 
      0.269763      1082.3093         2.4449         1.7134      8214.8613 
     1158.3165      3149.4392     10405.0576         1.8700      5564.3467 
        2.6200         1.3888
    2950.46400 
       30.9822        30.2593        37.5127        23.0060       870.8621 
       97.6368       178.7719      7506.4609      4099.6763         9.4539 
        9.4539        22.7323         6.9898    0.000180913       0.287462 
     -999.2500      9037.8818      4991.7363      9172.7373      6340.7563 
      0.258716       907.6037         2.4460         1.6908      7696.7202 
     1154.8566      3077.3726     10242.0400         1.8310      5593.7202 
        2.6104         1.3830
    2950.61640 
       30.6280        34.7975        45.6852        23.9099       858.7070 
       99.0526       174.6590      7374.2437      4182.0806         8.0953 
        8.0953        19.3999         7.2982    0.000188259       0.262945 
     -999.2500      9038.4551      4991.8564      9181.4111      6179.3394 
      0.236650       799.0917         2.4482         1.6477      7156.8623 
     1177.7870      3012.6558     10095.6465         1.7633      5725.4419 
        2.6737         1.4214
    2950.76880 
       30.4793        39.3970        53.7833        25.0108       853.6306 
       99.6515       170.0845      7291.5996      4272.1045         6.9909 
        6.9909        16.6657         7.6558    0.000196451       0.238650 
     -999.2500      9039.0293      4991.9761      9189.5635      6028.3335 
      0.214785       761.6830         2.4502         1.6073      6780.0332 
     1205.9031      2985.8333     10034.9717         1.7068      5879.4307 
        2.7508         1.4686
    2950.92120 
       30.5939        42.8682        59.0293        26.7071       857.5440 
       99.1894       166.1084      7382.4800      4408.3486         6.5075 
        6.5075        15.6339         8.0891    0.000209181       0.222912 
     -999.2500      9039.6025      4992.0962      9194.8311      5935.0479 
      0.200621       792.4238         2.4515         1.5824      6654.9429 
     1249.6332      3006.5005     10081.7227         1.6747      6020.1655 
        2.8695         1.5420
    2951.07360 
       31.0534        43.7613        58.9846        28.5380       873.3167 
       97.3540       163.0601      7571.0342      4520.2378         6.8048 
        6.8048        16.4555         8.4495    0.000219934       0.223046 
     -999.2500      9040.1777      4992.2168      9195.3789      5936.1636 
      0.200742       880.5295         2.4515         1.5826      6833.3867 
     1297.3859      3090.5254     10271.7920         1.6749      6132.7080 
        2.9977         1.6221
    2951.22600 
       31.8078        43.6011        56.2796        30.9226       899.5469 
       94.3953       159.6328      7848.1836      4640.8486         7.6193 
        7.6193        18.5190         8.8612    0.000231827       0.231161 
     -999.2500      9040.7520      4992.3364      9193.5684      5984.4131 
      0.208045       996.2990         2.4508         1.5953      7161.4238 
     1360.4390      3232.8540     10593.7480         1.6911      6264.3770 
        3.1646         1.7279
    2951.37840 
       32.8633        43.0927        52.1545        34.0308       936.9750 
       90.3675       155.2006      8199.4375      4774.2256         8.9035 
        8.9035        21.6443         9.3761    0.000245344       0.243536 
     -999.2500      9041.3252      4992.4565      9190.4121      6059.5845 
      0.219183      1072.7307         2.4499         1.6153      7464.6299 
     1444.0879      3441.5918     11065.9258         1.7174      6443.2734 
        3.3822         1.8683
    2951.53080 
       33.6987        42.8747        49.0434        36.7059       967.2340 
       87.2697       151.7395      8501.5635      4889.4907        10.0496 
       10.0496        24.4623         9.8215    0.000257334       0.252870 
     -999.2500      9041.9004      4992.5767      9188.1055      6117.8037 
      0.227583      1121.5626         2.4491         1.6307      7678.7329 
     1517.4028      3615.2415     11458.7305         1.7387      6590.2417 
        3.5694         1.9913
    2951.68320 
       33.9805        43.0504        48.0259        38.0749       977.5746 
       86.2422       150.5792      8678.0957      4970.2627        10.5490 
       10.5490        25.9023        10.0607    0.000265906       0.255922 
     -999.2500      9042.4736      4992.6963      9187.7314      6137.3242 
      0.230330      1192.4937         2.4489         1.6358      7859.6357 
     1555.3973      3675.5935     11595.2520         1.7460      6641.0239 
        3.6652         2.0551
