~Version Information Block
VERS .                  2.0:  CWLS LOG ASCII STANDARD - VERSION 2.0
WRAP .                  YES:  Multiple lines per depth step
~Well Information Block
#MNEM.UNIT        Data Type   Information
#---------- ----------------  -----------
STRT .M          2776.00000:  START DEPTH
STOP .M          3750.44560:  STOP DEPTH
STEP .M             0.15240:  STEP
NULL .              -999.25:  NULL VALUE
COMP .                     :  COMPANY
WELL .      RAAG-102-07-105:  WELL
FLD  .                     :  FIELD
LOC  .                     :  LOCATION
CTRY .                     :  COUNTRY
STAT .                     :  STATE
CNTY .                     :  COUNTY
SRVC .                     :  SERVICE COMPANY
DATE .                     :  DATE
API  .                     :  API NUMBER
UWI  .                     :  UNIQUE WELL ID
~Curve Information Block
#MNEM.UNIT         API CODE   Curve Description
#---------- ----------------  -----------------
DEPTH.M                    :  
ANGLE_FAIL.DEG                  :  Fail Angle
BRIT_IND.                     :  Brittleness Index
BRIT_PR.                     :  Brittleness Index from Poisson's Ratio
BRIT_YM.                     :  Brittleness Index from Young's Modulus
CS   .M/MIN                 :  Compressive Strength
DTCO .US/F                 :  Compressional slowness
DTSM .US/F                 :  Fast Shear Slowness
IP   .RAYL/M2                 :  P Impedence
IS   .RAYL/M2                 :  S Impedance
KBULK.                     :  Bulk Mudulus
LAMBDA.                     :  Lambda
LAMRHO.                     :  
MU   .CP                   :  Mu
MURHO.(GF/C3S)2                 :  Mu*Rho
PR   .                     :  Poisson's ratio
PRESS_FG.PSI                  :  Fracture Gradient Pressure
PRESS_OB.PSI                  :  Over-burden Pressure
PRESS_PP.PSI                  :  Pore Pressure
PRESS_SHMAX.PSI                  :  Horizontal Stress (Max)
PRESS_SHMIN.PSI                  :  Horizontal Stress (Min)
PR_STAT.                     :  Poisson's ratio (Static)
PZS  .PSI                  :  Processed Zone Stress
SHMAX_GRAD.                     :  Horizontal Stress Gradient (Max)
SHMIN_GRAD.                     :  Horizontal Stress Gradient (Min)
STRESS_CUM.PSI                  :  Cumulative stress (SHPZ)
UCS_BF.PSI                  :  Uniaxial Compressive Strength (BF)
UCS_LAL.PSI                  :  Uniaxial Compressive Strength (lal)
VP   .FT/S                 :  Compressional velocity
VPVS .                     :  Vp / Vs ratio
VS   .FT/S                 :  Shear velocity
YM   .                     :  Youngs' Modulus
YM_STAT.                     :  Youngs' Modulus (Static)
~Parameter Information Block
#MNEM.UNIT            Value   Description
#---------- ----------------  -----------
PROJECT.          RDG_13Jul21:  
SET  .              GEOMECH:  
~Other Information Block
~Ascii Log Data
# ...
    3748.92160 
       45.1018        79.9248        34.3777       125.4719      1455.5411 
       52.0330        96.8071     15366.9521      8259.6074        38.0056 
       38.0056        99.7010        26.0056    0.000734326       0.296867 
     -999.2500     12461.8516      5359.8257     12690.3975      7890.9307 
      0.267180      -999.2500         2.5348         1.5761      -999.2500 
     4644.6665      7045.6738     19218.5723         1.8605     10329.8213 
        9.7830         7.2389
    3749.07400 
       45.2361        79.4955        33.1263       125.8647      1462.3820 
       51.6881        96.8071     15468.2002      8258.9180        39.2077 
       39.2077       102.8458        26.0034    0.000734203       0.300621 
     -999.2500     12462.4600      5359.8330     12688.7422      7936.8145 
      0.270559      -999.2500         2.5343         1.5852      -999.2500 
     4661.5049      7102.3657     19346.8125         1.8729     10329.8213 
        9.8105         7.2671
    3749.22640 
       45.0909        79.7867        34.4803       125.0931      1454.9885 
       52.0610        96.8071     15320.6973      8239.1768        37.8150 
       37.8150        98.9557        25.9413    0.000730698       0.296559 
     -999.2500     12463.0684      5359.8398     12691.8398      7887.6255 
      0.266903      -999.2500         2.5348         1.5753      -999.2500 
     4628.4580      7041.1040     19208.2363         1.8595     10329.8213 
        9.7565         7.2117
    3749.37880 
       44.7629        80.1807        37.1994       123.1619      1438.4215 
       52.9099        97.0283     15028.5820      8195.1426        35.0881 
       35.0881        91.5375        25.7438    0.000722908       0.288402 
     -999.2500     12463.6758      5359.8472     12697.3584      7790.0381 
      0.259562      -999.2500         2.5358         1.5558      -999.2500 
     4546.1992      6904.8647     18900.0547         1.8338     10306.2715 
        9.6213         7.0737
    3749.53120 
       44.4900        78.9931        37.8483       120.1378      1424.7859 
       53.6227        98.0200     14822.9160      8109.0063        33.8248 
       33.8248        88.2069        25.2155    0.000707792       0.286455 
     -999.2500     12464.2852      5359.8540     12699.1523      7766.9526 
      0.257810      -999.2500         2.5361         1.5511      -999.2500 
     4418.6699      6793.7998     18648.8184         1.8280     10202.0000 
        9.4096         6.8597
    3749.68360 
       44.3968        77.0229        36.4399       117.6059      1420.1555 
       53.8677        99.1618     14768.3232      8022.6016        34.2445 
       34.2445        89.3791        24.6596    0.000692788       0.290680 
     -999.2500     12464.8936      5359.8608     12697.2871      7817.0215 
      0.261612      -999.2500         2.5356         1.5610      -999.2500 
     4313.1006      6756.3037     18564.0020         1.8408     10084.5293 
        9.2324         6.6825
    3749.83600 
       44.2961        74.9610        34.8368       115.0852      1415.1697 
       54.1332       100.4731     14743.8457      7943.7344        34.8191 
       34.8191        91.1752        24.0985    0.000679234       0.295490 
     -999.2500     12465.5020      5359.8682     12695.0439      7874.6572 
      0.265941      -999.2500         2.5350         1.5725      -999.2500 
     4209.0859      6716.0532     18472.9512         1.8560      9952.9131 
        9.0560         6.5080
    3749.98840 
       44.1317        75.8226        36.4564       115.1887      1407.0699 
       54.5683       100.4431     14684.3262      7977.6382        33.6045 
       33.6045        88.3440        24.2086    0.000685044       0.290631 
     -999.2500     12466.1113      5359.8750     12698.5840      7816.6440 
      0.261568      -999.2500         2.5356         1.5608      -999.2500 
     4213.3354      6650.9385     18325.6582         1.8407      9955.8857 
        9.0632         6.5151
    3750.14080 
       44.1791        77.4448        37.8461       117.0434      1409.3990 
       54.4427        99.5200     14703.3877      8043.5303        33.0477 
       33.0477        86.7928        24.6349    0.000696408       0.286462 
     -999.2500     12466.7197      5359.8818     12701.6748      7767.6021 
      0.257815      -999.2500         2.5361         1.5510      -999.2500 
     4289.7935      6669.6284     18367.9355         1.8280     10048.2324 
        9.1930         6.6434
    3750.29320 
       44.3294        80.1831        39.9394       120.4268      1416.8167 
       54.0453        97.7997     14744.3506      8147.9072        32.3668 
       32.3668        84.6191        25.3936    0.000714599       0.280182 
     -999.2500     12467.3271      5359.8882     12705.9639      7694.6001 
      0.252164      -999.2500         2.5369         1.5363      -999.2500 
     4430.7891      6729.3354     18502.9961         1.8096     10224.9805 
        9.4299         6.8800
    3750.44560 
       44.3522        76.2929        36.3279       116.2579      1417.9468 
       53.9851        99.4342     14662.0176      7960.3447        33.9794 
       33.9794        88.2406        24.4012    0.000682078       0.291016 
     -999.2500     12467.9365      5359.8955     12700.2334      7822.0010 
      0.261915      -999.2500         2.5356         1.5617      -999.2500 
     4257.3398      6738.4570     18523.6309         1.8419     10056.9023 
        9.1381         6.5889
