~Version Information Block
VERS .                  2.0:  CWLS LOG ASCII STANDARD - VERSION 2.0
WRAP .                  YES:  Multiple lines per depth step
~Well Information Block
#MNEM.UNIT        Data Type   Information
#---------- ----------------  -----------
STRT .M          2945.58720:  START DEPTH
STOP .M          3894.88680:  STOP DEPTH
STEP .M             0.15240:  STEP
NULL .              -999.25:  NULL VALUE
COMP .                     :  COMPANY
WELL .       RAAG-97-02-106:  WELL
FLD  .                     :  FIELD
LOC  .                     :  LOCATION
CTRY .                     :  COUNTRY
STAT .                     :  STATE
CNTY .                     :  COUNTY
SRVC .                     :  SERVICE COMPANY
DATE .                     :  DATE
API  .                     :  API NUMBER
UWI  .                     :  UNIQUE WELL ID
~Curve Information Block
#MNEM.UNIT         API CODE   Curve Description
#---------- ----------------  -----------------
DEPTH.M                    :  
ANGLE_FAIL.DEG                  :  Fail Angle
BRIT_IND.                     :  Brittleness Index
BRIT_PR.                     :  Brittleness Index from Poisson's Ratio
BRIT_YM.                     :  Brittleness Index from Young's Modulus
CS   .M/MIN                 :  Compressive Strength
DEN  .G/C3                 :  (HDRS-H)                (2in)                   Standard Resolution Formation Density
DTCO .US/F                 :  Compressional slowness
DTSM .US/F                 :  Description
IP   .RAYL/M2                 :  P Impedence
IS   .RAYL/M2                 :  S Impedance
KBULK.                     :  Bulk Mudulus
LAMBDA.                     :  Lambda
LAMRHO.                     :  
MU   .CP                   :  Mu
MURHO.(GF/C3S)2                 :  Mu*Rho
PR   .                     :  Poisson's ratio
PRESS_FG.PSI                  :  Fracture Gradient Pressure
PRESS_OB.PSI                  :  Over-burden Pressure
PRESS_PP.PSI                  :  Pore Pressure
PRESS_SHMAX.PSI                  :  Horizontal Stress (Max)
PRESS_SHMIN.PSI                  :  Horizontal Stress (Min)
PR_STAT.                     :  Poisson's ratio (Static)
PZS  .PSI                  :  Processed Zone Stress
SHMAX_GRAD.                     :  Horizontal Stress Gradient (Max)
SHMIN_GRAD.                     :  Horizontal Stress Gradient (Min)
STRESS_CUM.PSI                  :  Cumulative stress (SHPZ)
UCS_BF.PSI                  :  Uniaxial Compressive Strength (BF)
UCS_LAL.PSI                  :  Uniaxial Compressive Strength (lal)
VP   .FT/S                 :  Compressional velocity
VPVS .                     :  Vp / Vs ratio
VS   .FT/S                 :  Shear velocity
YM   .                     :  Youngs' Modulus
YM_STAT.                     :  Youngs' Modulus (Static)
~Parameter Information Block
#MNEM.UNIT            Value   Description
#---------- ----------------  -----------
PROJECT.          RDG_13Jul21:  
SET  .              GEOMECH:  
~Other Information Block
~Ascii Log Data
# ...
    3457.65120 
       37.6328        45.9434        33.7138        58.1730      1118.2661 
        2.7431        73.6927       137.5866     11345.6396      6076.8286 
       20.0023        20.0023        54.8678        13.4622         0.0004 
      0.298858      -999.2500     10807.9502      5266.3311     10986.2021 
     7242.9058       0.268973      1985.0298         2.4919         1.6429 
    11655.8711      2150.0879      4548.5244     13569.8730         1.8670 
     7268.1479         5.0721         3.0530
    3457.80360 
       37.8176        49.2136        37.3838        61.0435      1125.7417 
        2.7249        73.0943       133.9203     11362.6680      6201.7905 
       19.1515        19.1515        52.1858        14.1152         0.0004 
      0.287849      -999.2500     10808.5420      5266.3921     10991.9697 
     7139.9956       0.259064      1848.8037         2.4931         1.6194 
    11177.5986      2240.6655      4597.6362     13680.9658         1.8322 
     7467.1270         5.2730         3.2050
    3457.95600 
       38.0860        50.7747        38.4829        63.0665      1136.6696 
        2.7099        72.2309       131.6255     11435.3887      6275.2886 
       19.1922        19.1922        52.0096        14.5314         0.0004 
      0.284551      -999.2500     10809.1338      5266.4526     10994.0928 
     7109.9595       0.256096      1705.1514         2.4935         1.6125 
    10830.2217      2305.3494      4669.9292     13844.4971         1.8223 
     7597.3120         5.4147         3.3135
    3458.10840 
       38.3998        51.2948        38.1133        64.4764      1149.5453 
        2.6908        71.2306       130.0372     11514.1445      6307.1157 
       19.7026        19.7026        53.0161        14.7835         0.0004 
      0.285660      -999.2500     10809.7266      5266.5137     10994.1875 
     7120.5112       0.257094      1560.3177         2.4934         1.6149 
    10561.6582      2350.8406      4755.8726     14038.9063         1.8256 
     7690.1069         5.5133         3.3898
    3458.26080 
       38.6085        51.2286        37.3907        65.0665      1158.1753 
        2.6755        70.5704       129.2917     11555.5977      6307.3071 
       20.1713        20.1713        53.9676        14.8692         0.0004 
      0.287828      -999.2500     10810.3184      5266.5742     10993.7930 
     7140.8345       0.259045      1453.2156         2.4932         1.6194 
    10388.1006      2369.9832      4813.9395     14170.2568         1.8321 
     7734.4473         5.5547         3.4220
    3458.41320 
       38.7294        50.9667        36.6034        65.3300      1163.1919 
        2.6716        70.1902       129.1024     11601.3779      6307.4189 
       20.5962        20.5962        55.0249        14.8913         0.0004 
      0.290190      -999.2500     10810.9102      5266.6353     10993.3037 
     7163.0503       0.261171      1420.1086         2.4929         1.6243 
    10366.3184      2378.5496      4847.8657     14246.9990         1.8393 
     7745.7866         5.5731         3.4363
    3458.56560 
       38.8296        50.8880        35.9830        65.7929      1167.3685 
        2.6760        69.8758       128.9286     11672.9531      6326.4229 
       21.0051        21.0051        56.2106        14.9563         0.0004 
      0.292051      -999.2500     10811.5039      5266.6958     10993.0430 
     7180.7197       0.262846      1442.9971         2.4927         1.6283 
    10447.4336      2393.6279      4876.2065     14311.1084         1.8451 
     7756.2314         5.6055         3.4616
    3458.71800 
       38.8912        50.7037        35.3849        66.0224      1169.9413 
        2.6816        69.6830       128.9675     11729.6006      6337.6729 
       21.3496        21.3496        57.2513        14.9784         0.0004 
      0.293845      -999.2500     10812.0957      5266.7563     10992.8086 
     7197.8276       0.264461      1483.7832         2.4926         1.6321 
    10563.2217      2401.1194      4893.7080     14350.6982         1.8508 
     7753.8896         5.6216         3.4742
    3458.87040 
       38.9310        50.4359        34.7784        66.0935      1171.6042 
        2.6875        69.5588       129.1428     11776.3672      6342.9775 
       21.6618        21.6618        58.2161        14.9706         0.0004 
      0.295665      -999.2500     10812.6875      5266.8174     10992.5596 
     7215.2368       0.266098      1525.5437         2.4924         1.6359 
    10681.5615      2403.4385      4905.0381     14376.3281         1.8566 
     7743.3667         5.6265         3.4781
    3459.02280 
       38.9239        50.6898        35.0497        66.3299      1171.3062 
        2.6912        69.5810       129.0020     11788.9199      6358.7002 
       21.5933        21.5933        58.1125        15.0240         0.0004 
      0.294851      -999.2500     10813.2803      5266.8784     10993.5527 
     7207.8237       0.265366      1549.3447         2.4925         1.6342 
    10714.3369      2411.1675      4903.0063     14371.7324         1.8540 
     7751.8149         5.6431         3.4911
    3459.17520 
       38.8369        51.5305        36.4990        66.5620      1167.6700 
        2.6891        69.8532       128.5501     11733.8252      6376.0713 
       20.9637        20.9637        56.3741        15.1180         0.0004 
      0.290503      -999.2500     10813.8721      5266.9385     10996.2012 
     7167.3027       0.261453      1528.2181         2.4930         1.6249 
    10591.0420      2418.7605      4878.2563     14315.7451         1.8403 
     7779.0669         5.6593         3.5038
    3459.32760 
       38.7373        52.3801        38.2046        66.5557      1163.5229 
        2.6780        70.1652       128.0350     11633.4355      6375.3066 
       20.1819        20.1819        54.0478        15.1770         0.0004 
      0.285386      -999.2500     10814.4639      5266.9990     10999.1826 
     7120.0908       0.256848      1459.4205         2.4935         1.6141 
    10359.0225      2418.5542      4850.1084     14252.0723         1.8248 
     7810.3613         5.6589         3.5035
    3459.48000 
       38.5840        53.5148        40.5039        66.5258      1157.1591 
        2.6692        70.6477       127.5033     11515.7754      6380.7222 
       19.1767        19.1767        51.1858        15.2533         0.0004 
      0.278488      -999.2500     10815.0566      5267.0596     11002.9453 
     7057.2695       0.250639      1381.8798         2.4943         1.5998 
    10078.2988      2417.5762      4807.0825     14154.7461         1.8048 
     7842.9375         5.6568         3.5018
    3459.63240 
       38.4655        53.9642        41.9320        65.9964      1152.2567 
        2.6535        71.0223       127.3338     11387.9297      6351.7842 
       18.4639        18.4639        48.9946        15.2043         0.0004 
      0.274204      -999.2500     10815.6494      5267.1201     11005.4902 
     7018.8198       0.246783      1278.6467         2.4947         1.5910 
     9794.9326      2400.2681      4774.0767     14080.0850         1.7929 
     7853.3726         5.6197         3.4728
    3459.78480 
       38.3077        53.1004        41.8859        64.3148      1145.7548 
        2.6356        71.5232       128.2589     11231.5605      6263.2446 
       18.0954        18.0954        47.6915        14.8842         0.0004 
      0.274342      -999.2500     10816.2412      5267.1807     11006.0449 
     7020.1738       0.246908      1174.6195         2.4947         1.5912 
     9589.5869      2345.6116      4730.4854     13981.4785         1.7932 
     7796.7271         5.5020         3.3811
    3459.93720 
       37.8813        51.6141        42.0269        61.2013      1128.3270 
        2.6262        72.8888       130.6235     10982.0859      6128.0752 
       17.3252        17.3252        45.4996        14.2994         0.0004 
      0.273919      -999.2500     10816.8330      5267.2412     11006.8555 
     7016.3906       0.246527      1128.7076         2.4948         1.5903 
     9490.1963      2245.6877      4614.6855     13719.5332         1.7921 
     7655.5884         5.2841         3.2134
