~Version Information Block
VERS .                  2.0:  CWLS LOG ASCII STANDARD - VERSION 2.0
WRAP .                  YES:  Multiple lines per depth step
~Well Information Block
#MNEM.UNIT        Data Type   Information
#---------- ----------------  -----------
STRT .M          2686.96440:  START DEPTH
STOP .M          3645.86520:  STOP DEPTH
STEP .M             0.15240:  STEP
NULL .              -999.25:  NULL VALUE
COMP .                     :  COMPANY
WELL .      RAAG-105-07-212:  WELL
FLD  .                     :  FIELD
LOC  .                     :  LOCATION
CTRY .                     :  COUNTRY
STAT .                     :  STATE
CNTY .                     :  COUNTY
SRVC .                     :  SERVICE COMPANY
DATE .                     :  DATE
API  .                     :  API NUMBER
UWI  .                     :  UNIQUE WELL ID
~Curve Information Block
#MNEM.UNIT         API CODE   Curve Description
#---------- ----------------  -----------------
DEPTH.M                    :  
ANGLE_FAIL.DEG                  :  Fail Angle
BRIT_IND.                     :  Brittleness Index
BRIT_PR.                     :  Brittleness Index from Poisson's Ratio
BRIT_YM.                     :  Brittleness Index from Young's Modulus
CS   .M/MIN                 :  Compressive Strength
DTCO .US/F                 :  Compressional slowness
DTSM .US/F                 :  Shear slowness
IP   .RAYL/M2                 :  P Impedence
IS   .RAYL/M2                 :  S Impedance
KBULK.                     :  Bulk Mudulus
LAMBDA.                     :  Lambda
LAMRHO.                     :  
MU   .CP                   :  Mu
MURHO.(GF/C3S)2                 :  Mu*Rho
PR   .                     :  Poisson's ratio
PRESS_FG.PSI                  :  Fracture Gradient Pressure
PRESS_OB.PSI                  :  Over-burden Pressure
PRESS_PP.PSI                  :  Pore Pressure
PRESS_SHMAX.PSI                  :  Horizontal Stress (Max)
PRESS_SHMIN.PSI                  :  Horizontal Stress (Min)
PR_STAT.                     :  Poisson's ratio (Static)
PZS  .PSI                  :  Processed Zone Stress
SHMAX_GRAD.                     :  Horizontal Stress Gradient (Max)
SHMIN_GRAD.                     :  Horizontal Stress Gradient (Min)
STRESS_CUM.PSI                  :  Cumulative stress (SHPZ)
UCS_BF.PSI                  :  Uniaxial Compressive Strength (BF)
UCS_LAL.PSI                  :  Uniaxial Compressive Strength (lal)
VP   .FT/S                 :  Compressional velocity
VPVS .                     :  Vp / Vs ratio
VS   .FT/S                 :  Shear velocity
YM   .                     :  Youngs' Modulus
YM_STAT.                     :  Youngs' Modulus (Static)
~Parameter Information Block
#MNEM.UNIT            Value   Description
#---------- ----------------  -----------
ALPHA.                 0.98:  Biot's Constant
CALIB_SHMINPZS.                 6800:  Calibration Factor for processing zones
EXT_FACT.                1e-06:  Extension Factor
PR_FAC.                  0.9:  Poisson's ratio factor
PR_MAX.                  0.4:  Maximum Poisson's ratio
PR_MIN.                  0.1:  Minimum Poisson's ratio
TECT_FACT.                 1.05:  Techtonic Factor
YM_MAX.                    8:  Maximum Youngs' Modulus
YM_MIN.                    1:  Minimum Youngs' Modulus
PROJECT.          RDG_13Jul21:  
SET  .              GEOMECH:  
~Other Information Block
~Ascii Log Data
# ...
    3640.37880 
       43.9754        77.0860        43.1497       111.0223      1399.4084 
       54.9842        98.0375     13649.1523      7655.1084        28.0632 
       28.0632        69.0980        23.7998    0.000630773       0.270551 
     -999.2500     12235.0430      5355.8359     12471.5137      7505.6416 
      0.243496      2383.2021         2.5320         1.5238     12977.6875 
     4043.7263      6589.6602     18187.0430         1.7830     10200.1787 
        8.7716         6.2305
    3640.53120 
       44.0303        71.2127        36.8819       105.5435      1402.0964 
       54.8378       100.7234     13612.6680      7411.2744        30.8074 
       30.8074        75.4507        22.4273    0.000591229       0.289354 
     -999.2500     12235.6504      5355.8506     12461.5889      7716.8735 
      0.260419      2469.7219         2.5299         1.5667     13573.1904 
     3825.2080      6611.1245     18235.5977         1.8368      9928.1797 
        8.3880         5.8638
    3640.68360 
       44.1483        70.7663        35.6083       105.9242      1407.8850 
       54.5243       100.7963     13713.6895      7418.2212        31.7976 
       31.7976        78.0052        22.4321    0.000592338       0.293175 
     -999.2500     12236.2559      5355.8643     12460.0039      7761.2993 
      0.263858      2667.8237         2.5295         1.5756     14058.2471 
     3840.2268      6657.4761     18340.4453         1.8486      9920.9990 
        8.4147         5.8890
    3640.83600 
       44.3132        64.0496        27.4670       100.6323      1416.0161 
       54.0880       104.6182     13973.0234      7224.1055        36.6475 
       36.6475        90.8700        21.0471    0.000561744       0.317599 
     -999.2500     12236.8623      5355.8789     12446.0313      8053.4736 
      0.285839      2774.9294         2.5265         1.6348     14856.8066 
     3633.6948      6722.8779     18488.3887         1.9342      9558.5664 
        8.0443         5.5425
    3640.98840 
       44.1725        72.5325        36.0050       109.0600      1409.0779 
       54.4600       100.4735     14010.8379      7594.3428        32.3385 
       32.3385        80.9555        23.0385    0.000620798       0.291985 
     -999.2500     12237.4697      5355.8936     12461.9316      7748.2314 
      0.262787      2836.6709         2.5296         1.5728     14369.8047 
     3964.8687      6667.0488     18362.1016         1.8449      9952.8730 
        8.6342         6.0982
    3641.14080 
       44.6417        69.4945        29.7185       109.2706      1432.3500 
       53.2257       101.5946     14471.2383      7581.5234        37.3788 
       37.3788        94.4577        22.7458    0.000618704       0.310845 
     -999.2500     12238.0752      5355.9077     12451.3740      7972.0991 
      0.279760      2805.6643         2.5274         1.6182     14755.5264 
     3973.3005      6855.2910     18787.9160         1.9088      9843.0439 
        8.6489         6.1123
    3641.29320 
       44.7905        73.4710        32.5839       114.3581      1439.8088 
       52.8381        99.2516     14581.2588      7762.5547        36.4356 
       36.4356        92.0986        23.8387    0.000648604       0.302248 
     -999.2500     12238.6816      5355.9219     12457.1357      7869.5869 
      0.272023      2679.9258         2.5284         1.5973     14299.0254 
     4179.2827      6916.2183     18925.7363         1.8784     10075.4043 
        9.0051         6.4580
    3641.44560 
       44.4624        75.9762        37.3518       114.6005      1423.4126 
       53.6952        98.3938     14285.0449      7795.5967        32.7911 
       32.7911        82.5199        24.1489    0.000654137       0.287945 
     -999.2500     12239.2881      5355.9365     12466.1113      7702.8325 
      0.259150      2518.1055         2.5302         1.5634     13641.8760 
     4189.2114      6782.6680     18623.6387         1.8325     10163.2422 
        9.0220         6.4746
    3641.59800 
       44.3107        79.5771        42.1266       117.0277      1415.8943 
       54.0945        96.8983     14168.3857      7909.6514        30.0723 
       30.0723        75.6180        24.8803    0.000673418       0.273620 
     -999.2500     12239.8945      5355.9502     12474.8027      7541.7236 
      0.246258      2423.1016         2.5318         1.5306     13129.6504 
     4289.1416      6721.8955     18486.1680         1.7913     10320.0986 
        9.1919         6.6423
    3641.75040 
       44.3343        81.4916        43.9892       118.9939      1417.0625 
       54.0322        95.9809     14188.0518      7987.1265        29.3076 
       29.3076        73.7124        25.3642    0.000686675       0.268032 
     -999.2500     12240.5010      5355.9648     12478.4971      7480.5728 
      0.241229      2553.9604         2.5324         1.5181     13269.0654 
     4370.8384      6731.3184     18507.4824         1.7764     10418.7393 
        9.3296         6.7794
    3641.90280 
       44.3525        82.9094        45.9435       119.8753      1417.9598 
       53.9844        95.0852     14094.1279      8001.9087        28.2755 
       28.2755        70.5834        25.6505    0.000689219       0.262170 
     -999.2500     12241.1064      5355.9785     12482.3037      7417.1548 
      0.235953      2576.3093         2.5331         1.5052     13186.9287 
     4407.6709      6738.5625     18523.8691         1.7613     10516.8848 
        9.3913         6.8412
    3642.05520 
       44.3635        82.6502        45.8891       119.4114      1418.5049 
       53.9554        95.0562     14042.5586      7970.7778        28.2110 
       28.2110        70.1269        25.5585    0.000683867       0.262333 
     -999.2500     12241.7139      5355.9922     12482.8457      7419.0688 
      0.236099      2739.4131         2.5331         1.5055     13516.9639 
     4388.2666      6742.9644     18533.8262         1.7618     10520.0928 
        9.3588         6.8086
    3642.20760 
       44.3658        83.6433        46.3775       120.9091      1418.6196 
       53.9493        94.8479     14155.7285      8051.7505        28.2266 
       28.2266        70.7233        25.8748    0.000697832       0.260868 
     -999.2500     12242.3193      5356.0068     12484.2549      7403.6133 
      0.234781      3025.4805         2.5333         1.5023     14058.1875 
     4451.0439      6743.8911     18535.9219         1.7581     10543.1963 
        9.4636         6.9140
    3642.36000 
       44.3757        86.5604        48.5396       124.5811      1419.1106 
       53.9232        93.9514     14347.3604      8234.6357        27.6681 
       27.6681        70.2283        26.7151    0.000729892       0.254381 
     -999.2500     12242.9258      5356.0210     12488.3281      7334.8794 
      0.228943      3079.2959         2.5340         1.4883     14028.3516 
     4606.5869      6747.8569     18544.8945         1.7423     10643.8008 
        9.7207         7.1750
    3642.51240 
       44.3746      -999.2500       117.8382      -999.2500      1419.0559 
       53.9261      -999.2500     14375.6396      -999.2500      -999.2500 
     -999.2500      -999.2500      -999.2500 -999.250000000       0.046485 
     -999.2500     12243.5332      5356.0347      -999.2500      -999.2500 
      0.041837      2982.0117      -999.2500      -999.2500      -999.2500 
     -999.2500      6747.4160     18543.8945         1.4500      -999.2500 
     -999.2500      -999.2500
    3642.66480 
       44.3867      -999.2500       117.8382      -999.2500      1419.6526 
       53.8944      -999.2500     14359.4941      -999.2500      -999.2500 
     -999.2500      -999.2500      -999.2500 -999.250000000       0.046485 
     -999.2500     12244.1387      5356.0488      -999.2500      -999.2500 
      0.041837      3006.7031      -999.2500      -999.2500      -999.2500 
     -999.2500      6752.2378     18554.8027         1.4500      -999.2500 
     -999.2500      -999.2500
