~Version Information Block
VERS .                  2.0:  CWLS LOG ASCII STANDARD - VERSION 2.0
WRAP .                  YES:  Multiple lines per depth step
~Well Information Block
#MNEM.UNIT        Data Type   Information
#---------- ----------------  -----------
STRT .M          2656.78920:  START DEPTH
STOP .M          3640.98840:  STOP DEPTH
STEP .M             0.15240:  STEP
NULL .              -999.25:  NULL VALUE
COMP .                     :  COMPANY
WELL .       RAAG-98-07-214:  WELL
FLD  .                     :  FIELD
LOC  .                     :  LOCATION
CTRY .                     :  COUNTRY
STAT .                     :  STATE
CNTY .                     :  COUNTY
SRVC .                     :  SERVICE COMPANY
DATE .                     :  DATE
API  .                     :  API NUMBER
UWI  .                     :  UNIQUE WELL ID
~Curve Information Block
#MNEM.UNIT         API CODE   Curve Description
#---------- ----------------  -----------------
DEPTH.M                    :  
ANGLE_FAIL.DEG                  :  Fail Angle
BRIT_IND.                     :  Brittleness Index
BRIT_PR.                     :  Brittleness Index from Poisson's Ratio
BRIT_YM.                     :  Brittleness Index from Young's Modulus
CS   .M/MIN                 :  Compressive Strength
IP   .RAYL/M2                 :  P Impedence
IS   .RAYL/M2                 :  S Impedance
KBULK.                     :  Bulk Mudulus
LAMBDA.                     :  Lambda
LAMRHO.                     :  
MU   .CP                   :  Mu
MURHO.(GF/C3S)2                 :  Mu*Rho
PR   .                     :  Poisson's ratio
PRESS_FG.PSI                  :  Fracture Gradient Pressure
PRESS_OB.PSI                  :  Over-burden Pressure
PRESS_PP.PSI                  :  Pore Pressure
PRESS_SHMAX.PSI                  :  Horizontal Stress (Max)
PRESS_SHMIN.PSI                  :  Horizontal Stress (Min)
PR_STAT.                     :  Poisson's ratio (Static)
PZS  .PSI                  :  Processed Zone Stress
SHMAX_GRAD.                     :  Horizontal Stress Gradient (Max)
SHMIN_GRAD.                     :  Horizontal Stress Gradient (Min)
STRESS_CUM.PSI                  :  Cumulative stress (SHPZ)
UCS_BF.PSI                  :  Uniaxial Compressive Strength (BF)
UCS_LAL.PSI                  :  Uniaxial Compressive Strength (lal)
VP   .FT/S                 :  Compressional velocity
VPVS .                     :  Vp / Vs ratio
VS   .FT/S                 :  Shear velocity
YM   .                     :  Youngs' Modulus
YM_STAT.                     :  Youngs' Modulus (Static)
~Parameter Information Block
#MNEM.UNIT            Value   Description
#---------- ----------------  -----------
PROJECT.          RDG_13Jul21:  
SET  .              GEOMECH:  
~Other Information Block
~Ascii Log Data
# ...
    3501.39000 
       44.2314        76.8961        34.0580       119.7342      1411.9792 
    15419.7178      8274.0234        36.7094        36.7094       100.8488 
       24.9195    0.000736892       0.297826      -999.2500     11909.8613 
     5345.3062     12120.8135      7690.8296       0.268043      2142.8291 
        2.5205         1.5993     12867.3174      4401.7666      6690.3647 
    18414.8438         1.8636      9881.1689         9.3814         6.8313
    3501.54240 
       44.2338        77.4054        34.3237       120.4872      1412.0956 
    15470.7207      8313.0205        36.6948        36.6948       101.1306 
       25.0750    0.000743854       0.297029      -999.2500     11910.4580 
     5345.3306     12121.8701      7682.2021       0.267326      2332.7065 
        2.5207         1.5975     13229.8184      4433.3228      6691.3008 
    18416.9590         1.8610      9896.1494         9.4341         6.8842
    3501.69480 
       44.1646        76.7967        34.3871       119.2062      1408.6899 
    15367.3613      8260.2354        36.2940        36.2940        99.6928 
       24.8403    0.000734438       0.296839      -999.2500     11911.0527 
     5345.3555     12122.5967      7680.1807       0.267155      2474.4934 
        2.5207         1.5970     13509.3486      4379.6968      6663.9351 
    18355.0566         1.8604      9866.1748         9.3444         6.7943
    3501.84720 
       43.5452        77.2484        39.0631       115.4337      1378.5315 
    14841.4893      8167.3257        31.7751        31.7751        86.8594 
       24.4022    0.000718009       0.282811      -999.2500     11911.6494 
     5345.3799     12130.9473      7525.6890       0.254530      2480.0962 
        2.5223         1.5648     13211.5713      4223.4004      6424.2192 
    17812.8066         1.8172      9802.4512         9.0804         6.5320
    3501.99960 
       43.0982        76.9525        42.0258       111.8793      1357.1528 
    14443.6191      8059.5923        28.9570        28.9570        78.7041 
       23.8992    0.000699192       0.273923      -999.2500     11912.2451 
     5345.4043     12136.3350      7430.4507       0.246530      2351.5237 
        2.5233         1.5449     12763.9482      4078.3704      6257.1313 
    17434.8438         1.7921      9728.7061         8.8316         6.2886
    3502.15200 
       42.7043        76.5546        44.4357       108.6735      1338.5691 
    14117.3877      7962.9751        26.7769        26.7769        72.4827 
       23.4249    0.000682528       0.266693      -999.2500     11912.8398 
     5345.4287     12140.7588      7354.4634       0.240024      2124.1182 
        2.5241         1.5290     12157.1621      3949.4163      6113.7974 
    17110.6133         1.7729      9651.3174         8.6071         6.0722
    3502.30440 
       42.3224        75.5862        46.5592       104.6131      1320.7775 
    13717.3848      7808.4316        24.7268        24.7268        66.2234 
       22.7658    0.000656293       0.260322      -999.2500     11913.4365 
     5345.4531     12144.6836      7288.4902       0.234290      1862.1394 
        2.5248         1.5153     11501.2588      3788.6106      5978.2354 
    16803.9629         1.7567      9565.4238         8.3229         5.8024
    3502.45680 
       41.5832        71.1519        47.3701        94.9337      1286.9448 
    12981.9775      7415.0356        22.3185        22.3185        58.5662 
       20.9529    0.000591829       0.257890      -999.2500     11914.0313 
     5345.4780     12146.5830      7262.9985       0.232101      1556.8446 
        2.5251         1.5099     10839.6865      3416.6538      5724.9189 
    16230.9473         1.7508      9270.7793         7.6454         5.1783
    3502.60920 
       40.8134        60.1735        40.0310        80.3161      1252.5260 
    12224.7695      6758.4868        22.6838        22.6838        58.0907 
       17.8364    0.000491665       0.279907      -999.2500     11914.6279 
     5345.5020     12135.7354      7492.4702       0.251916      1286.9293 
        2.5228         1.5575     10758.7988      2885.3188      5473.2036 
    15661.5518         1.8088      8658.5186         6.6221         4.2867
    3502.76160 
       40.0413        50.3428        33.3511        67.3345      1218.7932 
    11507.2734      6151.4834        22.7173        22.7173        56.7359 
       15.1516    0.000407314       0.299947      -999.2500     11915.2227 
     5345.5264     12125.3691      7712.3013       0.269952      1055.9237 
        2.5205         1.6031     10736.4492      2444.1086      5232.3418 
    15116.7090         1.8707      8080.9907         5.7134         3.5463
    3502.91400 
       38.7738        48.4229        37.4976        59.3481      1165.0406 
    10635.2861      5808.0605        18.6732        18.6732        45.6422 
       13.8011    0.000363105       0.287507      -999.2500     11915.8193 
     5345.5508     12132.9229      7573.7388       0.258756       865.0157 
        2.5219         1.5743     10077.5088      2186.9988      4860.3994 
    14275.3525         1.8311      7795.9453         5.1544         3.1149
    3503.06640 
       37.6614        49.8627        44.9656        54.7599      1119.4183 
     9949.6885      5625.1592        14.8640        14.8640        35.7115 
       13.1703    0.000340596       0.265103      -999.2500     11916.4150 
     5345.5752     12145.4873      7334.9668       0.238593       713.7228 
        2.5244         1.5246      9297.3799      2044.2242      4556.0757 
    13586.9541         1.7688      7681.5244         4.8332         2.8753
    3503.21880 
       37.4379        49.1556        45.4799        52.8314      1110.4199 
     9735.9082      5516.5566        14.2884        14.2884        33.9231 
       12.8181    0.000327572       0.263560      -999.2500     11917.0107 
     5345.5996     12146.9072      7319.0649       0.237204       620.8931 
        2.5246         1.5212      9079.9160      1985.2889      4497.2764 
    13453.9463         1.7649      7623.2695         4.6982         2.7764
    3503.37120 
       37.7490        47.1028        41.8678        52.3378      1122.9622 
     9759.9521      5442.1553        15.3442        15.3442        36.0226 
       12.6157    0.000318795       0.274397      -999.2500     11917.6064 
     5345.6235     12141.8535      7432.6763       0.246957       559.1894 
        2.5235         1.5447      9183.7314      1970.3085      4579.3438 
    13639.5869         1.7934      7605.4419         4.6636         2.7513
    3503.52360 
       38.1511        45.4836        38.2728        52.6945      1139.3334 
     9888.8652      5421.0605        16.6963        16.6963        39.0139 
       12.5768    0.000316329       0.285182      -999.2500     11918.2031 
     5345.6479     12136.6738      7548.7861       0.256664       540.4022 
        2.5223         1.5688      9378.3770      1981.1309      4687.6421 
    13884.5645         1.8242      7611.4966         4.6886         2.7695
    3503.67600 
       38.5285        45.7935        37.2867        54.3004      1154.8594 
    10031.4932      5472.5894        17.4749        17.4749        40.7324 
       12.8487    0.000322371       0.288140      -999.2500     11918.7979 
     5345.6719     12135.6660      7581.4341       0.259326       559.8711 
        2.5219         1.5755      9482.6094      2030.1240      4791.5845 
    14119.6885         1.8330      7702.8667         4.8010         2.8517
    3503.82840 
       38.8346        47.0637        37.3365        56.7908      1167.5743 
    10250.5420      5593.4746        18.0894        18.0894        42.4997 
       13.3168    0.000336770       0.287990      -999.2500     11919.3945 
     5345.6963     12136.3545      7580.1929       0.259191       583.4317 
        2.5220         1.5752      9527.2490      2106.9780      4877.6060 
    14314.2744         1.8326      7810.9565         4.9754         2.9806
