~Version Information Block
VERS .                  2.0:  CWLS LOG ASCII STANDARD - VERSION 2.0
WRAP .                  YES:  Multiple lines per depth step
~Well Information Block
#MNEM.UNIT        Data Type   Information
#---------- ----------------  -----------
STRT .M          2738.62800:  START DEPTH
STOP .M          3798.57000:  STOP DEPTH
STEP .M             0.15240:  STEP
NULL .              -999.25:  NULL VALUE
COMP .                     :  COMPANY
WELL .      RAAG-106-07-211:  WELL
FLD  .                     :  FIELD
LOC  .                     :  LOCATION
CTRY .                     :  COUNTRY
STAT .                     :  STATE
CNTY .                     :  COUNTY
SRVC .                     :  SERVICE COMPANY
DATE .                     :  DATE
API  .                     :  API NUMBER
UWI  .                     :  UNIQUE WELL ID
~Curve Information Block
#MNEM.UNIT         API CODE   Curve Description
#---------- ----------------  -----------------
DEPTH.M                    :  
ANGLE_FAIL.DEG                  :  Fail Angle
BRIT_IND.                     :  Brittleness Index
BRIT_PR.                     :  Brittleness Index from Poisson's Ratio
BRIT_YM.                     :  Brittleness Index from Young's Modulus
CS   .M/MIN                 :  Compressive Strength
DTCO .US/F                 :  Compressional slowness
DTSM .US/F                 :  Fast Shear Slowness
IP   .RAYL/M2                 :  P Impedence
IS   .RAYL/M2                 :  S Impedance
KBULK.                     :  Bulk Mudulus
LAMBDA.                     :  Lambda
LAMRHO.                     :  
MU   .CP                   :  Mu
MURHO.(GF/C3S)2                 :  Mu*Rho
PR   .                     :  Poisson's ratio
PRESS_FG.PSI                  :  Fracture Gradient Pressure
PRESS_OB.PSI                  :  Over-burden Pressure
PRESS_PP.PSI                  :  Pore Pressure
PRESS_SHMAX.PSI                  :  Horizontal Stress (Max)
PRESS_SHMIN.PSI                  :  Horizontal Stress (Min)
PR_STAT.                     :  Poisson's ratio (Static)
PZS  .PSI                  :  Processed Zone Stress
SHMAX_GRAD.                     :  Horizontal Stress Gradient (Max)
SHMIN_GRAD.                     :  Horizontal Stress Gradient (Min)
STRESS_CUM.PSI                  :  Cumulative stress (SHPZ)
UCS_BF.PSI                  :  Uniaxial Compressive Strength (BF)
UCS_LAL.PSI                  :  Uniaxial Compressive Strength (lal)
VP   .FT/S                 :  Compressional velocity
VPVS .                     :  Vp / Vs ratio
VS   .FT/S                 :  Shear velocity
YM   .                     :  Youngs' Modulus
YM_STAT.                     :  Youngs' Modulus (Static)
~Parameter Information Block
#MNEM.UNIT            Value   Description
#---------- ----------------  -----------
PROJECT.          RDG_13Jul21:  
SET  .              GEOMECH:  
~Other Information Block
~Ascii Log Data
# ...
    3728.61840 
       41.7271        69.5726        42.6360        96.5092      1293.4698 
       61.1979       109.3692     13478.0518      7541.6885        25.0926 
       25.0926        67.9037        21.0179    0.000612220       0.272092 
     -999.2500     12189.1836      5355.9229     12423.3154      7506.5444 
      0.244883      3065.1658         2.5306         1.5291     14343.4209 
     3476.1047      5773.3188     16340.4297         1.7871      9143.3418 
        7.7556         5.2780
    3728.77080 
       42.1290        70.1286        39.9841       100.2730      1311.8491 
       60.0548       108.6514     13928.2734      7698.5630        27.4975 
       27.4975        75.4610        21.5968    0.000637954       0.280048 
     -999.2500     12189.7803      5355.9385     12419.5127      7595.1299 
      0.252043      3034.1082         2.5297         1.5471     14458.4756 
     3619.8499      5910.8169     16651.4590         1.8092      9203.7471 
        8.0191         5.5192
    3728.92320 
       42.0104        69.3037        38.9855        99.6219      1306.4034 
       60.3905       109.7814     14027.2451      7716.3555        27.9498 
       27.9498        77.6793        21.4239    0.000640906       0.283044 
     -999.2500     12190.3779      5355.9541     12418.4521      7628.8887 
      0.254739      2833.8115         2.5294         1.5539     14125.4014 
     3594.8076      5869.8970     16558.8965         1.8179      9109.0107 
        7.9735         5.4772
    3729.07560 
       41.3160        67.5679        40.8025        94.3333      1274.9063 
       62.3821       112.4285     13638.8770      7567.6699        25.6070 
       25.6070        71.4797        20.5164    0.000616445       0.277593 
     -999.2500     12190.9746      5355.9697     12422.1387      7567.6870 
      0.249833      2718.3411         2.5300         1.5413     13772.0557 
     3394.1106      5636.1914     16030.2402         1.8023      8894.5420 
        7.6033         5.1404
    3729.22800 
       40.2989        65.8157        45.0616        86.5698      1229.9594 
       65.3782       115.5917     12902.2344      7297.4517        21.6667 
       21.6667        59.9621        19.2424    0.000573208       0.264815 
     -999.2500     12191.5723      5355.9854     12429.7793      7427.4346 
      0.238334      2789.3401         2.5315         1.5127     13633.5488 
     3108.1587      5311.4341     15295.6182         1.7680      8651.1406 
        7.0599         4.6606
    3729.38040 
       39.3177        64.6201        50.1336        79.1066      1187.8688 
       68.3590       118.3381     12121.7734      7002.2451        17.9778 
       17.9778        48.8745        18.0355    0.000527770       0.249599 
     -999.2500     12192.1709      5356.0010     12438.4814      7265.9453 
      0.224639      2887.2747         2.5332         1.4797     13506.4395 
     2842.9956      5016.5840     14628.6514         1.7311      8450.3643 
        6.5375         4.2157
    3729.53280 
       38.5897        64.0479        54.5959        73.4999      1157.3939 
       70.6298       120.1841     11497.6338      6756.9302        15.3449 
       15.3449        40.8834        17.1363    0.000491438       0.236212 
     -999.2500     12192.7676      5356.0166     12445.9756      7128.6011 
      0.212591      2873.1978         2.5346         1.4517     13203.5977 
     2650.0586      4808.6670     14158.3301         1.7016      8320.5684 
        6.1450         3.8919
    3729.68520 
       38.2052        64.1034        57.5450        70.6619      1141.5471 
       71.8498       120.9545     11157.5352      6627.8369        13.9286 
       13.9286        36.6342        16.7019    0.000472839       0.227365 
     -999.2500     12193.3652      5356.0322     12451.0215      7040.2324 
      0.204629      2779.2061         2.5355         1.4337     12838.8770 
     2554.4512      4702.3892     13917.9238         1.6834      8267.5713 
        5.9463         3.7315
    3729.83760 
       38.2267        64.3151        57.9810        70.6492      1142.4302 
       71.7811       120.6520     11122.6094      6617.3218        13.7950 
       13.7950        36.1345        16.7172    0.000471340       0.226057 
     -999.2500     12193.9619      5356.0474     12452.2861      7027.4844 
      0.203451      2552.6902         2.5356         1.4310     12360.3496 
     2554.0249      4708.2778     13931.2441         1.6808      8288.2998 
        5.9454         3.7308
    3729.99000 
       38.6420        64.2094        55.6257        72.7932      1159.5620 
       70.4650       119.4485     11320.5322      6678.2021        14.8856 
       14.8856        38.9577        17.0410    0.000480053       0.233123 
     -999.2500     12194.5586      5356.0625     12449.3857      7098.0127 
      0.209811      2703.2395         2.5349         1.4453     12802.5039 
     2626.1226      4823.3052     14191.4424         1.6951      8371.8086 
        6.0955         3.8518
    3730.14240 
       39.3002        64.1031        51.8292        76.3771      1187.1301 
       68.4129       117.6432     11668.0303      6785.2944        16.8247 
       16.8247        44.0625        17.5799    0.000495573       0.244513 
     -999.2500     12195.1563      5356.0781     12444.2119      7214.0425 
      0.220061      3000.0085         2.5338         1.4689     13628.1016 
     2748.3943      5011.4888     14617.1250         1.7196      8500.2793 
        6.3464         4.0569
    3730.29480 
       40.0215        64.1723        48.0481        80.2965      1217.9398 
       66.2116       115.5951     12033.3477      6892.5693        19.0461 
       19.0461        49.7864        18.1743    0.000511367       0.255856 
     -999.2500     12195.7529      5356.0938     12438.9053      7332.7188 
      0.230270      3039.2810         2.5326         1.4930     13944.0000 
     2884.6309      5226.3232     15103.0938         1.7458      8650.8857 
        6.6208         4.2855
    3730.44720 
       40.7195        64.1479        44.6120        83.6837      1248.3800 
       64.1277       113.6029     12328.3740      6959.2437        21.2532 
       21.2532        55.1267        18.6719    0.000521308       0.266164 
     -999.2500     12196.3496      5356.1089     12434.0000      7443.3516 
      0.239547      2851.3728         2.5315         1.5154     13789.4482 
     3004.4861      5443.2900     15593.8848         1.7715      8802.5928 
        6.8579         4.4867
    3730.59960 
       41.3421        63.6424        41.6845        85.6002      1276.0773 
       62.3065       111.8344     12450.9316      6936.8101        23.0973 
       23.0973        58.7870        18.9060    0.000517952       0.274946 
     -999.2500     12196.9482      5356.1245     12429.8086      7539.7295 
      0.247452      2631.1731         2.5305         1.5350     13541.8047 
     3073.1704      5644.7900     16049.6895         1.7949      8941.7930 
        6.9920         4.6019
    3730.75200 
       41.7976        63.4194        40.1533        86.6856      1296.6763 
       60.9964       110.2667     12453.7637      6889.0674        24.1460 
       24.1460        60.1777        19.0428    0.000510847       0.279540 
     -999.2500     12197.5459      5356.1396     12427.8701      7591.0659 
      0.251586      2315.1353         2.5300         1.5453     13012.4023 
     3112.3477      5797.1821     16394.4102         1.8078      9068.9209 
        7.0680         4.6676
    3730.90440 
       42.0346        64.3253        40.6667        87.9839      1307.5114 
       60.3220       108.7847     12429.3350      6892.1670        24.1821 
       24.1821        59.4844        19.3109    0.000511307       0.278000 
     -999.2500     12198.1426      5356.1553     12429.3398      7574.2041 
      0.250200      2069.5515         2.5302         1.5418     12487.5107 
     3159.4768      5878.2100     16577.6992         1.8034      9192.4697 
        7.1589         4.7467
