~Version Information Block
VERS .                  2.0:  CWLS LOG ASCII STANDARD - VERSION 2.0
WRAP .                  YES:  Multiple lines per depth step
~Well Information Block
#MNEM.UNIT        Data Type   Information
#---------- ----------------  -----------
STRT .M          2784.04320:  START DEPTH
STOP .M          3715.96920:  STOP DEPTH
STEP .M             0.15240:  STEP
NULL .              -999.25:  NULL VALUE
COMP .                     :  COMPANY
WELL .      RAAG-101-02-104:  WELL
FLD  .                     :  FIELD
LOC  .                     :  LOCATION
CTRY .                     :  COUNTRY
STAT .                     :  STATE
CNTY .                     :  COUNTY
SRVC .                     :  SERVICE COMPANY
DATE .                     :  DATE
API  .                     :  API NUMBER
UWI  .                     :  UNIQUE WELL ID
~Curve Information Block
#MNEM.UNIT         API CODE   Curve Description
#---------- ----------------  -----------------
DEPTH.M                    :  
ANGLE_FAIL.DEG                  :  Fail Angle
BRIT_IND.                     :  Brittleness Index
BRIT_PR.                     :  Brittleness Index from Poisson's Ratio
BRIT_YM.                     :  Brittleness Index from Young's Modulus
CS   .M/MIN                 :  Compressive Strength
DTCO .US/F                 :  Compressional slowness
DTSM .US/F                 :  Fast Shear slowness
IP   .RAYL/M2                 :  P Impedence
IS   .RAYL/M2                 :  S Impedance
KBULK.                     :  Bulk Mudulus
LAMBDA.                     :  Lambda
LAMRHO.                     :  
MU   .CP                   :  Mu
MURHO.(GF/C3S)2                 :  Mu*Rho
PR   .                     :  Poisson's ratio
PRESS_FG.PSI                  :  Fracture Gradient Pressure
PRESS_OB.PSI                  :  Over-burden Pressure
PRESS_PP.PSI                  :  Pore Pressure
PRESS_SHMAX.PSI                  :  Horizontal Stress (Max)
PRESS_SHMIN.PSI                  :  Horizontal Stress (Min)
PR_STAT.                     :  Poisson's ratio (Static)
PZS  .PSI                  :  Processed Zone Stress
SHMAX_GRAD.                     :  Horizontal Stress Gradient (Max)
SHMIN_GRAD.                     :  Horizontal Stress Gradient (Min)
STRESS_CUM.PSI                  :  Cumulative stress (SHPZ)
UCS_BF.PSI                  :  Uniaxial Compressive Strength (BF)
UCS_LAL.PSI                  :  Uniaxial Compressive Strength (lal)
VP   .FT/S                 :  Compressional velocity
VPVS .                     :  Vp / Vs ratio
VS   .FT/S                 :  Shear velocity
YM   .                     :  Youngs' Modulus
YM_STAT.                     :  Youngs' Modulus (Static)
~Parameter Information Block
#MNEM.UNIT            Value   Description
#---------- ----------------  -----------
PROJECT.          RDG_13Jul21:  
SET  .              GEOMECH:  
~Other Information Block
~Ascii Log Data
# ...
    3125.41920 
       40.1744        67.0719        46.1136        88.0302      1224.5536 
       65.7513       115.7267     13077.8379      7430.3062        21.4845 
       21.4845        60.6109        19.5699         0.0006       0.261659 
     -999.2500     10691.0605      5253.9297     10882.5010      6862.2471 
      0.235493      2548.0996         2.4926         1.5718     12020.6934 
     3161.1611      5273.0645     15208.8252         1.7601      8641.0479 
        7.1621         4.7496
    3125.57160 
       40.1126        66.8043        45.8451        87.7636      1221.8751 
       65.9372       116.1871     13102.3271      7435.6855        21.5537 
       21.5537        61.0921        19.5064         0.0006       0.262465 
     -999.2500     10691.6514      5253.9946     10882.7666      6869.3398 
      0.236218      2844.2024         2.4926         1.5734     12627.0850 
     3151.4604      5254.1084     15165.9453         1.7621      8606.8066 
        7.1435         4.7333
    3125.72400 
       40.0681        64.9937        43.5604        86.4270      1219.9507 
       66.0712       117.5899     13146.5996      7386.7876        22.3540 
       22.3540        63.7038        19.1470         0.0006       0.269319 
     -999.2500     10692.2412      5254.0591     10880.4238      6928.6016 
      0.242387      2820.8728         2.4919         1.5868     12698.9482 
     3102.9954      5240.5112     15135.1875         1.7797      8504.1318 
        7.0499         4.6520
    3125.87640 
       40.1073        62.4835        40.2067        84.7604      1221.6478 
       65.9530       119.1970     13204.0176      7305.9272        23.6579 
       23.6579        67.5929        18.6821         0.0006       0.279380 
     -999.2500     10692.8330      5254.1235     10876.6104      7017.2915 
      0.251442      2432.3752         2.4909         1.6071     12099.3340 
     3042.9968      5252.5020     15162.3115         1.8073      8389.4727 
        6.9332         4.5513
    3126.02880 
       40.3197        60.4457        36.7765        84.1150      1230.8674 
       65.3158       120.0323     13325.0713      7250.8623        25.3578 
       25.3578        72.4075        18.4122         0.0006       0.289671 
     -999.2500     10693.4238      5254.1885     10872.5781      7110.3423 
      0.260704      2331.5049         2.4899         1.6283     12083.6943 
     3019.8884      5317.8931     15310.2305         1.8377      8331.0908 
        6.8880         4.5125
    3126.18120 
       40.7370        59.7541        33.8694        85.6388      1249.1503 
       64.0761       119.5334     13586.9160      7283.2920        27.4873 
       27.4873        78.5116        18.5718         0.0006       0.298392 
     -999.2500     10694.0146      5254.2529     10869.1523      7191.2656 
      0.268553      2814.2751         2.4890         1.6468     13211.0820 
     3074.5610      5448.8408     15606.4424         1.8655      8365.8623 
        6.9947         4.6042
    3126.33360 
       41.2004        60.5826        32.7752        88.3900      1269.7258 
       62.7180       117.6879     13791.4258      7349.6987        28.9543 
       28.9543        82.1673        19.0350         0.0006       0.301674 
     -999.2500     10694.6055      5254.3174     10868.2100      7222.5239 
      0.271507      2572.4084         2.4886         1.6538     12789.8652 
     3174.2788      5598.2378     15944.3867         1.8765      8497.0498 
        7.1873         4.7716
    3126.48600 
       41.5086        62.7834        34.0593        91.5076      1283.5725 
       61.8255       115.2191     13857.8691      7436.0044        28.9770 
       28.9770        81.4522        19.6712         0.0006       0.297822 
     -999.2500     10695.1973      5254.3818     10870.6094      7186.9570 
      0.268040      2501.9224         2.4891         1.6456     12577.7588 
     3288.8376      5699.9897     16174.5547         1.8636      8679.1172 
        7.4055         4.9638
    3126.63840 
       41.7048        65.0305        35.7256        94.3354      1292.4561 
       61.2618       113.1835     13909.9004      7528.8843        28.6567 
       28.6567        80.1171        20.2751         0.0006       0.292823 
     -999.2500     10695.7881      5254.4463     10873.5215      7141.1191 
      0.263541      2455.0227         2.4896         1.6350     12392.2842 
     3394.1899      5765.7842     16323.3867         1.8475      8835.2100 
        7.6035         5.1406
    3126.79080 
       41.8022        66.6995        36.8019        96.5970      1296.8884 
       60.9831       112.0557     14016.5615      7628.1118        28.5582 
       28.5582        80.0878        20.7490         0.0006       0.289594 
     -999.2500     10696.3789      5254.5112     10875.6016      7111.9346 
      0.260635      2636.8831         2.4900         1.6283     12697.6348 
     3479.4309      5798.7627     16397.9863         1.8375      8924.1328 
        7.7618         5.2836
    3126.94320 
       41.7432        67.0723        36.9648        97.1798      1294.2006 
       61.1519       112.2742     14111.5361      7686.0688        28.6043 
       28.6043        80.9841        20.8660         0.0006       0.289106 
     -999.2500     10696.9707      5254.5757     10876.4307      7107.7695 
      0.260195      2803.8716         2.4900         1.6272     13023.2822 
     3501.5383      5778.7524     16352.7217         1.8360      8906.7656 
        7.8026         5.3207
    3127.09560 
       41.5069        65.9762        37.1093        94.8432      1283.4958 
       61.8304       113.4380     13953.5459      7605.5049        27.9147 
       27.9147        79.0140        20.4355         0.0006       0.288672 
     -999.2500     10697.5615      5254.6401     10877.2461      7103.8618 
      0.259805      2783.0281         2.4901         1.6263     12973.7793 
     3413.2505      5699.4233     16173.2754         1.8347      8815.3877 
        7.6390         5.1726
    3127.24800 
       41.0483        65.3844        39.8186        90.9501      1262.9437 
       63.1614       114.3616     13472.5596      7440.8345        25.3519 
       25.3519        70.7778        19.8315         0.0006       0.280544 
     -999.2500     10698.1523      5254.7046     10881.5420      7030.3594 
      0.252490      2194.4458         2.4909         1.6094     11649.6104 
     3268.2314      5548.7554     15832.4551         1.8106      8744.1934 
        7.3665         4.9292
    3127.40040 
       40.6491        65.4943        43.4129        87.5757      1245.2803 
       64.3359       114.5768     12959.8379      7277.0654        22.6817 
       22.6817        62.0460        19.3586         0.0006       0.269761 
     -999.2500     10698.7441      5254.7695     10886.9258      6935.1040 
      0.242785      2495.6086         2.4921         1.5875     12061.4258 
     3144.6267      5420.9810     15543.4209         1.7809      8727.7705 
        7.1303         4.7218
    3127.55280 
       40.7292        64.8361        42.9242        86.7480      1248.8099 
       64.0989       114.4049     12848.5391      7198.7930        22.7384 
       22.7384        61.4397        19.1792         0.0006       0.271227 
     -999.2500     10699.3350      5254.8335     10886.8975      6948.0737 
      0.244105      2492.7878         2.4919         1.5904     12081.7236 
     3114.6064      5446.3872     15600.8916         1.7848      8740.8848 
        7.0724         4.6714
    3127.70520 
       41.2190        62.9284        37.8505        88.0063      1270.5577 
       62.6639       114.5457     13181.4063      7211.0806        25.7383 
       25.7383        69.7501        19.1883         0.0006       0.286449 
     -999.2500     10699.9258      5254.8979     10880.7197      7084.0469 
      0.257804      2290.6426         2.4904         1.6214     11949.3789 
     3160.2927      5604.3232     15958.1514         1.8279      8730.1406 
        7.1604         4.7481
