~Version Information Block
VERS .                  2.0:  CWLS LOG ASCII STANDARD - VERSION 2.0
WRAP .                  YES:  Multiple lines per depth step
~Well Information Block
#MNEM.UNIT        Data Type   Information
#---------- ----------------  -----------
STRT .M          2945.58720:  START DEPTH
STOP .M          3894.88680:  STOP DEPTH
STEP .M             0.15240:  STEP
NULL .              -999.25:  NULL VALUE
COMP .                     :  COMPANY
WELL .       RAAG-97-02-106:  WELL
FLD  .                     :  FIELD
LOC  .                     :  LOCATION
CTRY .                     :  COUNTRY
STAT .                     :  STATE
CNTY .                     :  COUNTY
SRVC .                     :  SERVICE COMPANY
DATE .                     :  DATE
API  .                     :  API NUMBER
UWI  .                     :  UNIQUE WELL ID
~Curve Information Block
#MNEM.UNIT         API CODE   Curve Description
#---------- ----------------  -----------------
DEPTH.M                    :  
ANGLE_FAIL.DEG                  :  Fail Angle
BRIT_IND.                     :  Brittleness Index
BRIT_PR.                     :  Brittleness Index from Poisson's Ratio
BRIT_YM.                     :  Brittleness Index from Young's Modulus
CS   .M/MIN                 :  Compressive Strength
DEN  .G/C3                 :  (HDRS-H)                (2in)                   Standard Resolution Formation Density
DTCO .US/F                 :  Compressional slowness
DTSM .US/F                 :  Description
IP   .RAYL/M2                 :  P Impedence
IS   .RAYL/M2                 :  S Impedance
KBULK.                     :  Bulk Mudulus
LAMBDA.                     :  Lambda
LAMRHO.                     :  
MU   .CP                   :  Mu
MURHO.(GF/C3S)2                 :  Mu*Rho
PR   .                     :  Poisson's ratio
PRESS_FG.PSI                  :  Fracture Gradient Pressure
PRESS_OB.PSI                  :  Over-burden Pressure
PRESS_PP.PSI                  :  Pore Pressure
PRESS_SHMAX.PSI                  :  Horizontal Stress (Max)
PRESS_SHMIN.PSI                  :  Horizontal Stress (Min)
PR_STAT.                     :  Poisson's ratio (Static)
PZS  .PSI                  :  Processed Zone Stress
SHMAX_GRAD.                     :  Horizontal Stress Gradient (Max)
SHMIN_GRAD.                     :  Horizontal Stress Gradient (Min)
STRESS_CUM.PSI                  :  Cumulative stress (SHPZ)
UCS_BF.PSI                  :  Uniaxial Compressive Strength (BF)
UCS_LAL.PSI                  :  Uniaxial Compressive Strength (lal)
VP   .FT/S                 :  Compressional velocity
VPVS .                     :  Vp / Vs ratio
VS   .FT/S                 :  Shear velocity
YM   .                     :  Youngs' Modulus
YM_STAT.                     :  Youngs' Modulus (Static)
~Parameter Information Block
#MNEM.UNIT            Value   Description
#---------- ----------------  -----------
PROJECT.          RDG_13Jul21:  
SET  .              GEOMECH:  
~Other Information Block
~Ascii Log Data
# ...
    3808.78080 
       42.5252        70.8787        42.0670        99.6904      1330.2014 
        2.5923        58.9416       105.6096     13405.0908      7481.4990 
       26.1359        26.1359        67.7508        21.5924         0.0006 
      0.273799      -999.2500     12188.0332      5354.6660     12421.2178 
     7524.3599       0.246419      2855.8240         2.5305         1.5329 
    13960.3672      3597.4407      6049.8384     16965.9336         1.7918 
     9468.8369         7.9783         5.4816
    3808.93320 
       42.8225        66.4777        36.4711        96.4843      1344.1205 
        2.5508        58.1157       106.9649     13378.1406      7268.5576 
       28.7404        28.7404        73.3108        20.7120         0.0006 
      0.290587      -999.2500     12188.6387      5354.6816     12412.4268 
     7712.8887       0.261528      3001.6533         2.5286         1.5712 
    14629.0850      3475.1602      6156.4292     17207.0488         1.8405 
     9348.8643         7.7539         5.2764
    3809.08560 
       43.0653        64.5731        33.5457        95.6005      1355.5903 
        2.5315        57.4467       107.3511     13431.7432      7187.7231 
       30.4500        30.4500        77.0850        20.4080         0.0006 
      0.299363      -999.2500     12189.2441      5354.6978     12407.9697 
     7814.7441       0.269427      2991.0068         2.5275         1.5919 
    14811.5010      3441.7625      6245.0112     17407.4277         1.8687 
     9315.2285         7.6920         5.2204
    3809.23800 
       43.2140        64.5132        33.0305        95.9960      1362.6638 
        2.5156        57.0393       106.8846     13442.6484      7173.7148 
       30.9190        30.9190        77.7804        20.4571         0.0006 
      0.300909      -999.2500     12189.8496      5354.7129     12407.6846 
     7833.1523       0.270818      3009.4495         2.5274         1.5956 
    14885.2031      3456.6924      6299.9771     17531.7617         1.8739 
     9355.8848         7.7197         5.2455
    3809.39040 
       43.2894        65.1084        33.3729        96.8438      1366.2611 
        2.5094        56.8336       106.3034     13458.2090      7195.2402 
       30.9154        30.9154        77.5804        20.6307         0.0006 
      0.299881      -999.2500     12190.4570      5354.7290     12408.9102 
     7821.3936       0.269893      3063.9104         2.5275         1.5931 
    14970.6084      3488.7861      6328.0303     17595.2207         1.8704 
     9407.0342         7.7791         5.2993
    3809.54280 
       43.2332        65.9021        34.1087        97.6955      1363.5757 
        2.5268        56.9871       106.1744     13514.9727      7253.9028 
       30.6377        30.6377        77.4163        20.8241         0.0006 
      0.297674      -999.2500     12191.0625      5354.7446     12410.8213 
     7795.8750       0.267907      2908.7542         2.5278         1.5878 
    14609.2578      3521.1489      6307.0825     17547.8340         1.8631 
     9418.4639         7.8387         5.3536
    3809.69520 
       42.9231        67.1214        36.6272        97.6155      1348.8638 
        2.5492        57.8378       106.3696     13433.8652      7304.5791 
       28.9330        28.9330        73.7550        20.9311         0.0006 
      0.290118      -999.2500     12191.6680      5354.7607     12415.8145 
     7708.7422       0.261107      2587.3835         2.5287         1.5700 
    13792.2510      3518.1047      6192.9795     17289.7285         1.8391 
     9401.1797         7.8331         5.3485
    3809.84760 
       42.2399        69.3661        43.0545        95.6777      1316.9628 
        2.5524        59.7418       106.5659     13022.3291      7300.4395 
       24.6778        24.6778        62.9882        20.8807         0.0006 
      0.270836      -999.2500     12192.2744      5354.7759     12427.2402 
     7492.9639       0.243753      2364.6008         2.5309         1.5260 
    12915.1299      3444.6755      5949.3804     16738.6914         1.7838 
     9383.8672         7.6974         5.2253
    3810.00000 
       41.6147        71.6363        49.6718        93.6007      1288.3688 
        2.5502        61.5203       106.6966     12634.8457      7285.1367 
       20.9760        20.9760        53.4929        20.8114         0.0006 
      0.250985      -999.2500     12192.8799      5354.7920     12438.4805 
     7280.8784       0.225886      2422.6780         2.5331         1.4827 
    12607.1123      3366.6855      5735.4624     16254.7959         1.7343 
     9372.3682         7.5520         5.0944
    3810.15240 
       41.4387        72.7551        52.2410        93.2692      1280.4208 
        2.5483        62.0272       106.4922     12522.4258      7293.7769 
       19.7827        19.7827        50.4128        20.8761         0.0006 
      0.243277      -999.2500     12193.4854      5354.8076     12443.0947 
     7201.2915       0.218949      2913.2910         2.5339         1.4665 
    13429.1650      3354.3064      5676.7432     16121.9707         1.7169 
     9390.3574         7.5288         5.0737
    3810.30480 
       41.6678        72.8249        50.8737        94.7760      1290.7756 
        2.5481        61.3679       105.9241     12655.9385      7332.3120 
       20.6611        20.6611        52.6472        21.0990         0.0006 
      0.247379      -999.2500     12194.0918      5354.8232     12441.6035 
     7243.8628       0.222641      2909.6028         2.5335         1.4751 
    13506.9316      3410.7278      5753.3076     16295.1641         1.7261 
     9440.7246         7.6343         5.1683
    3810.45720 
       42.2496        71.6183        46.1252        97.1114      1317.4120 
        2.5332        59.7144       105.0962     12930.3672      7346.8838 
       23.3855        23.3855        59.2410        21.3074         0.0006 
      0.261624      -999.2500     12194.6973      5354.8389     12434.7217 
     7394.2134       0.235462      2816.1863         2.5320         1.5056 
    13620.7998      3498.9402      5952.7739     16746.3672         1.7600 
     9515.0908         7.7978         5.3163
    3810.60960 
       43.0206        70.3194        39.9550       100.6837      1353.4720 
        2.5314        57.5695       104.1693     13402.5098      7406.9390 
       27.6137        27.6137        69.9018        21.6727         0.0006 
      0.280135      -999.2500     12195.3037      5354.8545     12425.2031 
     7597.2969       0.252121      2884.8596         2.5299         1.5469 
    14164.3135      3635.6804      6228.6011     17370.3066         1.8095 
     9599.7539         8.0479         5.5458
    3810.76200 
       43.4844        70.5706        36.6084       104.5328      1375.6062 
        2.5654        56.3039       103.5583     13887.9961      7550.7964 
       30.7344        30.7344        78.8474        22.2240         0.0006 
      0.290175      -999.2500     12195.9102      5354.8701     12420.1270 
     7711.5630       0.261157      3036.8713         2.5288         1.5701 
    14696.8691      3785.4590      6401.2163     17760.7715         1.8393 
     9656.3945         8.3173         5.7971
    3810.91440 
       43.6229        71.3869        35.8189       106.9548      1382.2821 
        2.5990        55.9295       103.2825     14164.0684      7670.1152 
       31.9192        31.9192        82.9595        22.6355         0.0006 
      0.292543      -999.2500     12196.5156      5354.8853     12419.3789 
     7739.2397       0.263289      3079.2878         2.5285         1.5757 
    14837.0547      3881.0073      6453.7744     17879.6602         1.8467 
     9682.1797         8.4868         5.9575
    3811.06680 
       43.4104        72.6614        38.4012       106.9215      1372.0525 
        2.6001        56.5045       103.0085     14025.8662      7693.7778 
       30.1277        30.1277        78.3365        22.7657         0.0006 
      0.284796      -999.2500     12197.1211      5354.9014     12424.4297 
     7650.9517       0.256317      3079.2881         2.5294         1.5576 
    14660.4795      3879.6855      6373.3330     17697.6973         1.8230 
     9707.9326         8.4845         5.9552
