~Version Information Block
VERS .                  2.0:  CWLS LOG ASCII STANDARD - VERSION 2.0
WRAP .                  YES:  Multiple lines per depth step
~Well Information Block
#MNEM.UNIT        Data Type   Information
#---------- ----------------  -----------
STRT .M          2945.58720:  START DEPTH
STOP .M          3894.88680:  STOP DEPTH
STEP .M             0.15240:  STEP
NULL .              -999.25:  NULL VALUE
COMP .                     :  COMPANY
WELL .       RAAG-97-02-106:  WELL
FLD  .                     :  FIELD
LOC  .                     :  LOCATION
CTRY .                     :  COUNTRY
STAT .                     :  STATE
CNTY .                     :  COUNTY
SRVC .                     :  SERVICE COMPANY
DATE .                     :  DATE
API  .                     :  API NUMBER
UWI  .                     :  UNIQUE WELL ID
~Curve Information Block
#MNEM.UNIT         API CODE   Curve Description
#---------- ----------------  -----------------
DEPTH.M                    :  
ANGLE_FAIL.DEG                  :  Fail Angle
BRIT_IND.                     :  Brittleness Index
BRIT_PR.                     :  Brittleness Index from Poisson's Ratio
BRIT_YM.                     :  Brittleness Index from Young's Modulus
CS   .M/MIN                 :  Compressive Strength
DEN  .G/C3                 :  (HDRS-H)                (2in)                   Standard Resolution Formation Density
DTCO .US/F                 :  Compressional slowness
DTSM .US/F                 :  Description
IP   .RAYL/M2                 :  P Impedence
IS   .RAYL/M2                 :  S Impedance
KBULK.                     :  Bulk Mudulus
LAMBDA.                     :  Lambda
LAMRHO.                     :  
MU   .CP                   :  Mu
MURHO.(GF/C3S)2                 :  Mu*Rho
PR   .                     :  Poisson's ratio
PRESS_FG.PSI                  :  Fracture Gradient Pressure
PRESS_OB.PSI                  :  Over-burden Pressure
PRESS_PP.PSI                  :  Pore Pressure
PRESS_SHMAX.PSI                  :  Horizontal Stress (Max)
PRESS_SHMIN.PSI                  :  Horizontal Stress (Min)
PR_STAT.                     :  Poisson's ratio (Static)
PZS  .PSI                  :  Processed Zone Stress
SHMAX_GRAD.                     :  Horizontal Stress Gradient (Max)
SHMIN_GRAD.                     :  Horizontal Stress Gradient (Min)
STRESS_CUM.PSI                  :  Cumulative stress (SHPZ)
UCS_BF.PSI                  :  Uniaxial Compressive Strength (BF)
UCS_LAL.PSI                  :  Uniaxial Compressive Strength (lal)
VP   .FT/S                 :  Compressional velocity
VPVS .                     :  Vp / Vs ratio
VS   .FT/S                 :  Shear velocity
YM   .                     :  Youngs' Modulus
YM_STAT.                     :  Youngs' Modulus (Static)
~Parameter Information Block
#MNEM.UNIT            Value   Description
#---------- ----------------  -----------
PROJECT.          RDG_13Jul21:  
SET  .              GEOMECH:  
~Other Information Block
~Ascii Log Data
# ...
    2987.04000 
       34.0902        42.1309        46.2954        37.9665       981.6171 
        2.4531        85.8447       150.9756      8710.0908      4952.5566 
       10.9289        10.9289        26.8100         9.9986         0.0003 
      0.261114      -999.2500      9007.6084      4985.3755      9150.2598 
     6154.5815       0.235002       689.6771         2.4475         1.6462 
     6888.5176      1552.3762      3699.3274     11648.9385         1.7587 
     6623.5850         3.6577         2.0500
    2987.19240 
       34.0974        42.9693        47.3457        38.5928       981.8843 
        2.4653        85.8185       150.2633      8756.0518      5000.7661 
       10.8112        10.8112        26.6531        10.1438         0.0003 
      0.257963      -999.2500      9008.1826      4985.4966      9151.8428 
     6134.9653       0.232166       726.2115         2.4478         1.6409 
     6922.3545      1569.8534      3700.8989     11652.4932         1.7509 
     6654.9854         3.7015         2.0793
    2987.34480 
       34.1179        42.4504        46.4122        38.4887       982.6412 
        2.4701        85.7444       150.7245      8780.5879      4995.1172 
       11.0102        11.0102        27.1963        10.1013         0.0003 
      0.260763      -999.2500      9008.7568      4985.6172      9151.5488 
     6152.9087       0.234687       684.3449         2.4475         1.6456 
     6874.5073      1566.9435      3705.3528     11662.5684         1.7578 
     6634.6230         3.6942         2.0744
    2987.49720 
       33.9906        41.7192        45.7968        37.6415       977.9463 
        2.4660        86.2056       151.9331      8719.0254      4947.1006 
       10.9790        10.9790        27.0738         9.9246         0.0003 
      0.262610      -999.2500      9009.3301      4985.7383      9151.5547 
     6164.8442       0.236349       612.3609         2.4474         1.6487 
     6754.4102      1543.3344      3677.7720     11600.1787         1.7625 
     6581.8428         3.6349         2.0348
    2987.64960 
       33.7676        41.4417        46.5581        36.3253       969.7570 
        2.4375        87.0176       152.8679      8538.0859      4860.1655 
       10.5256        10.5256        25.6565         9.6906         0.0003 
      0.260326      -999.2500      9009.9033      4985.8599      9152.8730 
     6150.5195       0.234293       566.1030         2.4476         1.6447 
     6633.2451      1506.8979      3629.9192     11491.9336         1.7567 
     6541.5942         3.5428         1.9737
    2987.80200 
       33.6388        42.6646        49.2837        36.0455       965.0447 
        2.4114        87.4892       151.9731      8401.0361      4836.3828 
        9.8681         9.8681        23.7962         9.6999         0.0003 
      0.252149      -999.2500      9010.4785      4985.9805      9156.0283 
     6099.4644       0.226934       568.6850         2.4483         1.6310 
     6536.2983      1499.1904      3602.5298     11429.9766         1.7370 
     6580.1099         3.5232         1.9608
    2987.95440 
       33.5831        43.9892        51.9148        36.0636       963.0117 
        2.3886        87.6937       150.7485      8302.2031      4829.5747 
        9.3263         9.3263        22.2770         9.7650         0.0003 
      0.244256      -999.2500      9011.0518      4986.1016      9159.0488 
     6051.1113       0.219830       632.3572         2.4490         1.6180 
     6566.9375      1499.6870      3590.7463     11403.3213         1.7190 
     6633.5635         3.5244         1.9616
    2988.10680 
       33.4921        44.8798        53.8447        35.9149       959.6959 
        2.3757        88.0286       150.2119      8225.8711      4820.6040 
        8.9189         8.9189        21.1885         9.7816         0.0003 
      0.238466      -999.2500      9011.6250      4986.2227      9161.3936 
     6016.2515       0.214619       692.7302         2.4495         1.6086 
     6617.9634      1495.5967      3571.5703     11359.9443         1.7064 
     6657.2632         3.5140         1.9547
    2988.25920 
       33.3350        45.2856        55.0005        35.5707       953.9887 
        2.3767        88.6088       150.5510      8175.5527      4811.8286 
        8.6389         8.6389        20.5323         9.7418         0.0002 
      0.234998      -999.2500      9012.1982      4986.3433      9163.0244 
     5995.6743       0.211499       684.2335         2.4498         1.6030 
     6559.8159      1486.1403      3538.6885     11285.5635         1.6991 
     6642.2661         3.4899         1.9389
    2988.41160 
       33.2884        44.9655        54.4192        35.5118       952.3010 
        2.3901        88.7813       151.1703      8205.6357      4819.1138 
        8.7380         8.7380        20.8847         9.7166         0.0002 
      0.236742      -999.2500      9012.7725      4986.4644      9163.0928 
     6006.3525       0.213068       653.4704         2.4496         1.6057 
     6519.6460      1484.5256      3528.9946     11263.6357         1.7027 
     6615.0566         3.4858         1.9361
    2988.56400 
       33.3885        43.8441        51.9724        35.7158       955.9318 
        2.4103        88.4107       151.9471      8309.7100      4835.0210 
        9.2504         9.2504        22.2964         9.6989         0.0003 
      0.244083      -999.2500      9013.3457      4986.5854      9161.4619 
     6051.0234       0.219675       658.0266         2.4491         1.6176 
     6618.1006      1490.1252      3549.8662     11310.8486         1.7187 
     6581.2397         3.5001         1.9455
    2988.71640 
       33.4926        42.4485        49.2788        35.6182       959.7133 
        2.4205        88.0268       152.9100      8381.1260      4824.8257 
        9.7854         9.7854        23.6854         9.6175         0.0003 
      0.252164      -999.2500      9013.9189      4986.7061      9159.5635 
     6101.0420       0.226947       731.4970         2.4484         1.6308 
     6865.0781      1487.4453      3571.6711     11360.1729         1.7371 
     6539.7954         3.4933         1.9410
    2988.86880 
       33.5670        41.6496        47.6528        35.6464       962.4253 
        2.4296        87.7528       153.4537      8439.1006      4825.9175 
       10.1412        10.1412        24.6395         9.5856         0.0003 
      0.257042      -999.2500      9014.4941      4986.8271      9158.6279 
     6131.8042       0.231337       873.9267         2.4480         1.6390 
     7211.4624      1488.2189      3587.3513     11395.6416         1.7487 
     6516.6221         3.4952         1.9423
    2989.02120 
       33.5678        41.4289        47.3122        35.5456       962.4543 
        2.4295        87.7499       153.6665      8438.8574      4818.9351 
       10.1956        10.1956        24.7700         9.5584         0.0002 
      0.258063      -999.2500      9015.0674      4986.9482      9158.8965 
     6138.4897       0.232257      1061.8340         2.4479         1.6407 
     7600.6470      1485.4518      3587.5195     11396.0225         1.7512 
     6507.5977         3.4882         1.9377
    2989.17360 
       33.4721        41.6567        47.8771        35.4362       958.9702 
        2.4355        88.1021       153.9212      8425.8555      4822.8276 
       10.0496        10.0496        24.4757         9.5503         0.0003 
      0.256369      -999.2500      9015.6406      4987.0688      9160.0195 
     6128.0723       0.230732      1265.1155         2.4481         1.6378 
     7986.3760      1482.4529      3567.3806     11350.4668         1.7471 
     6496.8296         3.4805         1.9327
    2989.32600 
       33.2499        42.1837        49.2620        35.1055       950.9062 
        2.4449        88.9242       154.4792      8380.3760      4824.0659 
        9.6884         9.6884        23.6875         9.5183         0.0003 
      0.252214      -999.2500      9016.2148      4987.1895      9161.9092 
     6102.3340       0.226993      1475.8501         2.4485         1.6308 
     8356.3682      1473.3937      3520.9939     11245.5371         1.7372 
     6473.3628         3.4574         1.9175
