~Version Information Block
VERS .                  2.0:  CWLS LOG ASCII STANDARD - VERSION 2.0
WRAP .                  YES:  Multiple lines per depth step
~Well Information Block
#MNEM.UNIT        Data Type   Information
#---------- ----------------  -----------
STRT .M          2686.96440:  START DEPTH
STOP .M          3645.86520:  STOP DEPTH
STEP .M             0.15240:  STEP
NULL .              -999.25:  NULL VALUE
COMP .                     :  COMPANY
WELL .      RAAG-105-07-212:  WELL
FLD  .                     :  FIELD
LOC  .                     :  LOCATION
CTRY .                     :  COUNTRY
STAT .                     :  STATE
CNTY .                     :  COUNTY
SRVC .                     :  SERVICE COMPANY
DATE .                     :  DATE
API  .                     :  API NUMBER
UWI  .                     :  UNIQUE WELL ID
~Curve Information Block
#MNEM.UNIT         API CODE   Curve Description
#---------- ----------------  -----------------
DEPTH.M                    :  
ANGLE_FAIL.DEG                  :  Fail Angle
BRIT_IND.                     :  Brittleness Index
BRIT_PR.                     :  Brittleness Index from Poisson's Ratio
BRIT_YM.                     :  Brittleness Index from Young's Modulus
CS   .M/MIN                 :  Compressive Strength
DTCO .US/F                 :  Compressional slowness
DTSM .US/F                 :  Shear slowness
IP   .RAYL/M2                 :  P Impedence
IS   .RAYL/M2                 :  S Impedance
KBULK.                     :  Bulk Mudulus
LAMBDA.                     :  Lambda
LAMRHO.                     :  
MU   .CP                   :  Mu
MURHO.(GF/C3S)2                 :  Mu*Rho
PR   .                     :  Poisson's ratio
PRESS_FG.PSI                  :  Fracture Gradient Pressure
PRESS_OB.PSI                  :  Over-burden Pressure
PRESS_PP.PSI                  :  Pore Pressure
PRESS_SHMAX.PSI                  :  Horizontal Stress (Max)
PRESS_SHMIN.PSI                  :  Horizontal Stress (Min)
PR_STAT.                     :  Poisson's ratio (Static)
PZS  .PSI                  :  Processed Zone Stress
SHMAX_GRAD.                     :  Horizontal Stress Gradient (Max)
SHMIN_GRAD.                     :  Horizontal Stress Gradient (Min)
STRESS_CUM.PSI                  :  Cumulative stress (SHPZ)
UCS_BF.PSI                  :  Uniaxial Compressive Strength (BF)
UCS_LAL.PSI                  :  Uniaxial Compressive Strength (lal)
VP   .FT/S                 :  Compressional velocity
VPVS .                     :  Vp / Vs ratio
VS   .FT/S                 :  Shear velocity
YM   .                     :  Youngs' Modulus
YM_STAT.                     :  Youngs' Modulus (Static)
~Parameter Information Block
#MNEM.UNIT            Value   Description
#---------- ----------------  -----------
ALPHA.                 0.98:  Biot's Constant
CALIB_SHMINPZS.                 6800:  Calibration Factor for processing zones
EXT_FACT.                1e-06:  Extension Factor
PR_FAC.                  0.9:  Poisson's ratio factor
PR_MAX.                  0.4:  Maximum Poisson's ratio
PR_MIN.                  0.1:  Minimum Poisson's ratio
TECT_FACT.                 1.05:  Techtonic Factor
YM_MAX.                    8:  Maximum Youngs' Modulus
YM_MIN.                    1:  Minimum Youngs' Modulus
PROJECT.          RDG_13Jul21:  
SET  .              GEOMECH:  
~Other Information Block
~Ascii Log Data
# ...
    2877.15960 
       36.3676        45.9261        41.2722        50.5801      1068.0466 
       77.8828       140.0586     10135.6836      5636.1797        15.1355 
       15.1355        39.1990        12.2656    0.000341932       0.276184 
     -999.2500      9273.1191      5039.2065      9417.9834      6375.8286 
      0.248565      1847.9823         2.4534         1.6609      9647.6221 
     1917.2957      4225.7803     12839.8057         1.7983      7139.8687 
        4.5406         2.6623
    2877.31200 
       36.2964        47.0703        43.1874        50.9532      1065.2665 
       78.1237       139.2720     10094.1680      5662.2563        14.5985 
       14.5985        37.7699        12.3920    0.000345103       0.270438 
     -999.2500      9273.6953      5039.3184      9420.5469      6336.6631 
      0.243394      1953.4636         2.4539         1.6506      9780.2529 
     1928.5045      4208.2769     12800.2129         1.7827      7180.1943 
        4.5667         2.6811
    2877.46440 
       36.5593        48.2703        43.8292        52.7114      1075.5476 
       77.2376       137.2993     10205.6709      5741.1914        14.7838 
       14.7838        38.2332        12.7453    0.000354792       0.268512 
     -999.2500      9274.2725      5039.4307      9421.7900      6323.9375 
      0.241661      1723.7518         2.4541         1.6472      9295.3789 
     1981.6438      4273.1953     12947.0615         1.7776      7283.3579 
        4.6898         2.7703
    2877.61680 
       37.0648        48.6237        42.2612        54.9861      1095.5129 
       75.5538       135.2549     10429.8076      5826.1226        15.8174 
       15.8174        40.8935        13.1293    0.000365367       0.273216 
     -999.2500      9274.8496      5039.5430      9420.7676      6356.4722 
      0.245895      1529.8524         2.4537         1.6556      8972.6494 
     2051.1794      4400.7515     13235.6006         1.7902      7393.4473 
        4.8490         2.8870
    2877.76920 
       38.2286        47.4836        35.7482        59.2190      1142.5073 
       71.7751       132.5919     11026.3340      5968.8125        19.3824 
       19.3824        50.3266        13.7210    0.000383483       0.292755 
     -999.2500      9275.4258      5039.6548      9414.4756      6494.4272 
      0.263480      1464.8267         2.4519         1.6914      9118.5078 
     2182.9314      4708.7925     13932.4082         1.8473      7541.9390 
        5.1453         3.1081
    2877.92160 
       39.0886        50.7049        35.5705        65.8393      1178.2125 
       69.0680       127.7073     11582.4258      6264.1289        21.2124 
       21.2124        55.6740        14.9506    0.000422368       0.293289 
     -999.2500      9276.0029      5039.7671      9414.8516      6499.0303 
      0.263960      1555.3588         2.4519         1.6925      9308.7773 
     2395.1428      4950.1992     14478.4844         1.8490      7830.4063 
        5.6088         3.4642
    2878.07400 
       39.6708        56.1713        38.9014        73.4412      1202.8790 
       67.2758       122.3475     12042.2988      6621.7563        21.5658 
       21.5658        57.3217        16.4965    0.000471972       0.283296 
     -999.2500      9276.5791      5039.8794      9418.9736      6428.6831 
      0.254966      1794.1786         2.4528         1.6741      9645.7227 
     2648.0659      5120.7080     14864.1846         1.8186      8173.4404 
        6.1409         3.8886
    2878.22640 
       40.2008        58.2242        38.3347        78.1137      1225.6991 
       65.6720       119.7598     12433.1592      6817.9004        23.0010 
       23.0010        61.6159        17.3522    0.000500347       0.284996 
     -999.2500      9277.1553      5039.9912      9418.9482      6441.3076 
      0.256496      2022.4578         2.4526         1.6773     10127.5313 
     2808.4341      5281.1831     15227.1904         1.8236      8350.0469 
        6.4680         4.1577
    2878.37880 
       40.2678        59.0129        38.4620        79.5638      1228.6095 
       65.4711       119.3194     12577.7813      6901.4863        23.2962 
       23.2962        62.9396        17.6298    0.000512691       0.284614 
     -999.2500      9277.7324      5040.1025      9419.6689      6438.9932 
      0.256153      2201.8523         2.4527         1.6766     10481.6904 
     2858.9644      5301.8389     15273.9150         1.8225      8380.8672 
        6.5695         4.2425
    2878.53120 
       40.2791        59.7755        38.9748        80.5762      1229.1018 
       65.4372       118.9617     12659.0566      6963.3608        23.2820 
       23.2820        63.2749        17.8413    0.000521925       0.283076 
     -999.2500      9278.3096      5040.2148      9420.7998      6428.4966 
      0.254768      2206.5654         2.4528         1.6738     10470.1240 
     2894.4543      5305.3369     15281.8271         1.8180      8406.0664 
        6.6403         4.3020
    2878.68360 
       39.7270        60.2027        42.9004        77.5049      1205.2834 
       67.1044       119.7820     12222.3604      6847.2236        20.6689 
       20.6689        55.6171        17.4236    0.000504660       0.271299 
     -999.2500      9278.8857      5040.3267      9425.4902      6346.7930 
      0.244169      2056.1174         2.4539         1.6524     10005.8213 
     2787.3296      5137.4922     14902.1533         1.7850      8348.5000 
        6.4253         4.1223
    2878.83600 
       39.2048        60.0248        46.4396        73.6100      1183.1019 
       68.7078       120.7629     11716.4326      6666.0400        18.3266 
       18.3266        48.4026        16.8248    0.000478306       0.260681 
     -999.2500      9279.4619      5040.4385      9429.6846      6275.0063 
      0.234613      1908.9432         2.4549         1.6336      9567.8994 
     2653.7944      4983.7539     14554.3877         1.7576      8280.6885 
        6.1527         3.8982
    2878.98840 
       39.0090        59.4263        47.9035        70.9492      1174.8683 
       69.3158       121.0869     11362.1826      6504.2446        17.2176 
       17.2176        44.4888        16.3725    0.000455369       0.256290 
     -999.2500      9280.0391      5040.5508      9431.7461      6245.9043 
      0.230661      1576.8730         2.4553         1.6259      8845.5547 
     2564.0642      4927.3174     14426.7246         1.7469      8258.5313 
        5.9664         3.7476
    2879.14080 
       38.9064        59.2583        48.6800        69.8366      1170.5729 
       69.6358       121.2581     11214.7246      6440.3643        16.7099 
       16.7099        42.8135        16.1888    0.000446469       0.253960 
     -999.2500      9280.6162      5040.6626      9433.1104      6230.7251 
      0.228564      1504.6816         2.4555         1.6219      8670.8135 
     2526.9045      4898.0098     14360.4287         1.7413      8246.8721 
        5.8886         3.6853
    2879.29320 
       39.1299        59.6471        47.7145        71.5796      1179.9475 
       68.9399       120.5246     11396.8564      6518.9863        17.4160 
       17.4160        44.8940        16.4862    0.000457436       0.256857 
     -999.2500      9281.1924      5040.7744      9432.7422      6250.1978 
      0.231171      1499.8260         2.4553         1.6269      8700.0479 
     2585.2161      4962.0923     14505.3877         1.7483      8297.0615 
        6.0106         3.7831
    2879.44560 
       39.4655        62.0053        48.3397        75.6709      1194.1327 
       67.9042       118.4078     11717.4219      6719.6768        18.0007 
       18.0007        46.9899        17.2975    0.000486034       0.254981 
     -999.2500      9281.7695      5040.8862      9433.9395      6238.3677 
      0.229483      1501.2122         2.4554         1.6237      8679.1592 
     2724.1274      5059.8979     14726.6299         1.7437      8445.3896 
        6.2970         4.0162
