~Version Information Block
VERS .                  2.0:  CWLS LOG ASCII STANDARD - VERSION 2.0
WRAP .                   NO:  One line per depth step
~Well Information Block
#MNEM.UNIT        Data Type   Information
#---------- ----------------  -----------
STRT .M          2889.76360:  START DEPTH
STOP .M          3614.73040:  STOP DEPTH
STEP .M             0.15240:  STEP
NULL .              -999.25:  NULL VALUE
COMP .                     :  COMPANY
WELL .       RAAG-89-05-105:  WELL
FLD  .                     :  FIELD
LOC  .                     :  LOCATION
CTRY .                     :  COUNTRY
STAT .                     :  STATE
CNTY .                     :  COUNTY
SRVC .                     :  SERVICE COMPANY
DATE .                     :  DATE
API  .                     :  API NUMBER
UWI  .                     :  UNIQUE WELL ID
~Curve Information Block
#MNEM.UNIT         API CODE   Curve Description
#---------- ----------------  -----------------
DEPTH.M                    :  
PRESS_PP.PSI                  :  Pore Pressure
PZS  .PSI                  :  Processed Zone Stress
~Parameter Information Block
#MNEM.UNIT            Value   Description
#---------- ----------------  -----------
PROJECT.          RDG_13Jul21:  
SET  .              GEOMECH:  
~Other Information Block
# 
~A       DEPTH       PRESS_PP            PZS 
# ...
    2971.14520      5154.2856      2952.1201
    2971.29760      5154.3740      2881.3574
    2971.45000      5154.4614      2817.6899
    2971.60240      5154.5493      2832.0601
    2971.75480      5154.6362      3018.2007
    2971.90720      5154.7241      3036.4265
    2972.05960      5154.8115      3030.3416
    2972.21200      5154.8994      3079.2959
    2972.36440      5154.9868      3079.2959
    2972.51680      5155.0742      3079.2959
    2972.66920      5155.1616      3027.3027
    2972.82160      5155.2490      2946.1707
    2972.97400      5155.3364      2887.2019
    2973.12640      5155.4238      2943.1995
    2973.27880      5155.5112      2958.0791
    2973.43120      5155.5986      2846.4888
    2973.58360      5155.6860      2743.9028
    2973.73600      5155.7734      2704.8167
    2973.88840      5155.8608      2677.1714
    2974.04080      5155.9482      2707.5935
    2974.19320      5156.0356      2832.0601
    2974.34560      5156.1226      2907.7327
    2974.49800      5156.2100      2890.1279
    2974.65040      5156.2969      2907.7327
    2974.80280      5156.3843      3039.4727
    2974.95520      5156.4712      3079.2959
    2975.10760      5156.5581      2994.0359
    2975.26000      5156.6455      2858.0740
    2975.41240      5156.7324      2898.9194
    2975.56480      5156.8203      2970.0261
    2975.71720      5156.9067      2887.2019
    2975.86960      5156.9941      2674.4194
    2976.02200      5157.0811      2438.3923
    2976.17440      5157.1680      2350.2732
    2976.32680      5157.2549      2390.2344
    2976.47920      5157.3418      2590.2224
    2976.63160      5157.4287      2794.8193
    2976.78400      5157.5156      2878.4387
    2976.93640      5157.6021      2855.1741
    2977.08880      5157.6895      2537.0371
    2977.24120      5157.7759      2563.5195
    2977.39360      5157.8633      2766.4399
    2977.54600      5157.9497      2976.0142
    2977.69840      5158.0361      3048.6260
    2977.85080      5158.1230      2937.2644
    2978.00320      5158.2095      2834.9412
    2978.15560      5158.2969      2763.6147
    2978.30800      5158.3838      2727.0967
    2978.46040      5158.4702      2718.7244
    2978.61280      5158.5566      2797.6699
    2978.76520      5158.6431      2791.9709
    2978.91760      5158.7300      2858.0740
    2979.07000      5158.8164      3021.2324
    2979.22240      5158.9033      3018.2007
    2979.37480      5158.9893      2863.8806
    2979.52720      5159.0757      2555.5515
    2979.67960      5159.1626      2370.1865
    2979.83200      5159.2490      2430.7373
    2979.98440      5159.3359      2729.8918
    2980.13680      5159.4219      2755.1528
    2980.28920      5159.5083      2797.6699
    2980.44160      5159.5947      2829.1814
    2980.59400      5159.6807      2789.1248
    2980.74640      5159.7676      2617.1477
    2980.89880      5159.8540      2425.6445
    2981.05120      5159.9404      2704.8167
    2981.20360      5160.0264      3021.2324
    2981.35600      5160.1128      3066.9985
    2981.50840      5160.1997      3012.1450
    2981.66080      5160.2856      2994.0359
    2981.81320      5160.3721      3015.1716
    2981.96560      5160.4575      3018.2007
    2982.11800      5160.5439      2961.0623
    2982.27040      5160.6299      2846.4888
    2982.42280      5160.7163      2729.8918
    2982.57520      5160.8027      2855.1741
    2982.72760      5160.8882      2904.7925
    2982.88000      5160.9746      2763.6147
    2983.03240      5161.0610      2766.4399
    2983.18480      5161.1470      2598.2766
    2983.33720      5161.2329      2707.5935
    2983.48960      5161.3188      2766.4399
    2983.64200      5161.4048      2663.4341
    2983.79440      5161.4907      2752.3369
    2983.94680      5161.5767      2869.6968
    2984.09920      5161.6626      2817.6899
    2984.25160      5161.7485      2609.0466
    2984.40400      5161.8340      2405.3591
    2984.55640      5161.9204      2555.5515
    2984.70880      5162.0063      2832.0601
    2984.86120      5162.0923      3009.1208
    2985.01360      5162.1777      3079.2959
    2985.16600      5162.2637      3079.2959
    2985.31840      5162.3496      3079.2959
    2985.47080      5162.4351      3030.3416
    2985.62320      5162.5210      3042.5215
    2985.77560      5162.6064      2837.8245
    2985.92800      5162.6924      2420.5605
    2986.08040      5162.7778      2172.3435
    2986.23280      5162.8638      1894.2849
    2986.38520      5162.9492      1938.5322
    2986.53760      5163.0352      2149.1499
    2986.69000      5163.1206      2377.6885
    2986.84240      5163.2065      2456.3291
    2986.99480      5163.2920      2600.9658
    2987.14720      5163.3774      2555.5515
    2987.29960      5163.4629      2446.0667
    2987.45200      5163.5488      2372.6851
    2987.60440      5163.6338      2342.8403
    2987.75680      5163.7192      2568.8423
    2987.90920      5163.8047      2786.2810
    2988.06160      5163.8901      2922.4688
    2988.21400      5163.9756      2961.0623
    2988.36640      5164.0610      2976.0142
    2988.51880      5164.1465      2890.1279
    2988.67120      5164.2319      2789.1248
    2988.82360      5164.3174      2852.2766
    2988.97600      5164.4023      3057.8013
    2989.12840      5164.4878      2970.0261
    2989.28080      5164.5728      3048.6260
    2989.43320      5164.6582      2832.0601
    2989.58560      5164.7437      2181.6768
    2989.73800      5164.8286      1556.0721
    2989.89040      5164.9141      1760.4543
    2990.04280      5164.9990      1403.6727
    2990.19520      5165.0845      1390.5819
    2990.34760      5165.1689      1588.4442
    2990.50000      5165.2544      1883.8700
    2990.65240      5165.3394      2170.0151
    2990.80480      5165.4248      2425.6445
    2990.95720      5165.5098      2657.9548
    2991.10960      5165.5947      2769.2673
    2991.26200      5165.6797      2755.1528
    2991.41440      5165.7642      2769.2673
    2991.56680      5165.8496      2997.0481
    2991.71920      5165.9346      3076.2180
    2991.87160      5166.0195      3079.2959
    2992.02400      5166.1045      3054.7402
    2992.17640      5166.1895      2937.2644
    2992.32880      5166.2744      2855.1741
    2992.48120      5166.3589      2898.9194
    2992.63360      5166.4438      2937.2644
    2992.78600      5166.5288      2925.4231
    2992.93840      5166.6133      2973.0190
    2993.09080      5166.6978      3054.7402
    2993.24320      5166.7827      2964.0479
    2993.39560      5166.8677      2887.2019
    2993.54800      5166.9521      2895.9866
    2993.70040      5167.0371      2846.4888
    2993.85280      5167.1216      2958.0791
    2994.00520      5167.2065      3042.5215
    2994.15760      5167.2910      3066.9985
    2994.31000      5167.3760      3051.6819
    2994.46240      5167.4604      3073.1423
    2994.61480      5167.5454      3079.2959
    2994.76720      5167.6299      3051.6819
    2994.91960      5167.7144      3048.6260
    2995.07200      5167.7988      3051.6819
    2995.22440      5167.8833      2916.5671
    2995.37680      5167.9678      2991.0264
    2995.52920      5168.0522      3012.1450
    2995.68160      5168.1367      2997.0481
    2995.83400      5168.2212      2988.0190
    2995.98640      5168.3057      3033.3828
    2996.13880      5168.3901      3039.4727
    2996.29120      5168.4741      3060.8645
    2996.44360      5168.5586      3079.2959
    2996.59600      5168.6431      3079.2959
    2996.74840      5168.7271      3076.2180
    2996.90080      5168.8115      3079.2959
    2997.05320      5168.8955      3021.2324
    2997.20560      5168.9800      3015.1716
    2997.35800      5169.0645      3060.8645
    2997.51040      5169.1489      2979.0117
    2997.66280      5169.2329      3048.6260
    2997.81520      5169.3169      2916.5671
    2997.96760      5169.4009      2789.1248
    2998.12000      5169.4854      2820.5593
