~Version Information Block
VERS .                  2.0:  CWLS LOG ASCII STANDARD - VERSION 2.0
WRAP .                  YES:  Multiple lines per depth step
~Well Information Block
#MNEM.UNIT        Data Type   Information
#---------- ----------------  -----------
STRT .M          2556.50000:  START DEPTH
STOP .M          3600.74480:  STOP DEPTH
STEP .M             0.15240:  STEP
NULL .              -999.25:  NULL VALUE
COMP .                     :  COMPANY
WELL .      RAAG-100-07-213:  WELL
FLD  .                     :  FIELD
LOC  .                     :  LOCATION
CTRY .                     :  COUNTRY
STAT .                     :  STATE
CNTY .                     :  COUNTY
SRVC .                     :  SERVICE COMPANY
DATE .                     :  DATE
API  .                     :  API NUMBER
UWI  .                     :  UNIQUE WELL ID
~Curve Information Block
#MNEM.UNIT         API CODE   Curve Description
#---------- ----------------  -----------------
DEPTH.M                    :  
ANGLE_FAIL.DEG                  :  Fail Angle
BRIT_IND.                     :  Brittleness Index
BRIT_PR.                     :  Brittleness Index from Poisson's Ratio
BRIT_YM.                     :  Brittleness Index from Young's Modulus
CS   .M/MIN                 :  Compressive Strength
DTCO .US/F                 :  Compressional slowness
DTSM .US/F                 :  Description
IP   .RAYL/M2                 :  P Impedence
IS   .RAYL/M2                 :  S Impedance
KBULK.                     :  Bulk Mudulus
LAMBDA.                     :  Lambda
LAMRHO.                     :  
MU   .CP                   :  Mu
MURHO.(GF/C3S)2                 :  Mu*Rho
PR   .                     :  Poisson's ratio
PRESS_FG.PSI                  :  Fracture Gradient Pressure
PRESS_OB.PSI                  :  Over-burden Pressure
PRESS_PP.PSI                  :  Pore Pressure
PRESS_SHMAX.PSI                  :  Horizontal Stress (Max)
PRESS_SHMIN.PSI                  :  Horizontal Stress (Min)
PR_STAT.                     :  Poisson's ratio (Static)
PZS  .PSI                  :  Processed Zone Stress
SHMAX_GRAD.                     :  Horizontal Stress Gradient (Max)
SHMIN_GRAD.                     :  Horizontal Stress Gradient (Min)
STRESS_CUM.PSI                  :  Cumulative stress (SHPZ)
UCS_BF.PSI                  :  Uniaxial Compressive Strength (BF)
UCS_LAL.PSI                  :  Uniaxial Compressive Strength (lal)
VP   .FT/S                 :  Compressional velocity
VPVS .                     :  Vp / Vs ratio
VS   .FT/S                 :  Shear velocity
YM   .                     :  Youngs' Modulus
YM_STAT.                     :  Youngs' Modulus (Static)
~Parameter Information Block
#MNEM.UNIT            Value   Description
#---------- ----------------  -----------
PROJECT.          RDG_13Jul21:  
SET  .              GEOMECH:  
~Other Information Block
~Ascii Log Data
# ...
    3327.03440 
       37.0471        46.0975        41.4277        50.7674      1094.8085 
       75.6124       135.8779      9858.0508      5485.7383        15.1275 
       15.1275        36.9945        12.3056    0.000323922       0.275717 
     -999.2500     11363.2324      5314.6060     11569.2314      7243.2627 
      0.248145       630.6892         2.5089         1.5708      8947.9043 
     1922.9196      4396.2173     13225.3447         1.7970      7359.5464 
        4.5537         2.6718
    3327.18680 
       37.1661        44.5762        39.0169        50.1356      1099.5433 
       75.2197       136.7181      9878.9873      5435.2314        15.7963 
       15.7963        38.5109        12.1173    0.000317985       0.282949 
     -999.2500     11363.8301      5314.6484     11566.2734      7314.9741 
      0.254654       726.4205         2.5082         1.5863      9282.7891 
     1903.9716      4426.7402     13294.3896         1.8176      7314.3208 
        4.5095         2.6400
    3327.33920 
       36.6791        44.6197        41.1710        48.0685      1080.2556 
       76.8362       138.2413      9619.0283      5346.3740        14.5817 
       14.5817        35.3583        11.7879    0.000307673       0.276487 
     -999.2500     11364.4287      5314.6909     11570.0957      7251.0923 
      0.248838       762.0792         2.5089         1.5723      9226.3428 
     1842.4624      4303.0962     13014.6992         1.7992      7233.7295 
        4.3648         2.5368
    3327.49160 
       35.8314        45.3472        45.4352        45.2592      1047.2522 
       79.7083       140.7005      9265.3662      5248.9263        12.6887 
       12.6887        30.7446        11.3708    0.000296559       0.263694 
     -999.2500     11365.0264      5314.7339     11576.9092      7127.3574 
      0.237325       752.7219         2.5102         1.5454      8960.1582 
     1760.0386      4095.7834     12545.7451         1.7652      7107.2954 
        4.1681         2.3985
    3327.64400 
       35.3397        46.6276        48.9773        44.2779      1028.4358 
       81.4081       141.5857      9111.6396      5238.9551        11.5585 
       11.5585        28.1287        11.2782    0.000295433       0.253068 
     -999.2500     11365.6230      5314.7764     11582.5303      7027.4893 
      0.227761       739.4377         2.5113         1.5237      8733.8545 
     1731.5648      3979.9797     12283.7910         1.7392      7062.8594 
        4.0995         2.3507
    3327.79640 
       35.0699        48.4224        52.6257        44.2190      1018.2034 
       82.3521       141.1782      9025.2559      5264.6133        10.6718 
       10.6718        26.0229        11.3662    0.000298334       0.242123 
     -999.2500     11366.2207      5314.8188     11588.1709      6927.2217 
      0.217911       739.6783         2.5124         1.5019      8533.7998 
     1729.8630      3917.7317     12142.9824         1.7143      7083.2451 
        4.0953         2.3478
    3327.94880 
       35.8460        45.4153        45.3101        45.5205      1047.8146 
       79.6582       140.6880      9307.4492      5269.9214        12.7790 
       12.7790        31.0845        11.4173    0.000298936       0.264070 
     -999.2500     11366.8184      5314.8613     11578.5791      7131.5967 
      0.237663       740.7866         2.5102         1.5461      8944.7666 
     1767.6462      4099.2710     12553.6348         1.7661      7107.9268 
        4.1864         2.4112
    3328.10120 
       36.6056        44.3935        41.5079        47.2790      1077.3666 
       77.0822       138.4680      9505.5313      5291.5293        14.2912 
       14.2912        34.3546        11.6479    0.000301393       0.275476 
     -999.2500     11367.4160      5314.9033     11573.6738      7242.2466 
      0.247929       740.3434         2.5091         1.5700      9165.1797 
     1819.1631      4284.7344     12973.1641         1.7964      7221.8872 
        4.3095         2.4977
    3328.25360 
       37.8113        43.3309        36.0006        50.6611      1125.4874 
       73.1145       134.8923      9904.6494      5368.5317        17.0293 
       17.0293        40.4598        12.1306    0.000310228       0.291998 
     -999.2500     11368.0127      5314.9458     11566.0156      7407.9604 
      0.262798       743.7346         2.5073         1.6059      9503.3906 
     1919.7274      4595.9609     13677.1777         1.8449      7413.3223 
        4.5463         2.6664
    3328.40600 
       38.3527        42.6571        33.4595        51.8548      1147.6074 
       71.3800       133.4496     10052.6592      5377.0010        18.3637 
       18.3637        43.2317        12.2811    0.000311208       0.299622 
     -999.2500     11368.6113      5314.9888     11562.7012      7486.8145 
      0.269659       748.0060         2.5064         1.6229      9669.6406 
     1955.6869      4742.8848     14009.5273         1.8696      7493.4639 
        4.6298         2.7268
    3328.55840 
       38.0083        44.5836        37.3171        51.8501      1133.4962 
       72.4802       132.8393      9897.1445      5400.1133        16.8392 
       16.8392        39.6310        12.3906    0.000313889       0.288049 
     -999.2500     11369.2090      5315.0308     11569.2490      7368.4048 
      0.259244       727.2156         2.5077         1.5972      9391.2412 
     1955.5443      4648.8750     13796.8701         1.8328      7527.8950 
        4.6295         2.7265
    3328.71080 
       37.1395        49.3457        47.4897        51.2017      1098.4832 
       75.3074       131.7797      9507.5938      5433.2500        13.3475 
       13.3475        31.3539        12.5668    0.000317753       0.257531 
     -999.2500     11369.8066      5315.0732     11584.7422      7071.1030 
      0.231778       715.1299         2.5110         1.5327      8772.4658 
     1935.9807      4419.8960     13278.9072         1.7499      7588.4209 
        4.5841         2.6937
    3328.86320 
       36.4034        53.2225        56.4934        49.9516      1069.4437 
       77.7621       131.4024      9177.1885      5430.9321        10.7762 
       10.7762        25.2307        12.5975    0.000317482       0.230520 
     -999.2500     11370.4053      5315.1162     11597.6699      6825.1045 
      0.207468       727.9417         2.5137         1.4793      8306.0928 
     1898.4683      4234.5903     12859.7354         1.6898      7610.2119 
        4.4966         2.6307
    3329.01560 
       35.5796        56.6514        65.5607        47.7421      1037.5862 
       80.5757       132.0386      8830.3066      5388.6377         8.5247 
        8.5247        19.8995        12.4392    0.000312556       0.203318 
     -999.2500     11371.0029      5315.1582     11609.9492      6592.0713 
      0.182986       770.5383         2.5162         1.4287      7925.2192 
     1832.8153      4036.0786     12410.6904         1.6387      7573.5435 
        4.3419         2.5206
    3329.16800 
       36.1642        55.8761        60.9802        50.7719      1060.1235 
       78.5719       130.7025      9201.5205      5531.4990         9.8959 
        9.8959        23.4730        12.8995    0.000329349       0.217059 
     -999.2500     11371.5996      5315.2007     11604.7598      6708.4087 
      0.195353       844.7025         2.5150         1.4538      8306.2217 
     1923.0553      4175.9985     12727.1963         1.6635      7650.9609 
        4.5540         2.6720
    3329.32040 
       36.8181        57.1446        58.2418        56.0474      1085.7375 
       76.3722       128.2507      9787.7461      5828.5195        11.3586 
       11.3586        27.8567        13.8520    0.000365668       0.225275 
     -999.2500     11372.1973      5315.2427     11601.8076      6779.9888 
      0.202747       919.1981         2.5142         1.4693      8598.3730 
     2083.9243      4338.0513     13093.7695         1.6793      7797.2285 
        4.9233         2.9419
