~Version Information Block
VERS .                  2.0:  CWLS LOG ASCII STANDARD - VERSION 2.0
WRAP .                  YES:  Multiple lines per depth step
~Well Information Block
#MNEM.UNIT        Data Type   Information
#---------- ----------------  -----------
STRT .M          2682.11640:  START DEPTH
STOP .M          3633.09240:  STOP DEPTH
STEP .M             0.15240:  STEP
NULL .              -999.25:  NULL VALUE
COMP .                     :  COMPANY
WELL .       RAAG-94-07-216:  WELL
FLD  .                     :  FIELD
LOC  .                     :  LOCATION
CTRY .                     :  COUNTRY
STAT .                     :  STATE
CNTY .                     :  COUNTY
SRVC .                     :  SERVICE COMPANY
DATE .                     :  DATE
API  .                     :  API NUMBER
UWI  .                     :  UNIQUE WELL ID
~Curve Information Block
#MNEM.UNIT         API CODE   Curve Description
#---------- ----------------  -----------------
DEPTH.M                    :  
ANGLE_FAIL.DEG                  :  Fail Angle
BRIT_IND.                     :  Brittleness Index
BRIT_PR.                     :  Brittleness Index from Poisson's Ratio
BRIT_YM.                     :  Brittleness Index from Young's Modulus
CS   .M/MIN                 :  Compressive Strength
IP   .RAYL/M2                 :  P Impedence
IS   .RAYL/M2                 :  S Impedance
KBULK.                     :  Bulk Mudulus
LAMBDA.                     :  Lambda
LAMRHO.                     :  
MU   .CP                   :  Mu
MURHO.(GF/C3S)2                 :  Mu*Rho
PR   .                     :  Poisson's ratio
PRESS_FG.PSI                  :  Fracture Gradient Pressure
PRESS_OB.PSI                  :  Over-burden Pressure
PRESS_PP.PSI                  :  Pore Pressure
PRESS_SHMAX.PSI                  :  Horizontal Stress (Max)
PRESS_SHMIN.PSI                  :  Horizontal Stress (Min)
PR_STAT.                     :  Poisson's ratio (Static)
PZS  .PSI                  :  Processed Zone Stress
SHMAX_GRAD.                     :  Horizontal Stress Gradient (Max)
SHMIN_GRAD.                     :  Horizontal Stress Gradient (Min)
STRESS_CUM.PSI                  :  Cumulative stress (SHPZ)
UCS_BF.PSI                  :  Uniaxial Compressive Strength (BF)
UCS_LAL.PSI                  :  Uniaxial Compressive Strength (lal)
VP   .FT/S                 :  Compressional velocity
VPVS .                     :  Vp / Vs ratio
VS   .FT/S                 :  Shear velocity
YM   .                     :  Youngs' Modulus
YM_STAT.                     :  Youngs' Modulus (Static)
~Parameter Information Block
#MNEM.UNIT            Value   Description
#---------- ----------------  -----------
PROJECT.          RDG_13Jul21:  
SET  .              GEOMECH:  
~Other Information Block
~Ascii Log Data
# ...
    2933.42400 
       43.1722        90.4585        62.3908       118.5263      1360.6732 
    13582.5410      8203.8457        19.5844        19.5844        49.8793 
       26.4256         0.0007       0.212828      -999.2500      9737.9053 
     5123.7485      9917.4443      6147.1157       0.191545      2971.6604 
        2.4704         1.5312     11437.5527      4351.3472      6284.4829 
    17496.7129         1.6556     10568.0029         9.2968         6.7467
    2933.57640 
       43.0644        90.1491        62.6718       117.6263      1355.5507 
    13544.4385      8188.4478        19.3314        19.3314        49.3505 
       26.2648         0.0007       0.211984      -999.2500      9738.4775 
     5123.8438      9918.3125      6141.7661       0.190786      2935.7390 
        2.4705         1.5298     11355.0098      4313.9434      6244.7041 
    17406.7324         1.6541     10523.4414         9.2338         6.6839
    2933.72880 
       43.0278        89.2254        61.3603       117.0904      1353.8130 
    13587.6982      8178.7427        19.8174        19.8174        50.8419 
       26.0735         0.0007       0.215919      -999.2500      9739.0508 
     5123.9385      9917.6240      6167.5850       0.194327      2819.1543 
        2.4702         1.5361     11173.4785      4291.7378      6231.2407 
    17376.2773         1.6613     10459.1738         9.1963         6.6467
    2933.88120 
       43.1689        87.5240        57.8496       117.1985      1360.5146 
    13720.2188      8158.9556        21.4166        21.4166        55.1073 
       25.8708         0.0007       0.226451      -999.2500      9739.6221 
     5124.0332      9914.7227      6237.6201       0.203806      2731.0918 
        2.4693         1.5535     11137.4248      4296.2119      6283.2500 
    17493.9258         1.6816     10403.0527         9.2039         6.6542
    2934.03360 
       43.4000        85.7889        53.7645       117.8133      1371.5521 
    13906.8115      8147.3408        23.5100        23.5100        60.6411 
       25.7346         0.0007       0.238706      -999.2500      9740.1943 
     5124.1279      9911.1416      6321.2588       0.214836      2729.5427 
        2.4683         1.5743     11301.6025      4321.7031      6369.4116 
    17688.8281         1.7069     10363.0439         9.2469         6.6969
    2934.18600 
       43.5560        84.8225        51.4729       118.1721      1379.0553 
    14008.1709      8134.8540        24.7707        24.7707        63.8772 
       25.6621         0.0007       0.245581      -999.2500      9740.7666 
     5124.2231      9909.3389      6369.3223       0.221023      2696.5273 
        2.4677         1.5861     11331.6992      4336.6118      6428.3423 
    17822.1328         1.7220     10349.7051         9.2720         6.7220
    2934.33840 
       43.6146        85.2142        51.6654       118.7629      1381.8826 
    14016.4053      8145.7524        24.7780        24.7780        63.7531 
       25.7885         0.0007       0.245004      -999.2500      9741.3398 
     5124.3179      9910.1289      6365.5581       0.220503      2571.3005 
        2.4678         1.5851     11073.7168      4361.2036      6450.6230 
    17872.5332         1.7207     10386.7734         9.3134         6.7632
    2934.49080 
       43.6784        86.4499        53.0616       119.8382      1384.9637 
    13982.6035      8169.9443        24.2360        24.2360        62.0172 
       26.0847         0.0007       0.240815      -999.2500      9741.9121 
     5124.4126      9912.1729      6336.6987       0.216734      2413.9260 
        2.4681         1.5778     10701.2490      4406.1206      6474.9517 
    17927.5645         1.7115     10474.9600         9.3887         6.8386
    2934.64320 
       43.8550        87.0041        52.7764       121.2318      1393.5355 
    14028.6777      8187.9404        24.6392        24.6392        62.7191 
       26.3376         0.0007       0.241671      -999.2500      9742.4844 
     5124.5078      9912.4590      6342.9888       0.217504      2274.2866 
        2.4681         1.5793     10434.5508      4464.6216      6542.8921 
    18081.2500         1.7133     10553.2539         9.4862         6.9368
    2934.79560 
       44.1062        85.7717        49.7292       121.8142      1405.8164 
    14150.8076      8161.1079        26.4287        26.4287        67.0380 
       26.2575         0.0007       0.250812      -999.2500      9743.0566 
     5124.6021      9909.8359      6407.4727       0.225731      2176.2666 
        2.4673         1.5953     10367.4775      4489.1689      6640.8926 
    18302.9336         1.7339     10555.7383         9.5270         6.9780
    2934.94800 
       44.2171        84.0361        47.0624       121.0098      1411.2738 
    14210.2832      8106.1724        27.8318        27.8318        70.5121 
       25.9364         0.0007       0.258813      -999.2500      9743.6299 
     5124.6968      9907.5635      6464.9565       0.232932      2092.7358 
        2.4666         1.6095     10315.3848      4455.2788      6684.6919 
    18402.0098         1.7530     10497.3184         9.4707         6.9211
    2935.10040 
       44.1106        83.2930        47.0682       119.5178      1406.0359 
    14126.0977      8058.3457        27.5214        27.5214        69.6728 
       25.6507         0.0007       0.258795      -999.2500      9744.2012 
     5124.7915      9908.1650      6464.9316       0.232916      2069.0750 
        2.4666         1.6094     10268.0137      4392.7173      6642.6509 
    18306.9102         1.7530     10443.3242         9.3662         6.8161
    2935.25280 
       43.9074        84.0466        49.2556       118.8376      1396.0895 
    14013.0752      8066.2529        26.1165        26.1165        66.2374 
       25.6541         0.0007       0.252233      -999.2500      9744.7734 
     5124.8862      9911.1123      6418.0044       0.227010      2101.0222 
        2.4672         1.5977     10238.0537      4364.3188      6563.2080 
    18127.2051         1.7372     10434.4434         9.3186         6.7685
    2935.40520 
       43.7775        85.3881        51.3223       119.4539      1389.7704 
    14004.7881      8128.0977        25.0920        25.0920        64.0022 
       25.9011         0.0007       0.246033      -999.2500      9745.3457 
     5124.9805      9913.8916      6374.4399       0.221430      2194.1550 
        2.4678         1.5867     10337.1904      4390.0454      6513.0029 
    18013.6406         1.7230     10454.7539         9.3618         6.8116
    2935.55760 
       43.8046        86.1435        51.5025       120.7846      1391.0856 
    14111.8516      8196.0098        25.2432        25.2432        64.7952 
       26.1701         0.0007       0.245493      -999.2500      9745.9180 
     5125.0752      9914.6641      6370.9951       0.220943      2366.6812 
        2.4678         1.5858     10675.3525      4445.8130      6523.4351 
    18037.2383         1.7218     10475.8311         9.4549         6.9052
    2935.71000 
       43.8513        86.8575        51.6711       122.0439      1393.3560 
    14198.3682      8251.6826        25.3859        25.3859        65.4131 
       26.4248         0.0007       0.244987      -999.2500      9746.4912 
     5125.1699      9915.4258      6367.7920       0.220488      2679.1567 
        2.4679         1.5849     11293.8965      4498.8662      6541.4644 
    18078.0215         1.7207     10506.4258         9.5431         6.9942
    2935.86240 
       43.8308        87.8684        53.0394       122.6973      1392.3585 
    14177.5059      8283.1240        24.7645        24.7645        63.7814 
       26.6393         0.0007       0.240882      -999.2500      9747.0635 
     5125.2646      9917.4443      6339.4482       0.216794      2901.0176 
        2.4683         1.5778     11680.9316      4526.5039      6533.5405 
    18060.0957         1.7116     10551.5049         9.5888         7.0406
