~Version Information Block
VERS .                  2.0:  CWLS LOG ASCII STANDARD - VERSION 2.0
WRAP .                  YES:  Multiple lines per depth step
~Well Information Block
#MNEM.UNIT        Data Type   Information
#---------- ----------------  -----------
STRT .M          2738.62800:  START DEPTH
STOP .M          3798.57000:  STOP DEPTH
STEP .M             0.15240:  STEP
NULL .              -999.25:  NULL VALUE
COMP .                     :  COMPANY
WELL .      RAAG-106-07-211:  WELL
FLD  .                     :  FIELD
LOC  .                     :  LOCATION
CTRY .                     :  COUNTRY
STAT .                     :  STATE
CNTY .                     :  COUNTY
SRVC .                     :  SERVICE COMPANY
DATE .                     :  DATE
API  .                     :  API NUMBER
UWI  .                     :  UNIQUE WELL ID
~Curve Information Block
#MNEM.UNIT         API CODE   Curve Description
#---------- ----------------  -----------------
DEPTH.M                    :  
ANGLE_FAIL.DEG                  :  Fail Angle
BRIT_IND.                     :  Brittleness Index
BRIT_PR.                     :  Brittleness Index from Poisson's Ratio
BRIT_YM.                     :  Brittleness Index from Young's Modulus
CS   .M/MIN                 :  Compressive Strength
DTCO .US/F                 :  Compressional slowness
DTSM .US/F                 :  Fast Shear Slowness
IP   .RAYL/M2                 :  P Impedence
IS   .RAYL/M2                 :  S Impedance
KBULK.                     :  Bulk Mudulus
LAMBDA.                     :  Lambda
LAMRHO.                     :  
MU   .CP                   :  Mu
MURHO.(GF/C3S)2                 :  Mu*Rho
PR   .                     :  Poisson's ratio
PRESS_FG.PSI                  :  Fracture Gradient Pressure
PRESS_OB.PSI                  :  Over-burden Pressure
PRESS_PP.PSI                  :  Pore Pressure
PRESS_SHMAX.PSI                  :  Horizontal Stress (Max)
PRESS_SHMIN.PSI                  :  Horizontal Stress (Min)
PR_STAT.                     :  Poisson's ratio (Static)
PZS  .PSI                  :  Processed Zone Stress
SHMAX_GRAD.                     :  Horizontal Stress Gradient (Max)
SHMIN_GRAD.                     :  Horizontal Stress Gradient (Min)
STRESS_CUM.PSI                  :  Cumulative stress (SHPZ)
UCS_BF.PSI                  :  Uniaxial Compressive Strength (BF)
UCS_LAL.PSI                  :  Uniaxial Compressive Strength (lal)
VP   .FT/S                 :  Compressional velocity
VPVS .                     :  Vp / Vs ratio
VS   .FT/S                 :  Shear velocity
YM   .                     :  Youngs' Modulus
YM_STAT.                     :  Youngs' Modulus (Static)
~Parameter Information Block
#MNEM.UNIT            Value   Description
#---------- ----------------  -----------
PROJECT.          RDG_13Jul21:  
SET  .              GEOMECH:  
~Other Information Block
~Ascii Log Data
# ...
    3423.81840 
       46.0215        99.2214        39.7228       158.7199      1503.0393 
       49.7009        90.0307     17440.4375      9627.8877        41.7661 
       41.7661       118.7764        32.5953    0.000997774       0.280832 
     -999.2500     11006.5625      5286.7485     11198.6641      7164.5298 
      0.252748      1860.1407         2.4989         1.5987     11249.3408 
     6163.1030      7444.3311     20120.3594         1.8115     11107.3223 
       12.1104         9.7868
    3423.97080 
       45.6394        99.8128        42.7970       156.8286      1483.1176 
       50.6614        90.4732     17213.4434      9638.8457        38.6176 
       38.6176       110.4880        32.4728    0.001000046       0.271609 
     -999.2500     11007.1475      5286.8018     11203.5664      7078.7617 
      0.244448      1757.9957         2.4998         1.5795     10873.5146 
     6071.6548      7275.6948     19738.8945         1.7858     11052.9971 
       11.9780         9.6334
    3424.12320 
       45.1026       100.1026        47.3398       152.8654      1455.5786 
       52.0311        91.1057     16781.6875      9584.1387        34.1790 
       34.1790        97.9136        32.0644    0.000988727       0.257981 
     -999.2500     11007.7334      5286.8555     11210.3613      6955.1768 
      0.232183      1717.7878         2.5012         1.5518     10545.9297 
     5882.0063      7045.9839     19219.2734         1.7510     10976.2617 
       11.7006         9.3151
    3424.27560 
       44.4893       100.2518        52.7062       147.7975      1424.7517 
       53.6245        91.9014     16274.6240      9496.2500        29.5140 
       29.5140        84.5059        31.4952    0.000970676       0.241881 
     -999.2500     11008.3184      5286.9092     11218.0293      6814.0913 
      0.217693      1819.6696         2.5028         1.5203     10467.5225 
     5643.4106      6793.5229     18648.1934         1.7138     10881.2275 
       11.3458         8.9148
    3424.42800 
       43.8858       100.4944        58.4533       142.5354      1395.0392 
       55.2233        92.6667     15764.9785      9394.8975        25.2098 
       25.2098        72.0064        30.9018    0.000950067       0.224640 
     -999.2500     11008.9033      5286.9629     11225.9141      6668.6753 
      0.202176      1906.5253         2.5045         1.4878     10350.4014 
     5400.3301      6554.8491     18108.2969         1.6780     10791.3623 
       10.9775         8.5069
    3424.58040 
       43.4238       100.4843        63.3628       137.6058      1372.6963 
       56.4681        93.1914     15286.2314      9262.4902        21.9216 
       21.9216        62.0814        30.2947    0.000923476       0.209912 
     -999.2500     11009.4893      5287.0161     11232.5215      6548.8359 
      0.188920      1951.8105         2.5058         1.4610     10201.2939 
     5176.9004      6378.3794     17709.1133         1.6503     10730.6045 
       10.6324         8.1320
    3424.73280 
       43.2772        99.5428        64.6124       134.4732      1365.6761 
       56.8670        93.4701     15001.4854      9126.8701        20.8818 
       20.8818        58.4450        29.7621    0.000896631       0.206163 
     -999.2500     11010.0742      5287.0693     11234.6318      6518.9141 
      0.185547      2000.8573         2.5062         1.4542     10239.5430 
     5037.0825      6323.4639     17584.8906         1.6437     10698.6084 
       10.4131         7.8974
    3424.88520 
       43.5307        96.8256        60.2231       133.4281      1377.8348 
       56.1785        93.6928     14986.9785      8986.2402        22.8450 
       22.8450        63.1045        29.2339    0.000869213       0.219331 
     -999.2500     11010.6602      5287.1226     11229.9521      6624.8169 
      0.197398      2073.4285         2.5050         1.4778     10596.4902 
     4990.8096      6418.7368     17800.4043         1.6678     10673.1787 
       10.3400         7.8197
    3425.03760 
       44.0706        93.0381        52.0656       134.0105      1404.0726 
       54.7305        94.0286     15248.9951      8875.8643        27.3799 
       27.3799        74.9699        28.7717    0.000847991       0.243803 
     -999.2500     11011.2451      5287.1758     11220.2930      6830.2856 
      0.219423      2155.9011         2.5027         1.5235     11172.3740 
     5016.5747      6626.9292     18271.3477         1.7180     10635.0615 
       10.3807         7.8629
    3425.19000 
       44.6704        89.4947        43.7758       135.2135      1433.7836 
       53.1509        94.5046     15676.7764      8816.8701        33.0272 
       33.0272        90.2869        28.4365    0.000836756       0.268672 
     -999.2500     11011.8311      5287.2295     11209.8525      7051.4009 
      0.241805      2217.5688         2.5003         1.5728     11737.9395 
     5069.9727      6866.9795     18814.3555         1.7780     10581.4951 
       10.4649         7.9525
    3425.34240 
       45.1413        87.1811        37.3493       137.0129      1457.5480 
       51.9315        95.1631     16218.6123      8850.6670        38.4954 
       38.4954       106.3748        28.3480    0.000843183       0.287952 
     -999.2500     11012.4160      5287.2832     11201.4277      7232.1748 
      0.259157      2217.2375         2.4983         1.6130     12098.8252 
     5150.3105      7062.2793     19256.1348         1.8325     10508.2744 
       10.5909         8.0874
    3425.49480 
       45.3909        84.7348        32.9889       136.4807      1470.3049 
       51.2925        96.1373     16531.7266      8820.2354        42.3095 
       42.3095       117.7049        27.9643    0.000837395       0.301033 
     -999.2500     11013.0020      5287.3364     11195.6699      7359.6406 
      0.270930      2135.3325         2.4969         1.6414     12189.9463 
     5126.4902      7168.3296     19496.0273         1.8743     10401.7900 
       10.5536         8.0474
    3425.64720 
       45.4161        82.0919        30.2464       133.9375      1471.6006 
       51.2282        97.4869     16628.2188      8737.9297        44.2958 
       44.2958       123.7948        27.3198    0.000821840       0.309261 
     -999.2500     11013.5869      5287.3896     11192.1748      7441.8188 
      0.278335      1992.2378         2.4960         1.6596     12068.1123 
     5013.3423      7179.1479     19520.5000         1.9030     10257.7891 
       10.3756         7.8575
    3425.79960 
       45.2585        78.5790        28.7148       128.4432      1463.5265 
       51.6307        99.1267     16368.5361      8525.6445        44.2009 
       44.2009       122.5558        26.2151    0.000782392       0.313855 
     -999.2500     11014.1729      5287.4429     11190.4736      7488.1523 
      0.282470      1958.9484         2.4955         1.6699     12094.2021 
     4772.6699      7111.8740     19368.3223         1.9199     10088.0986 
        9.9910         7.4537
    3425.95200 
       44.9435        75.1812        28.2509       122.1115      1447.5217 
       52.4413       100.9590     15958.3027      8289.2471        42.7018 
       42.7018       117.2442        25.0256    0.000739606       0.315247 
     -999.2500     11014.7578      5287.4961     11190.3945      7502.0161 
      0.283723      1943.6045         2.4954         1.6729     12091.2412 
     4501.7222      6979.5249     19068.9395         1.9252      9905.0107 
        9.5478         6.9990
    3426.10440 
       44.4736        71.7519        28.8072       114.6965      1423.9712 
       53.6657       102.9779     15361.6289      8005.5293        39.8575 
       39.8575       107.8027        23.6952    0.000689843       0.313578 
     -999.2500     11015.3438      5287.5493     11191.8857      7484.4927 
      0.282220      1820.2052         2.4956         1.6689     11809.3955 
     4193.1426      6787.1938     18633.8770         1.9189      9710.8213 
        9.0288         6.4812
