~Version Information Block
VERS .                  2.0:  CWLS LOG ASCII STANDARD - VERSION 2.0
WRAP .                  YES:  Multiple lines per depth step
~Well Information Block
#MNEM.UNIT        Data Type   Information
#---------- ----------------  -----------
STRT .M          2784.04320:  START DEPTH
STOP .M          3715.96920:  STOP DEPTH
STEP .M             0.15240:  STEP
NULL .              -999.25:  NULL VALUE
COMP .                     :  COMPANY
WELL .      RAAG-101-02-104:  WELL
FLD  .                     :  FIELD
LOC  .                     :  LOCATION
CTRY .                     :  COUNTRY
STAT .                     :  STATE
CNTY .                     :  COUNTY
SRVC .                     :  SERVICE COMPANY
DATE .                     :  DATE
API  .                     :  API NUMBER
UWI  .                     :  UNIQUE WELL ID
~Curve Information Block
#MNEM.UNIT         API CODE   Curve Description
#---------- ----------------  -----------------
DEPTH.M                    :  
ANGLE_FAIL.DEG                  :  Fail Angle
BRIT_IND.                     :  Brittleness Index
BRIT_PR.                     :  Brittleness Index from Poisson's Ratio
BRIT_YM.                     :  Brittleness Index from Young's Modulus
CS   .M/MIN                 :  Compressive Strength
DTCO .US/F                 :  Compressional slowness
DTSM .US/F                 :  Fast Shear slowness
IP   .RAYL/M2                 :  P Impedence
IS   .RAYL/M2                 :  S Impedance
KBULK.                     :  Bulk Mudulus
LAMBDA.                     :  Lambda
LAMRHO.                     :  
MU   .CP                   :  Mu
MURHO.(GF/C3S)2                 :  Mu*Rho
PR   .                     :  Poisson's ratio
PRESS_FG.PSI                  :  Fracture Gradient Pressure
PRESS_OB.PSI                  :  Over-burden Pressure
PRESS_PP.PSI                  :  Pore Pressure
PRESS_SHMAX.PSI                  :  Horizontal Stress (Max)
PRESS_SHMIN.PSI                  :  Horizontal Stress (Min)
PR_STAT.                     :  Poisson's ratio (Static)
PZS  .PSI                  :  Processed Zone Stress
SHMAX_GRAD.                     :  Horizontal Stress Gradient (Max)
SHMIN_GRAD.                     :  Horizontal Stress Gradient (Min)
STRESS_CUM.PSI                  :  Cumulative stress (SHPZ)
UCS_BF.PSI                  :  Uniaxial Compressive Strength (BF)
UCS_LAL.PSI                  :  Uniaxial Compressive Strength (lal)
VP   .FT/S                 :  Compressional velocity
VPVS .                     :  Vp / Vs ratio
VS   .FT/S                 :  Shear velocity
YM   .                     :  Youngs' Modulus
YM_STAT.                     :  Youngs' Modulus (Static)
~Parameter Information Block
#MNEM.UNIT            Value   Description
#---------- ----------------  -----------
PROJECT.          RDG_13Jul21:  
SET  .              GEOMECH:  
~Other Information Block
~Ascii Log Data
# ...
    3066.89760 
       44.1492        75.7676        32.1371       119.3980      1407.9313 
       54.5218       102.6644     15695.6631      8335.4678        38.2511 
       38.2511       107.3938        24.7471         0.0007       0.303589 
     -999.2500     10464.5527      5227.6479     10630.7510      7140.5874 
      0.273230      3079.2886         2.4824         1.6674     13639.7520 
     4387.7085      6657.8477     18341.2871         1.8830      9740.4746 
        9.3579         6.8077
    3067.05000 
       43.9660        78.0163        35.7864       120.2463      1398.9486 
       55.0093       101.6002     15462.2598      8371.7168        35.4443 
       35.4443        98.9102        25.1151         0.0008       0.292641 
     -999.2500     10465.1426      5227.7197     10636.2744      7042.4917 
      0.263377      3079.2888         2.4835         1.6444     13443.5605 
     4423.2173      6585.9917     18178.7441         1.8470      9842.5000 
        9.4172         6.8673
    3067.20240 
       43.6607        79.6956        39.7867       119.6046      1384.1107 
       55.8275       101.0980     15154.1387      8368.2930        32.2776 
       32.2776        89.5913        25.2295         0.0008       0.280640 
     -999.2500     10465.7305      5227.7925     10642.1299      6937.7456 
      0.252576      3078.3611         2.4848         1.6199     13232.2129 
     4396.3452      6468.2119     17912.3184         1.8109      9891.3926 
        9.3723         6.8222
    3067.35480 
       43.2661        81.4808        44.5906       118.3710      1365.1456 
       56.8973       100.8036     14813.2314      8361.1387        28.7916 
       28.7916        79.6145        25.2816         0.0008       0.266228 
     -999.2500     10466.3193      5227.8647     10648.8457      6815.7832 
      0.239605      3069.9888         2.4862         1.5913     12971.5430 
     4344.8833      6319.3237     17575.5273         1.7717      9920.2813 
        9.2860         6.7358
    3067.50720 
       43.0117        83.6572        48.5599       118.7544      1353.0537 
       57.5938       100.3384     14679.2871      8425.8457        26.4955 
       26.4955        73.4917        25.5954         0.0008       0.254320 
     -999.2500     10466.9082      5227.9365     10654.3408      6718.2612 
      0.228888      3066.6963         2.4874         1.5684     12769.9150 
     4360.8496      6225.3628     17362.9805         1.7422      9966.2734 
        9.3128         6.7626
    3067.65960 
       43.0359        85.5335        50.0816       120.9853      1354.1997 
       57.5273        99.6077     14779.6338      8535.8115        26.0685 
       26.0685        72.7174        26.1196         0.0008       0.249755 
     -999.2500     10467.4971      5228.0088     10656.7764      6681.9116 
      0.224780      3073.5029         2.4878         1.5599     12710.8291 
     4454.2485      6234.2354     17383.0508         1.7315     10039.3848 
        9.4690         6.9194
    3067.81200 
       43.2479        86.5409        49.2776       123.8041      1364.2780 
       56.9469        98.9220     15003.3105      8637.0273        27.0780 
       27.0780        75.9028        26.6125         0.0008       0.252167 
     -999.2500     10468.0850      5228.0806     10656.4014      6701.7759 
      0.226950      3078.8870         2.4876         1.5644     12761.3252 
     4573.4805      6312.5566     17560.2188         1.7371     10108.9746 
        9.6663         7.1194
    3067.96440 
       43.6911        86.0865        45.2960       126.8771      1385.5791 
       55.7458        98.4612     15375.3506      8705.0654        30.1720 
       30.1720        84.8451        26.9477         0.0008       0.264112 
     -999.2500     10468.6748      5228.1523     10652.1123      6799.9277 
      0.237701      3079.2878         2.4865         1.5873     12958.4316 
     4705.0151      6479.8169     17938.5703         1.7663     10156.2852 
        9.8814         7.3401
    3068.11680 
       44.2921        83.2579        38.1085       128.4073      1414.9750 
       54.1436        98.8458     15856.7207      8685.6494        35.6990 
       35.6990       100.5546        26.7830         0.0008       0.285674 
     -999.2500     10469.2637      5228.2246     10643.5391      6983.7437 
      0.257107      3071.4070         2.4843         1.6301     13310.3008 
     4771.1167      6714.4849     18469.4023         1.8256     10116.7676 
        9.9885         7.4511
    3068.26920 
       44.6379        77.9091        30.9710       124.8471      1432.1584 
       53.2357       100.8931     16114.5166      8502.7383        40.8895 
       40.8895       115.0845        25.6869         0.0008       0.307087 
     -999.2500     10469.8516      5228.2964     10634.5664      7175.5557 
      0.276378      2992.5986         2.4821         1.6748     13536.3086 
     4617.9443      6853.7314     18784.3887         1.8952      9911.4805 
        9.7393         7.1940
    3068.42160 
       44.6515        69.6495        23.9132       115.3857      1432.8403 
       53.2001       105.2150     16083.3340      8132.2529        45.0294 
       45.0294       126.4066        23.5585         0.0007       0.328260 
     -999.2500     10470.4414      5228.3687     10625.2139      7374.9888 
      0.295434      2904.6614         2.4798         1.7212     13759.3008 
     4221.4282      6859.2881     18796.9570         1.9777      9504.3486 
        9.0770         6.5287
    3068.57400 
       44.3371        59.6669        17.2441       102.0898      1417.1975 
       54.0250       111.9671     15857.8232      7651.5234        47.8088 
       47.8088       134.3789        20.8292         0.0006       0.348268 
     -999.2500     10471.0303      5228.4409     10615.9180      7573.2686 
      0.313441      3010.2102         2.4775         1.7674     14366.9580 
     3690.0994      6732.4087     18509.9492         2.0725      8931.1953 
        8.1463         5.6371
    3068.72640 
       43.4464        50.7483        13.9472        87.5495      1373.7828 
       56.4067       119.9894     15152.1631      7122.9917        45.6884 
       45.6884       128.1140        18.0940         0.0005       0.358158 
     -999.2500     10471.6182      5228.5127     10611.4668      7674.6475 
      0.322343      2764.0322         2.4764         1.7910     14077.3594 
     3143.6746      6386.9014     17728.3906         2.1272      8334.0693 
        7.1285         4.7202
    3068.87880 
       41.5997        43.4873        15.4733        71.5013      1287.6896 
       61.5634       129.3540     13637.8818      6490.6719        36.9328 
       36.9328       101.7342        15.2941         0.0005       0.353580 
     -999.2500     10472.2070      5228.5850     10614.5254      7625.8423 
      0.318222      2410.3318         2.4769         1.7795     13272.3486 
     2582.5847      5730.4316     16243.4180         2.1012      7730.7231 
        6.0051         3.7787
    3069.03120 
       38.6688        37.1519        21.1367        53.1671      1160.6737 
       70.3807       141.8095     11416.4570      5666.0396        25.0849 
       25.0849        66.1275        12.1784         0.0003       0.336590 
     -999.2500     10472.7969      5228.6567     10623.8096      7452.5259 
      0.302931      1703.7101         2.4790         1.7390     11512.4717 
     1995.5040      4830.8193     14208.4414         2.0149      7051.7144 
        4.7217         2.7936
    3069.18360 
       34.9199        33.7334        31.1495        36.3173      1012.5458 
       82.8801       156.9187      9110.0508      4811.6758        14.8107 
       14.8107        36.6886         9.3462         0.0002       0.306552 
     -999.2500     10473.3848      5228.7285     10638.8027      7165.0317 
      0.275896       977.6649         2.4824         1.6718      9485.3926 
     1506.6755      3883.5332     12065.6230         1.8933      6372.7266 
        3.5422         1.9733
