~Version Information Block
VERS .                  2.0:  CWLS LOG ASCII STANDARD - VERSION 2.0
WRAP .                   NO:  One line per depth step
~Well Information Block
#MNEM.UNIT        Data Type   Information
#---------- ----------------  -----------
STRT .M                0.00:  START DEPTH
STOP .M             3613.00:  STOP DEPTH
STEP .M                0.50:  STEP
NULL .              -999.25:  NULL VALUE
COMP .                     :  COMPANY
WELL .      RAAG-100-07-213:  WELL
FLD  .                     :  FIELD
LOC  .                     :  LOCATION
CTRY .                     :  COUNTRY
STAT .                     :  STATE
CNTY .                     :  COUNTY
SRVC .                     :  SERVICE COMPANY
DATE .                     :  DATE
API  .                     :  API NUMBER
UWI  .                     :  UNIQUE WELL ID
~Curve Information Block
#MNEM.UNIT         API CODE   Curve Description
#---------- ----------------  -----------------
DEPTH.M                    :  
OBG  .G/CC                 :  2.174+0.00008962*TVDSS
PP   .G/CC                 :  2.1087-0.00029524*TVDSS
~Parameter Information Block
#MNEM.UNIT            Value   Description
#---------- ----------------  -----------
PROJECT.          RDG_13Jul21:  
SET  .              GEOMECH:  
~Other Information Block
# 
~A       DEPTH            OBG             PP 
# ...
       2848.00         2.4213         1.2940
       2848.50         2.4214         1.2938
       2849.00         2.4214         1.2937
       2849.50         2.4214         1.2935
       2850.00         2.4215         1.2934
       2850.50         2.4215         1.2932
       2851.00         2.4216         1.2931
       2851.50         2.4216         1.2929
       2852.00         2.4217         1.2928
       2852.50         2.4217         1.2926
       2853.00         2.4218         1.2925
       2853.50         2.4218         1.2923
       2854.00         2.4219         1.2922
       2854.50         2.4219         1.2920
       2855.00         2.4219         1.2919
       2855.50         2.4220         1.2917
       2856.00         2.4220         1.2916
       2856.50         2.4221         1.2915
       2857.00         2.4221         1.2913
       2857.50         2.4222         1.2912
       2858.00         2.4222         1.2910
       2858.50         2.4223         1.2909
       2859.00         2.4223         1.2907
       2859.50         2.4223         1.2906
       2860.00         2.4224         1.2904
       2860.50         2.4224         1.2903
       2861.00         2.4225         1.2901
       2861.50         2.4225         1.2900
       2862.00         2.4226         1.2898
       2862.50         2.4226         1.2897
       2863.00         2.4227         1.2895
       2863.50         2.4227         1.2894
       2864.00         2.4227         1.2892
       2864.50         2.4228         1.2891
       2865.00         2.4228         1.2889
       2865.50         2.4229         1.2888
       2866.00         2.4229         1.2886
       2866.50         2.4230         1.2885
       2867.00         2.4230         1.2884
       2867.50         2.4231         1.2882
       2868.00         2.4231         1.2881
       2868.50         2.4232         1.2879
       2869.00         2.4232         1.2878
       2869.50         2.4232         1.2876
       2870.00         2.4233         1.2875
       2870.50         2.4233         1.2873
       2871.00         2.4234         1.2872
       2871.50         2.4234         1.2870
       2872.00         2.4235         1.2869
       2872.50         2.4235         1.2867
       2873.00         2.4236         1.2866
       2873.50         2.4236         1.2864
       2874.00         2.4236         1.2863
       2874.50         2.4237         1.2861
       2875.00         2.4237         1.2860
       2875.50         2.4238         1.2858
       2876.00         2.4238         1.2857
       2876.50         2.4239         1.2855
       2877.00         2.4239         1.2854
       2877.50         2.4240         1.2853
       2878.00         2.4240         1.2851
       2878.50         2.4240         1.2850
       2879.00         2.4241         1.2848
       2879.50         2.4241         1.2847
       2880.00         2.4242         1.2845
       2880.50         2.4242         1.2844
       2881.00         2.4243         1.2842
       2881.50         2.4243         1.2841
       2882.00         2.4244         1.2839
       2882.50         2.4244         1.2838
       2883.00         2.4245         1.2836
       2883.50         2.4245         1.2835
       2884.00         2.4245         1.2833
       2884.50         2.4246         1.2832
       2885.00         2.4246         1.2830
       2885.50         2.4247         1.2829
       2886.00         2.4247         1.2827
       2886.50         2.4248         1.2826
       2887.00         2.4248         1.2824
       2887.50         2.4249         1.2823
       2888.00         2.4249         1.2822
       2888.50         2.4249         1.2820
       2889.00         2.4250         1.2819
       2889.50         2.4250         1.2817
       2890.00         2.4251         1.2816
       2890.50         2.4251         1.2814
       2891.00         2.4252         1.2813
       2891.50         2.4252         1.2811
       2892.00         2.4253         1.2810
       2892.50         2.4253         1.2808
       2893.00         2.4253         1.2807
       2893.50         2.4254         1.2805
       2894.00         2.4254         1.2804
       2894.50         2.4255         1.2802
       2895.00         2.4255         1.2801
       2895.50         2.4256         1.2799
       2896.00         2.4256         1.2798
       2896.50         2.4257         1.2796
       2897.00         2.4257         1.2795
       2897.50         2.4257         1.2793
       2898.00         2.4258         1.2792
       2898.50         2.4258         1.2791
       2899.00         2.4259         1.2789
       2899.50         2.4259         1.2788
       2900.00         2.4260         1.2786
       2900.50         2.4260         1.2785
       2901.00         2.4261         1.2783
       2901.50         2.4261         1.2782
       2902.00         2.4262         1.2780
       2902.50         2.4262         1.2779
       2903.00         2.4262         1.2777
       2903.50         2.4263         1.2776
       2904.00         2.4263         1.2774
       2904.50         2.4264         1.2773
       2905.00         2.4264         1.2771
       2905.50         2.4265         1.2770
       2906.00         2.4265         1.2768
       2906.50         2.4266         1.2767
       2907.00         2.4266         1.2765
       2907.50         2.4266         1.2764
       2908.00         2.4267         1.2762
       2908.50         2.4267         1.2761
       2909.00         2.4268         1.2760
       2909.50         2.4268         1.2758
       2910.00         2.4269         1.2757
       2910.50         2.4269         1.2755
       2911.00         2.4270         1.2754
       2911.50         2.4270         1.2752
       2912.00         2.4270         1.2751
       2912.50         2.4271         1.2749
       2913.00         2.4271         1.2748
       2913.50         2.4272         1.2746
       2914.00         2.4272         1.2745
       2914.50         2.4273         1.2743
       2915.00         2.4273         1.2742
       2915.50         2.4274         1.2740
       2916.00         2.4274         1.2739
       2916.50         2.4275         1.2737
       2917.00         2.4275         1.2736
       2917.50         2.4275         1.2734
       2918.00         2.4276         1.2733
       2918.50         2.4276         1.2731
       2919.00         2.4277         1.2730
       2919.50         2.4277         1.2729
       2920.00         2.4278         1.2727
       2920.50         2.4278         1.2726
       2921.00         2.4279         1.2724
       2921.50         2.4279         1.2723
       2922.00         2.4279         1.2721
       2922.50         2.4280         1.2720
       2923.00         2.4280         1.2718
       2923.50         2.4281         1.2717
       2924.00         2.4281         1.2715
       2924.50         2.4282         1.2714
       2925.00         2.4282         1.2712
       2925.50         2.4283         1.2711
       2926.00         2.4283         1.2709
       2926.50         2.4283         1.2708
       2927.00         2.4284         1.2706
       2927.50         2.4284         1.2705
       2928.00         2.4285         1.2703
       2928.50         2.4285         1.2702
       2929.00         2.4286         1.2700
       2929.50         2.4286         1.2699
       2930.00         2.4287         1.2698
       2930.50         2.4287         1.2696
       2931.00         2.4288         1.2695
       2931.50         2.4288         1.2693
       2932.00         2.4288         1.2692
       2932.50         2.4289         1.2690
       2933.00         2.4289         1.2689
       2933.50         2.4290         1.2687
       2934.00         2.4290         1.2686
       2934.50         2.4291         1.2684
       2935.00         2.4291         1.2683
       2935.50         2.4292         1.2681
       2936.00         2.4292         1.2680
       2936.50         2.4292         1.2678
