~Version Information Block
VERS .                  2.0:  CWLS LOG ASCII STANDARD - VERSION 2.0
WRAP .                   NO:  One line per depth step
~Well Information Block
#MNEM.UNIT        Data Type   Information
#---------- ----------------  -----------
STRT .M                0.00:  START DEPTH
STOP .M             3613.00:  STOP DEPTH
STEP .M                0.50:  STEP
NULL .              -999.25:  NULL VALUE
COMP .                     :  COMPANY
WELL .      RAAG-100-07-213:  WELL
FLD  .                     :  FIELD
LOC  .                     :  LOCATION
CTRY .                     :  COUNTRY
STAT .                     :  STATE
CNTY .                     :  COUNTY
SRVC .                     :  SERVICE COMPANY
DATE .                     :  DATE
API  .                     :  API NUMBER
UWI  .                     :  UNIQUE WELL ID
~Curve Information Block
#MNEM.UNIT         API CODE   Curve Description
#---------- ----------------  -----------------
DEPTH.M                    :  
OBG  .G/CC                 :  2.174+0.00008962*TVDSS
PP   .G/CC                 :  2.1087-0.00029524*TVDSS
~Parameter Information Block
#MNEM.UNIT            Value   Description
#---------- ----------------  -----------
PROJECT.          RDG_13Jul21:  
SET  .              GEOMECH:  
~Other Information Block
# 
~A       DEPTH            OBG             PP 
# ...
        712.00         2.2310         1.9209
        712.50         2.2310         1.9208
        713.00         2.2311         1.9206
        713.50         2.2311         1.9205
        714.00         2.2312         1.9203
        714.50         2.2312         1.9202
        715.00         2.2313         1.9200
        715.50         2.2313         1.9199
        716.00         2.2314         1.9198
        716.50         2.2314         1.9196
        717.00         2.2314         1.9195
        717.50         2.2315         1.9193
        718.00         2.2315         1.9192
        718.50         2.2316         1.9190
        719.00         2.2316         1.9189
        719.50         2.2317         1.9188
        720.00         2.2317         1.9186
        720.50         2.2317         1.9185
        721.00         2.2318         1.9183
        721.50         2.2318         1.9182
        722.00         2.2319         1.9180
        722.50         2.2319         1.9179
        723.00         2.2320         1.9178
        723.50         2.2320         1.9176
        724.00         2.2320         1.9175
        724.50         2.2321         1.9173
        725.00         2.2321         1.9172
        725.50         2.2322         1.9170
        726.00         2.2322         1.9169
        726.50         2.2323         1.9167
        727.00         2.2323         1.9166
        727.50         2.2324         1.9165
        728.00         2.2324         1.9163
        728.50         2.2324         1.9162
        729.00         2.2325         1.9160
        729.50         2.2325         1.9159
        730.00         2.2326         1.9157
        730.50         2.2326         1.9156
        731.00         2.2327         1.9155
        731.50         2.2327         1.9153
        732.00         2.2327         1.9152
        732.50         2.2328         1.9150
        733.00         2.2328         1.9149
        733.50         2.2329         1.9147
        734.00         2.2329         1.9146
        734.50         2.2330         1.9144
        735.00         2.2330         1.9143
        735.50         2.2331         1.9142
        736.00         2.2331         1.9140
        736.50         2.2331         1.9139
        737.00         2.2332         1.9137
        737.50         2.2332         1.9136
        738.00         2.2333         1.9134
        738.50         2.2333         1.9133
        739.00         2.2334         1.9132
        739.50         2.2334         1.9130
        740.00         2.2334         1.9129
        740.50         2.2335         1.9127
        741.00         2.2335         1.9126
        741.50         2.2336         1.9124
        742.00         2.2336         1.9123
        742.50         2.2337         1.9121
        743.00         2.2337         1.9120
        743.50         2.2338         1.9119
        744.00         2.2338         1.9117
        744.50         2.2338         1.9116
        745.00         2.2339         1.9114
        745.50         2.2339         1.9113
        746.00         2.2340         1.9111
        746.50         2.2340         1.9110
        747.00         2.2341         1.9109
        747.50         2.2341         1.9107
        748.00         2.2341         1.9106
        748.50         2.2342         1.9104
        749.00         2.2342         1.9103
        749.50         2.2343         1.9101
        750.00         2.2343         1.9100
        750.50         2.2344         1.9098
        751.00         2.2344         1.9097
        751.50         2.2344         1.9096
        752.00         2.2345         1.9094
        752.50         2.2345         1.9093
        753.00         2.2346         1.9091
        753.50         2.2346         1.9090
        754.00         2.2347         1.9088
        754.50         2.2347         1.9087
        755.00         2.2348         1.9086
        755.50         2.2348         1.9084
        756.00         2.2348         1.9083
        756.50         2.2349         1.9081
        757.00         2.2349         1.9080
        757.50         2.2350         1.9078
        758.00         2.2350         1.9077
        758.50         2.2351         1.9075
        759.00         2.2351         1.9074
        759.50         2.2351         1.9073
        760.00         2.2352         1.9071
        760.50         2.2352         1.9070
        761.00         2.2353         1.9068
        761.50         2.2353         1.9067
        762.00         2.2354         1.9065
        762.50         2.2354         1.9064
        763.00         2.2355         1.9063
        763.50         2.2355         1.9061
        764.00         2.2355         1.9060
        764.50         2.2356         1.9058
        765.00         2.2356         1.9057
        765.50         2.2357         1.9055
        766.00         2.2357         1.9054
        766.50         2.2358         1.9052
        767.00         2.2358         1.9051
        767.50         2.2358         1.9050
        768.00         2.2359         1.9048
        768.50         2.2359         1.9047
        769.00         2.2360         1.9045
        769.50         2.2360         1.9044
        770.00         2.2361         1.9042
        770.50         2.2361         1.9041
        771.00         2.2362         1.9040
        771.50         2.2362         1.9038
        772.00         2.2362         1.9037
        772.50         2.2363         1.9035
        773.00         2.2363         1.9034
        773.50         2.2364         1.9032
        774.00         2.2364         1.9031
        774.50         2.2365         1.9029
        775.00         2.2365         1.9028
        775.50         2.2365         1.9027
        776.00         2.2366         1.9025
        776.50         2.2366         1.9024
        777.00         2.2367         1.9022
        777.50         2.2367         1.9021
        778.00         2.2368         1.9019
        778.50         2.2368         1.9018
        779.00         2.2368         1.9017
        779.50         2.2369         1.9015
        780.00         2.2369         1.9014
        780.50         2.2370         1.9012
        781.00         2.2370         1.9011
        781.50         2.2371         1.9009
        782.00         2.2371         1.9008
        782.50         2.2372         1.9006
        783.00         2.2372         1.9005
        783.50         2.2372         1.9004
        784.00         2.2373         1.9002
        784.50         2.2373         1.9001
        785.00         2.2374         1.8999
        785.50         2.2374         1.8998
        786.00         2.2375         1.8996
        786.50         2.2375         1.8995
        787.00         2.2375         1.8994
        787.50         2.2376         1.8992
        788.00         2.2376         1.8991
        788.50         2.2377         1.8989
        789.00         2.2377         1.8988
        789.50         2.2378         1.8986
        790.00         2.2378         1.8985
        790.50         2.2379         1.8983
        791.00         2.2379         1.8982
        791.50         2.2379         1.8981
        792.00         2.2380         1.8979
        792.50         2.2380         1.8978
        793.00         2.2381         1.8976
        793.50         2.2381         1.8975
        794.00         2.2382         1.8973
        794.50         2.2382         1.8972
        795.00         2.2382         1.8970
        795.50         2.2383         1.8969
        796.00         2.2383         1.8968
        796.50         2.2384         1.8966
        797.00         2.2384         1.8965
        797.50         2.2385         1.8963
        798.00         2.2385         1.8962
        798.50         2.2386         1.8960
        799.00         2.2386         1.8959
        799.50         2.2386         1.8958
        800.00         2.2387         1.8956
        800.50         2.2387         1.8955
