~Version Information Block
VERS .                  2.0:  CWLS LOG ASCII STANDARD - VERSION 2.0
WRAP .                  YES:  Multiple lines per depth step
~Well Information Block
#MNEM.UNIT        Data Type   Information
#---------- ----------------  -----------
STRT .M          2784.04320:  START DEPTH
STOP .M          3715.96920:  STOP DEPTH
STEP .M             0.15240:  STEP
NULL .              -999.25:  NULL VALUE
COMP .                     :  COMPANY
WELL .      RAAG-101-02-104:  WELL
FLD  .                     :  FIELD
LOC  .                     :  LOCATION
CTRY .                     :  COUNTRY
STAT .                     :  STATE
CNTY .                     :  COUNTY
SRVC .                     :  SERVICE COMPANY
DATE .                     :  DATE
API  .                     :  API NUMBER
UWI  .                     :  UNIQUE WELL ID
~Curve Information Block
#MNEM.UNIT         API CODE   Curve Description
#---------- ----------------  -----------------
DEPTH.M                    :  
ANGLE_FAIL.DEG                  :  Fail Angle
BRIT_IND.                     :  Brittleness Index
BRIT_PR.                     :  Brittleness Index from Poisson's Ratio
BRIT_YM.                     :  Brittleness Index from Young's Modulus
CS   .M/MIN                 :  Compressive Strength
DTCO .US/F                 :  Compressional slowness
DTSM .US/F                 :  Fast Shear slowness
IP   .RAYL/M2                 :  P Impedence
IS   .RAYL/M2                 :  S Impedance
KBULK.                     :  Bulk Mudulus
LAMBDA.                     :  Lambda
LAMRHO.                     :  
MU   .CP                   :  Mu
MURHO.(GF/C3S)2                 :  Mu*Rho
PR   .                     :  Poisson's ratio
PRESS_FG.PSI                  :  Fracture Gradient Pressure
PRESS_OB.PSI                  :  Over-burden Pressure
PRESS_PP.PSI                  :  Pore Pressure
PRESS_SHMAX.PSI                  :  Horizontal Stress (Max)
PRESS_SHMIN.PSI                  :  Horizontal Stress (Min)
PR_STAT.                     :  Poisson's ratio (Static)
PZS  .PSI                  :  Processed Zone Stress
SHMAX_GRAD.                     :  Horizontal Stress Gradient (Max)
SHMIN_GRAD.                     :  Horizontal Stress Gradient (Min)
STRESS_CUM.PSI                  :  Cumulative stress (SHPZ)
UCS_BF.PSI                  :  Uniaxial Compressive Strength (BF)
UCS_LAL.PSI                  :  Uniaxial Compressive Strength (lal)
VP   .FT/S                 :  Compressional velocity
VPVS .                     :  Vp / Vs ratio
VS   .FT/S                 :  Shear velocity
YM   .                     :  Youngs' Modulus
YM_STAT.                     :  Youngs' Modulus (Static)
~Parameter Information Block
#MNEM.UNIT            Value   Description
#---------- ----------------  -----------
PROJECT.          RDG_13Jul21:  
SET  .              GEOMECH:  
~Other Information Block
~Ascii Log Data
# ...
    3588.71520 
       40.4423        62.9455        46.2956        79.5954      1236.2170 
       64.9498       114.2275     11840.2227      6732.3550        19.6358 
       19.6358        49.5417        17.9643         0.0005       0.261113 
     -999.2500     12515.0840      5360.3667     12766.3623      7489.5181 
      0.235002      2343.3674         2.5403         1.4903     12865.7705 
     2860.0691      5356.0337     15396.5059         1.7587      8754.4590 
        6.5717         4.2443
    3588.86760 
       40.1723        64.2688        49.3551        79.1824      1224.4625 
       65.7576       114.1912     11721.2305      6749.7319        18.2974 
       18.2974        46.2695        18.0164         0.0005       0.251935 
     -999.2500     12515.6924      5360.3721     12772.0674      7388.1987 
      0.226741      1961.6415         2.5413         1.4701     11899.6807 
     2845.6384      5272.4204     15207.3672         1.7365      8757.2422 
        6.5428         4.2201
    3589.02000 
       39.9773        66.2627        53.1000        79.4254      1216.0302 
       66.3453       113.5313     11617.6338      6789.1001        16.9194 
       16.9194        42.7857        18.2268         0.0005       0.240700 
     -999.2500     12516.3027      5360.3774     12778.7627      7267.0933 
      0.216630      2020.6199         2.5426         1.4459     11775.4258 
     2854.1270      5212.8682     15072.6572         1.7112      8808.1436 
        6.5598         4.2343
    3589.17240 
       39.9450        68.1135        55.8539        80.3731      1214.6407 
       66.4428       112.5363     11590.5908      6843.2261        16.1015 
       16.1015        40.6823        18.5346         0.0005       0.232438 
     -999.2500     12516.9111      5360.3828     12783.7520      7180.1011 
      0.209194      1909.3213         2.5435         1.4286     11378.8447 
     2887.3228      5203.0903     15050.5391         1.6937      8886.0215 
        6.6261         4.2901
    3589.32480 
       40.0541        68.8065        56.2593        81.3537      1219.3485 
       66.1132       111.8129     11629.6924      6876.4536        16.1259 
       16.1259        40.6785        18.7451         0.0005       0.231222 
     -999.2500     12517.5195      5360.3877     12785.0137      7167.6353 
      0.208100      2009.2360         2.5436         1.4260     11553.7422 
     2921.8301      5236.2607     15125.5742         1.6912      8943.5117 
        6.6948         4.3480
    3589.47720 
       40.2619        68.7513        54.8529        82.6497      1228.3527 
       65.4888       111.3298     11756.7813      6915.8257        16.8503 
       16.8503        42.5646        18.9342         0.0005       0.235441 
     -999.2500     12518.1289      5360.3926     12783.4287      7212.1250 
      0.211897      1825.3472         2.5432         1.4348     11274.9443 
     2967.6919      5300.0142     15269.7861         1.7000      8982.3203 
        6.7855         4.4249
    3589.62960 
       40.6913        68.3637        51.7206        85.0067      1247.1383 
       64.2110       110.4642     12000.7705      6975.8477        18.4694 
       18.4694        46.6936        19.2482         0.0005       0.244838 
     -999.2500     12518.7383      5360.3979     12779.0488      7312.5371 
      0.220354      1829.9756         2.5422         1.4547     11485.0254 
     3051.8347      5434.3472     15573.6553         1.7203      9052.7061 
        6.9505         4.5661
    3589.78200 
       41.1125        69.5689        50.6996        88.4382      1265.8009 
       62.9741       108.7712     12244.1729      7088.8774        19.5338 
       19.5338        49.4154        19.8645         0.0005       0.247901 
     -999.2500     12519.3467      5360.4038     12778.0107      7346.0713 
      0.223111      1842.0115         2.5419         1.4613     11576.1660 
     3176.0352      5569.5728     15879.5439         1.7272      9193.6104 
        7.1907         4.7745
    3589.93440 
       41.7231        70.6806        48.1928        93.1684      1293.2872 
       61.2094       106.7983     12627.4668      7237.1909        21.5705 
       21.5705        54.6991        20.6548         0.0006       0.255422 
     -999.2500     12519.9561      5360.4087     12774.5088      7428.8931 
      0.229880      2048.6045         2.5411         1.4777     12154.9951 
     3350.5464      5771.9614     16337.3604         1.7448      9363.4453 
        7.5218         5.0673
    3590.08680 
       42.6407        71.5755        43.1625        99.9885      1335.5924 
       58.6199       104.5140     13269.2148      7442.4482        25.5849 
       25.5849        65.2920        21.7048         0.0006       0.270512 
     -999.2500     12520.5654      5360.4141     12766.6348      7599.1812 
      0.243461      2568.7651         2.5394         1.5115     13535.8926 
     3608.8965      6091.0044     17059.0547         1.7829      9568.0957 
        7.9992         5.5009
    3590.23920 
       43.6586        74.1541        38.8230       109.4853      1384.0066 
       55.8333       101.5767     14108.4561      7754.9448        30.4792 
       30.4792        78.7702        23.2702         0.0006       0.283531 
     -999.2500     12521.1748      5360.4194     12759.6602      7751.4580 
      0.255178      2305.4412         2.5379         1.5418     13313.7979 
     3981.9023      6467.3887     17910.4570         1.8193      9844.7773 
        8.6640         6.1268
    3590.39160 
       44.4336        77.5652        36.6975       118.4329      1421.9816 
       53.7709        98.8552     14804.6191      8052.7651        34.2617 
       34.2617        89.4827        24.8291         0.0007       0.289908 
     -999.2500     12521.7832      5360.4243     12756.4551      7828.3403 
      0.260917      2193.6841         2.5371         1.5570     13244.0488 
     4347.4609      6771.0776     18597.4199         1.8385     10115.8057 
        9.2903         6.7402
    3590.54400 
       44.8115        80.1078        36.2327       123.9829      1440.8673 
       52.7834        97.2677     15195.2568      8245.8760        36.0668 
       36.0668        94.9069        25.8394         0.0007       0.291302 
     -999.2500     12522.3936      5360.4297     12756.2207      7845.8325 
      0.262172      2185.1648         2.5370         1.5604     13261.9941 
     4581.0918      6924.8887     18945.3496         1.8428     10280.9053 
        9.6788         7.1322
    3590.69640 
       44.7484        81.7662        37.9592       125.5732      1437.6960 
       52.9475        96.7330     15215.4180      8328.2676        35.1060 
       35.1060        92.7889        26.2419         0.0007       0.286122 
     -999.2500     12523.0020      5360.4341     12759.9375      7784.2871 
      0.257510      2754.5200         2.5376         1.5481     14277.6143 
     4649.0068      6898.9316     18886.6348         1.8270     10337.7334 
        9.7901         7.2462
    3590.84880 
       44.5037        83.1419        40.7549       125.5290      1425.4668 
       53.5868        96.5986     15085.7910      8368.6436        32.9959 
       32.9959        87.5127        26.4058         0.0008       0.277735 
     -999.2500     12523.6104      5360.4395     12765.4980      7685.8545 
      0.249962      3085.3918         2.5386         1.5284     14742.4932 
     4647.1147      6799.3228     18661.3125         1.8027     10352.1172 
        9.7870         7.2430
    3591.00120 
       44.3704        84.4696        42.7099       126.2292      1418.8452 
       53.9373        96.3613     15058.0195      8428.5801        31.7721 
       31.7721        84.6620        26.6604         0.0008       0.271870 
     -999.2500     12524.2197      5360.4443     12769.5146      7618.3110 
      0.244683      3053.9912         2.5393         1.5150     14544.6045 
     4677.1484      6745.7134     18540.0449         1.7865     10377.6104 
        9.8360         7.2934
