~Version Information Block
VERS .                  2.0:  CWLS LOG ASCII STANDARD - VERSION 2.0
WRAP .                  YES:  Multiple lines per depth step
~Well Information Block
#MNEM.UNIT        Data Type   Information
#---------- ----------------  -----------
STRT .M          2656.78920:  START DEPTH
STOP .M          3640.98840:  STOP DEPTH
STEP .M             0.15240:  STEP
NULL .              -999.25:  NULL VALUE
COMP .                     :  COMPANY
WELL .       RAAG-98-07-214:  WELL
FLD  .                     :  FIELD
LOC  .                     :  LOCATION
CTRY .                     :  COUNTRY
STAT .                     :  STATE
CNTY .                     :  COUNTY
SRVC .                     :  SERVICE COMPANY
DATE .                     :  DATE
API  .                     :  API NUMBER
UWI  .                     :  UNIQUE WELL ID
~Curve Information Block
#MNEM.UNIT         API CODE   Curve Description
#---------- ----------------  -----------------
DEPTH.M                    :  
ANGLE_FAIL.DEG                  :  Fail Angle
BRIT_IND.                     :  Brittleness Index
BRIT_PR.                     :  Brittleness Index from Poisson's Ratio
BRIT_YM.                     :  Brittleness Index from Young's Modulus
CS   .M/MIN                 :  Compressive Strength
IP   .RAYL/M2                 :  P Impedence
IS   .RAYL/M2                 :  S Impedance
KBULK.                     :  Bulk Mudulus
LAMBDA.                     :  Lambda
LAMRHO.                     :  
MU   .CP                   :  Mu
MURHO.(GF/C3S)2                 :  Mu*Rho
PR   .                     :  Poisson's ratio
PRESS_FG.PSI                  :  Fracture Gradient Pressure
PRESS_OB.PSI                  :  Over-burden Pressure
PRESS_PP.PSI                  :  Pore Pressure
PRESS_SHMAX.PSI                  :  Horizontal Stress (Max)
PRESS_SHMIN.PSI                  :  Horizontal Stress (Min)
PR_STAT.                     :  Poisson's ratio (Static)
PZS  .PSI                  :  Processed Zone Stress
SHMAX_GRAD.                     :  Horizontal Stress Gradient (Max)
SHMIN_GRAD.                     :  Horizontal Stress Gradient (Min)
STRESS_CUM.PSI                  :  Cumulative stress (SHPZ)
UCS_BF.PSI                  :  Uniaxial Compressive Strength (BF)
UCS_LAL.PSI                  :  Uniaxial Compressive Strength (lal)
VP   .FT/S                 :  Compressional velocity
VPVS .                     :  Vp / Vs ratio
VS   .FT/S                 :  Shear velocity
YM   .                     :  Youngs' Modulus
YM_STAT.                     :  Youngs' Modulus (Static)
~Parameter Information Block
#MNEM.UNIT            Value   Description
#---------- ----------------  -----------
PROJECT.          RDG_13Jul21:  
SET  .              GEOMECH:  
~Other Information Block
~Ascii Log Data
# ...
    3045.40920 
       44.8085        89.5640        37.5512       141.5769      1440.7136 
    16958.4941      9263.6973        39.4791        39.4791       115.9584 
       29.2169    0.000923717       0.287347      -999.2500     10154.8506 
     5186.8535     10319.4121      6863.6196       0.258612      3027.3984 
        2.4758         1.6467     12982.0361      5356.5605      6923.6294 
    18942.5020         1.8306     10347.4746        10.9104         8.4334
    3045.56160 
       44.6675        91.0999        39.9450       142.2547      1433.6394 
    16851.5957      9312.6426        37.6067        37.6067       110.5257 
       29.5085    0.000933503       0.280165      -999.2500     10155.4277 
     5186.9351     10322.9639      6804.7163       0.252149      3034.1016 
        2.4766         1.6325     12877.6357      5387.4956      6865.8032 
    18811.6953         1.8095     10395.8457        10.9578         8.4854
    3045.71400 
       44.5682        91.2845        40.9648       141.6042      1428.6809 
    16742.6758      9296.8750        36.6205        36.6205       107.4534 
       29.4563    0.000930345       0.277106      -999.2500     10156.0039 
     5187.0161     10324.8057      6779.9722       0.249395      3079.2959 
        2.4769         1.6265     12918.5361      5357.8047      6825.4272 
    18720.3613         1.8009     10395.0459        10.9123         8.4355
    3045.86640 
       44.4833        89.6019        40.7668       138.4370      1424.4529 
    16493.6094      9150.1211        36.0327        36.0327       104.5897 
       28.8444    0.000901205       0.277700      -999.2500     10156.5811 
     5187.0977     10325.1748      6784.7222       0.249930      3078.9565 
        2.4768         1.6275     12927.3574      5214.2832      6791.0991 
    18642.7090         1.8026     10342.3730        10.6906         8.1947
    3046.01880 
       44.2424        87.9562        41.4599       134.4525      1412.5203 
    16175.4316      9002.5283        34.5634        34.5634        99.5535 
       28.1377    0.000872367       0.275620      -999.2500     10157.1572 
     5187.1782     10326.6299      6767.7075       0.248058      3056.4995 
        2.4771         1.6234     12848.4131      5036.1646      6694.7173 
    18424.6895         1.7968     10254.3662        10.4117         7.8958
    3046.17120 
       43.9175        86.8777        42.9447       130.8106      1396.5847 
    15870.4668      8892.7432        32.6404        32.6404        93.7100 
       27.5449    0.000851220       0.271166      -999.2500     10157.7344 
     5187.2593     10329.0332      6731.7520       0.244049      2974.5044 
        2.4775         1.6147     12612.5127      4875.7383      6567.1519 
    18136.1270         1.7847     10162.2666        10.1567         7.6266
    3046.32360 
       43.7065        86.5127        43.3750       129.6504      1386.3236 
    15860.0459      8904.0518        32.0771        32.0771        92.9768 
       27.3524    0.000853386       0.269875      -999.2500     10158.3115 
     5187.3403     10330.1484      6721.5640       0.242888      2879.9783 
        2.4776         1.6121     12403.0840      4825.1084      6485.7051 
    17951.8887         1.7812     10078.4424        10.0755         7.5417
    3046.47600 
       43.6198        85.3731        42.2489       128.4973      1382.1313 
    15917.7666      8891.2129        32.6117        32.6117        95.2679 
       27.0613    0.000850927       0.273253      -999.2500     10158.8877 
     5187.4219     10329.3936      6748.7598       0.245928      2793.1592 
        2.4773         1.6186     12283.8379      4775.0146      6452.5859 
    17876.9727         1.7903      9985.5713         9.9948         7.4576
    3046.62840 
       43.4286        83.3409        41.5221       125.1597      1372.9241 
    15767.2578      8777.8740        32.3598        32.3598        94.5043 
       26.3836    0.000829371       0.275434      -999.2500     10159.4648 
     5187.5029     10329.1240      6766.2690       0.247890      2690.7480 
        2.4771         1.6227     12114.0342      4631.3047      6380.1655 
    17713.1543         1.7963      9861.1846         9.7612         7.2165
    3046.78080 
       42.9384        82.4048        43.9418       120.8679      1349.5887 
    15394.3389      8664.3867        29.7504        29.7504        86.8425 
       25.7179    0.000808064       0.268175      -999.2500     10160.0410 
     5187.5835     10332.6475      6707.9033       0.241357      2678.6025 
        2.4779         1.6086     11973.0117      4449.3125      6198.5762 
    17302.3887         1.7767      9738.2930         9.4608         6.9111
    3046.93320 
       42.1163        79.8153        46.8069       112.8237      1311.2676 
    14785.5361      8425.2686        26.2928        26.2928        76.6418 
       24.3523    0.000764078       0.259579      -999.2500     10160.6172 
     5187.6650     10336.6592      6639.7739       0.233621      2770.4705 
        2.4787         1.5922     12020.4883      4116.6929      5906.4395 
    16641.5566         1.7549      9482.8877         8.8977         6.3529
    3047.08560 
       41.1042        71.8453        44.2907        99.3998      1265.4338 
    14083.0029      7938.5273        24.8355        24.8355        72.2905 
       21.6507    0.000678344       0.267128      -999.2500     10161.1943 
     5187.7456     10334.3457      6698.1606       0.240415      2844.6677 
        2.4780         1.6061     12285.6563      3586.2849      5566.8960 
    15873.4902         1.7740      8947.8174         7.9580         5.4629
    3047.23800 
       40.2924        62.8172        39.7000        85.9345      1229.6768 
    13296.0059      7339.1836        24.2068        24.2068        69.0566 
       18.8811    0.000579783       0.280900      -999.2500     10161.7705 
     5187.8271     10329.4453      6808.2847       0.252810      2723.5781 
        2.4767         1.6324     12263.7256      3085.2163      5309.4238 
    15291.0723         1.8116      8440.4287         7.0154         4.6221
    3047.39040 
       39.7213        57.4597        38.0223        76.8970      1205.0359 
    12569.5791      6882.1812        22.8558        22.8558        63.2655 
       17.1112    0.000509826       0.285933      -999.2500     10162.3467 
     5187.9077     10327.9990      6849.3027       0.257340      2197.4395 
        2.4762         1.6422     11293.4844      2766.3169      5135.7632 
    14898.2412         1.8264      8157.1860         6.3828         4.0870
    3047.54280 
       39.3071        55.7332        39.6945        71.7718      1187.4221 
    11940.2256      6590.6431        20.7885        20.7885        55.6958 
       16.2127    0.000467547       0.280916      -999.2500     10162.9238 
     5187.9893     10330.6797      6807.8062       0.252825      2013.6115 
        2.4768         1.6322     10842.8350      2591.6780      5013.5029 
    14621.6816         1.8117      8070.7251         6.0240         3.7940
    3047.69520 
       39.2414        55.9894        41.3535        70.6254      1184.6470 
    11678.9990      6496.8193        19.7775        19.7775        51.9817 
       16.0591    0.000454330       0.275940      -999.2500     10163.5010 
     5188.0698     10333.3047      6767.4287       0.248346      1849.9137 
        2.4773         1.6224     10434.6855      2553.2297      4994.3828 
    14578.4297         1.7976      8109.7212         5.9438         3.7294
    3047.84760 
       39.4407        55.7166        40.7400        70.6932      1193.0804 
    11633.1445      6452.8848        20.0614        20.0614        52.0506 
       16.0488    0.000448206       0.277780      -999.2500     10164.0781 
     5188.1509     10333.1504      6782.6138       0.250002      1793.3760 
        2.4771         1.6259     10351.9795      2555.4980      5052.6079 
    14710.1387         1.8028      8159.6885         5.9485         3.7332
