~Version Information Block
VERS .                  2.0:  CWLS LOG ASCII STANDARD - VERSION 2.0
WRAP .                   NO:  One line per depth step
~Well Information Block
#MNEM.UNIT        Data Type   Information
#---------- ----------------  -----------
STRT .M          2889.76360:  START DEPTH
STOP .M          3614.73040:  STOP DEPTH
STEP .M             0.15240:  STEP
NULL .              -999.25:  NULL VALUE
COMP .                     :  COMPANY
WELL .       RAAG-89-05-105:  WELL
FLD  .                     :  FIELD
LOC  .                     :  LOCATION
CTRY .                     :  COUNTRY
STAT .                     :  STATE
CNTY .                     :  COUNTY
SRVC .                     :  SERVICE COMPANY
DATE .                     :  DATE
API  .                     :  API NUMBER
UWI  .                     :  UNIQUE WELL ID
~Curve Information Block
#MNEM.UNIT         API CODE   Curve Description
#---------- ----------------  -----------------
DEPTH.M                    :  
PRESS_PP.PSI                  :  Pore Pressure
PZS  .PSI                  :  Processed Zone Stress
~Parameter Information Block
#MNEM.UNIT            Value   Description
#---------- ----------------  -----------
PROJECT.          RDG_13Jul21:  
SET  .              GEOMECH:  
~Other Information Block
# 
~A       DEPTH       PRESS_PP            PZS 
# ...
    3459.43480      5340.3882      3079.2959
    3459.58720      5340.4165      3079.2959
    3459.73960      5340.4443      2991.0264
    3459.89200      5340.4722      2786.2810
    3460.04440      5340.5005      2516.0090
    3460.19680      5340.5283      2534.4009
    3460.34920      5340.5566      2518.6299
    3460.50160      5340.5845      2523.8782
    3460.65400      5340.6123      2579.5146
    3460.80640      5340.6401      2636.1282
    3460.95880      5340.6675      2741.0959
    3461.11120      5340.6953      2937.2644
    3461.26360      5340.7236      2934.3005
    3461.41600      5340.7515      2763.6147
    3461.56840      5340.7798      3063.9302
    3461.72080      5340.8076      3079.2959
    3461.87320      5340.8354      3079.2959
    3462.02560      5340.8633      3070.0691
    3462.17800      5340.8901      2955.0984
    3462.33040      5340.9180      2502.9375
    3462.48280      5340.9458      2916.5671
    3462.63520      5340.9736      3054.7402
    3462.78760      5341.0010      3054.7402
    3462.94000      5341.0288      3057.8013
    3463.09240      5341.0566      3048.6260
    3463.24480      5341.0840      3070.0691
    3463.39720      5341.1118      3076.2180
    3463.54960      5341.1396      2955.0984
    3463.70200      5341.1670      2746.7119
    3463.85440      5341.1948      2732.6895
    3464.00680      5341.2217      2994.0359
    3464.15920      5341.2495      2949.1443
    3464.31160      5341.2773      2913.6199
    3464.46400      5341.3047      2994.0359
    3464.61640      5341.3320      2846.4888
    3464.76880      5341.3599      2590.2224
    3464.92120      5341.3872      2235.9683
    3465.07360      5341.4146      1940.6597
    3465.22600      5341.4414      1788.1899
    3465.37840      5341.4688      1840.6260
    3465.53080      5341.4961      2184.0151
    3465.68320      5341.5234      2347.7935
    3465.83560      5341.5508      2410.4177
    3465.98800      5341.5781      2365.1956
    3466.14040      5341.6055      1972.7963
    3466.29280      5341.6328      1770.3201
    3466.44520      5341.6592      1758.4865
    3466.59760      5341.6865      1832.4799
    3466.75000      5341.7144      1869.3660
    3466.90240      5341.7417      1709.8588
    3467.05480      5341.7690      1491.1865
    3467.20720      5341.7959      1467.2075
    3467.35960      5341.8232      1599.3539
    3467.51200      5341.8501      1818.2935
    3467.66440      5341.8774      1938.5322
    3467.81680      5341.9038      1904.7460
    3467.96920      5341.9312      1824.3625
    3468.12160      5341.9580      1816.2740
    3468.27400      5341.9854      1917.3601
    3468.42640      5342.0122      2009.7307
    3468.57880      5342.0391      2060.5793
    3468.73120      5342.0664      2031.7140
    3468.88360      5342.0933      1953.4636
    3469.03600      5342.1196      1877.6429
    3469.18840      5342.1465      1875.5709
    3469.34080      5342.1733      1818.2935
    3469.49320      5342.2007      1664.1941
    3469.64560      5342.2271      1498.0950
    3469.79800      5342.2539      1385.6982
    3469.95040      5342.2808      1375.9717
    3470.10280      5342.3076      1440.1815
    3470.25520      5342.3345      1492.9113
    3470.40760      5342.3613      1559.6427
    3470.56000      5342.3882      1649.1914
    3470.71240      5342.4146      1715.6366
    3470.86480      5342.4409      1651.0608
    3471.01720      5342.4678      1599.3539
    3471.16960      5342.4941      1586.6317
    3471.32200      5342.5210      1641.7307
    3471.47440      5342.5479      1834.5137
    3471.62680      5342.5742      1930.0411
    3471.77920      5342.6011      1953.4636
    3471.93160      5342.6274      1865.2384
    3472.08400      5342.6543      1709.8588
    3472.23640      5342.6807      1628.7394
    3472.38880      5342.7070      1626.8903
    3472.54120      5342.7339      1736.9558
    3472.69360      5342.7598      1826.3892
    3472.84600      5342.7861      1800.1831
    3472.99840      5342.8125      1669.8483
    3473.15080      5342.8389      1517.2252
    3473.30320      5342.8657      1506.7665
    3473.45560      5342.8921      1632.4427
    3473.60800      5342.9185      1774.2788
    3473.76040      5342.9448      1568.5979
    3473.91280      5342.9707      1460.4132
    3474.06520      5342.9971      1385.6982
    3474.21760      5343.0229      1475.7357
    3474.37000      5343.0493      1696.4376
    3474.52240      5343.0757      1593.8915
    3474.67480      5343.1021      1626.8903
    3474.82720      5343.1284      1597.5314
    3474.97960      5343.1543      1588.4442
    3475.13200      5343.1807      1647.3236
    3475.28440      5343.2070      1738.9044
    3475.43680      5343.2329      1713.7090
    3475.58920      5343.2593      1584.8209
    3475.74160      5343.2847      1402.0310
    3475.89400      5343.3110      1230.5854
    3476.04640      5343.3369      1149.9955
    3476.19880      5343.3633      1138.8361
    3476.35120      5343.3892      1176.8502
    3476.50360      5343.4150      1243.9484
    3476.65600      5343.4414      1318.7537
    3476.80840      5343.4673      1380.8280
    3476.96080      5343.4927      1336.0310
    3477.11320      5343.5186      1314.0728
    3477.26560      5343.5454      1289.3323
    3477.41800      5343.5713      1277.1024
    3477.57040      5343.5972      1382.4500
    3477.72280      5343.6226      1453.6443
    3477.87520      5343.6484      1494.6376
    3478.02760      5343.6743      1575.7916
    3478.18000      5343.7002      1750.6326
    3478.33240      5343.7251      2018.5011
    3478.48480      5343.7510      2579.5146
    3478.63720      5343.7769      2682.6824
    3478.78960      5343.8027      2526.5054
    3478.94200      5343.8281      2320.6545
    3479.09440      5343.8540      2040.5610
    3479.24680      5343.8799      1826.3892
    3479.39920      5343.9053      1772.2986
    3479.55160      5343.9307      1782.2174
    3479.70400      5343.9561      1780.2301
    3479.85640      5343.9824      1729.1791
    3480.00880      5344.0083      1700.2635
    3480.16120      5344.0332      1651.0608
    3480.31360      5344.0586      1534.7856
    3480.46600      5344.0845      1353.4890
    3480.61840      5344.1099      1172.5769
    3480.77080      5344.1348      1119.5154
    3480.92320      5344.1602      1119.5154
    3481.07560      5344.1855      1097.7568
    3481.22800      5344.2114      1010.2856
    3481.38040      5344.2368       874.3275
    3481.53280      5344.2622       853.1664
    3481.68520      5344.2876       870.9587
    3481.83760      5344.3130       884.4966
    3481.99000      5344.3379       890.1869
    3482.14240      5344.3633       937.9604
    3482.29480      5344.3887      1034.5028
    3482.44720      5344.4136      1137.4471
    3482.59960      5344.4390      1223.2115
    3482.75200      5344.4644      1267.9912
    3482.90440      5344.4897      1236.5103
    3483.05680      5344.5151      1088.3444
    3483.20920      5344.5396      1031.9320
    3483.36160      5344.5649      1050.0356
    3483.51400      5344.5898      1114.0437
    3483.66640      5344.6152      1175.4244
    3483.81880      5344.6401      1188.3064
    3483.97120      5344.6655      1158.4224
    3484.12360      5344.6904      1107.2341
    3484.27600      5344.7158      1053.9478
    3484.42840      5344.7402      1021.6998
    3484.58080      5344.7651      1133.2888
    3484.73320      5344.7905      1266.4777
    3484.88560      5344.8154      1380.8280
    3485.03800      5344.8403      1479.1581
    3485.19040      5344.8652      1669.8483
    3485.34280      5344.8901      1746.7162
    3485.49520      5344.9150      1842.6671
    3485.64760      5344.9395      1936.4066
    3485.80000      5344.9644      2016.3057
    3485.95240      5344.9893      2103.3567
    3486.10480      5345.0142      2198.0874
    3486.25720      5345.0386      2144.5349
    3486.40960      5345.0635      2142.2305
