~Version Information Block
VERS .                  2.0:  CWLS LOG ASCII STANDARD - VERSION 2.0
WRAP .                   NO:  One line per depth step
~Well Information Block
#MNEM.UNIT        Data Type   Information
#---------- ----------------  -----------
STRT .M          2889.76360:  START DEPTH
STOP .M          3614.73040:  STOP DEPTH
STEP .M             0.15240:  STEP
NULL .              -999.25:  NULL VALUE
COMP .                     :  COMPANY
WELL .       RAAG-89-05-105:  WELL
FLD  .                     :  FIELD
LOC  .                     :  LOCATION
CTRY .                     :  COUNTRY
STAT .                     :  STATE
CNTY .                     :  COUNTY
SRVC .                     :  SERVICE COMPANY
DATE .                     :  DATE
API  .                     :  API NUMBER
UWI  .                     :  UNIQUE WELL ID
~Curve Information Block
#MNEM.UNIT         API CODE   Curve Description
#---------- ----------------  -----------------
DEPTH.M                    :  
PRESS_PP.PSI                  :  Pore Pressure
PZS  .PSI                  :  Processed Zone Stress
~Parameter Information Block
#MNEM.UNIT            Value   Description
#---------- ----------------  -----------
PROJECT.          RDG_13Jul21:  
SET  .              GEOMECH:  
~Other Information Block
# 
~A       DEPTH       PRESS_PP            PZS 
# ...
    3133.90840      5237.4219      1198.4036
    3134.06080      5237.4902      1382.4500
    3134.21320      5237.5586      1634.2970
    3134.36560      5237.6265      1806.2039
    3134.51800      5237.6943      1782.2174
    3134.67040      5237.7627      1570.3939
    3134.82280      5237.8311      1379.2079
    3134.97520      5237.8989      1372.7417
    3135.12760      5237.9673      1496.3655
    3135.28000      5238.0352      1696.4376
    3135.43240      5238.1030      1888.0305
    3135.58480      5238.1709      2038.3464
    3135.73720      5238.2393      2362.7031
    3135.88960      5238.3071      2647.0234
    3136.04200      5238.3755      2729.8918
    3136.19440      5238.4434      2699.2693
    3136.34680      5238.5107      2558.2053
    3136.49920      5238.5791      2809.0959
    3136.65160      5238.6470      2913.6199
    3136.80400      5238.7144      2655.2185
    3136.95640      5238.7822      2552.8999
    3137.10880      5238.8506      2117.0117
    3137.26120      5238.9185      1820.3147
    3137.41360      5238.9863      1628.7394
    3137.56600      5239.0542      1438.5057
    3137.71840      5239.1216      1082.9950
    3137.87080      5239.1895      1038.3687
    3138.02320      5239.2573       992.7333
    3138.17560      5239.3242       963.2118
    3138.32800      5239.3921       948.7167
    3138.48040      5239.4600       912.0775
    3138.63280      5239.5278       905.1187
    3138.78520      5239.5957       952.3240
    3138.93760      5239.6631       977.8834
    3139.09000      5239.7305       921.4225
    3139.24240      5239.7983       773.5985
    3139.39480      5239.8657       655.1488
    3139.54720      5239.9331       739.5424
    3139.69960      5240.0005       930.8439
    3139.85200      5240.0684      1154.2028
    3140.00440      5240.1353      1433.4878
    3140.15680      5240.2031      1392.2130
    3140.30920      5240.2705      1155.6079
    3140.46160      5240.3379       927.3019
    3140.61400      5240.4053       827.0244
    3140.76640      5240.4727       964.4276
    3140.91880      5240.5400      1337.6106
    3141.07120      5240.6079      1694.5272
    3141.22360      5240.6753      1854.9514
    3141.37600      5240.7422      1762.4240
    3141.52840      5240.8096      1581.2043
    3141.68080      5240.8770      1435.1589
    3141.83320      5240.9438      1527.7421
    3141.98560      5241.0112      1706.0155
    3142.13800      5241.0786      1888.0305
    3142.29040      5241.1455      2212.2319
    3142.44280      5241.2129      2094.2925
    3142.59520      5241.2803      1873.5009
    3142.74760      5241.3472      1667.9618
    3142.90000      5241.4141      1533.0222
    3143.05240      5241.4814      1475.7357
    3143.20480      5241.5483      1489.4635
    3143.35720      5241.6157      1474.0270
    3143.50960      5241.6826      1403.6727
    3143.66200      5241.7495      1301.6555
    3143.81440      5241.8164      1260.4382
    3143.96680      5241.8838      1403.6727
    3144.11920      5241.9512      1568.5979
    3144.27160      5242.0181      1685.0011
    3144.42400      5242.0850      1690.7117
    3144.57640      5242.1519      1545.3994
    3144.72880      5242.2188      1534.7856
    3144.88120      5242.2856      1638.0104
    3145.03360      5242.3525      1675.5177
    3145.18600      5242.4194      1566.8037
    3145.33840      5242.4863      1446.9004
    3145.49080      5242.5527      1307.8524
    3145.64320      5242.6201      1271.0225
    3145.79560      5242.6870      1249.9246
    3145.94800      5242.7534      1208.5695
    3146.10040      5242.8203      1198.4036
    3146.25280      5242.8872      1353.4890
    3146.40520      5242.9536      1408.6072
    3146.55760      5243.0205      1382.4500
    3146.71000      5243.0874      1326.5847
    3146.86240      5243.1533      1306.3009
    3147.01480      5243.2202      1436.8317
    3147.16720      5243.2866      1577.5942
    3147.31960      5243.3535      1707.9363
    3147.47200      5243.4194      1790.1844
    3147.62440      5243.4863      1762.4240
    3147.77680      5243.5527      1621.3529
    3147.92920      5243.6191      1408.6072
    3148.08160      5243.6860      1224.6833
    3148.23400      5243.7520      1133.2888
    3148.38640      5243.8188      1175.4244
    3148.53880      5243.8853      1310.9596
    3148.69120      5243.9517      1457.0256
    3148.84360      5244.0181      1543.6265
    3148.99600      5244.0850      1513.7325
    3149.14840      5244.1509      1342.3584
    3149.30080      5244.2173      1232.0646
    3149.45320      5244.2837      1114.0437
    3149.60560      5244.3501      1051.3384
    3149.75800      5244.4165      1048.7341
    3149.91040      5244.4829      1020.4264
    3150.06280      5244.5488      1025.5272
    3150.21520      5244.6152      1031.9320
    3150.36760      5244.6816      1055.2545
    3150.52000      5244.7476      1091.0271
    3150.67240      5244.8140      1097.7568
    3150.82480      5244.8799      1191.1844
    3150.97720      5244.9458      1306.3009
    3151.12960      5245.0122      1372.7417
    3151.28200      5245.0786      1336.0310
    3151.43440      5245.1440      1174.0000
    3151.58680      5245.2104      1144.4049
    3151.73920      5245.2769      1129.1427
    3151.89160      5245.3428      1122.2594
    3152.04400      5245.4087      1091.0271
    3152.19640      5245.4751       960.7837
    3152.34880      5245.5405       823.8022
    3152.50120      5245.6069       691.6488
    3152.65360      5245.6724       653.3651
    3152.80600      5245.7388       734.6369
    3152.95840      5245.8042       884.4966
    3153.11080      5245.8706      1082.9950
    3153.26320      5245.9360      1101.8105
    3153.41560      5246.0020      1144.4049
    3153.56800      5246.0684      1334.4529
    3153.72040      5246.1338      1559.6427
    3153.87280      5246.1997      1766.3685
    3154.02520      5246.2656      1861.1182
    3154.17760      5246.3311      1857.0052
    3154.33000      5246.3965      1752.5934
    3154.48240      5246.4629      1498.0950
    3154.63480      5246.5283      1405.3160
    3154.78720      5246.5942      1403.6727
    3154.93960      5246.6602      1484.3036
    3155.09200      5246.7251      1625.0428
    3155.24440      5246.7910      1750.6326
    3155.39680      5246.8564      1700.2635
    3155.54920      5246.9219      1683.1010
    3155.70160      5246.9878      1698.3499
    3155.85400      5247.0537      1727.2391
    3156.00640      5247.1187      1723.3647
    3156.15880      5247.1846      1599.3539
    3156.31120      5247.2505      1418.5176
    3156.46360      5247.3154      1297.0232
    3156.61600      5247.3813      1275.5803
    3156.76840      5247.4463      1309.4053
    3156.92080      5247.5122      1411.9044
    3157.07320      5247.5771      1583.0118
    3157.22560      5247.6426      1754.5560
    3157.37800      5247.7080      1877.6429
    3157.53040      5247.7734      1979.2743
    3157.68280      5247.8389      1940.6597
    3157.83520      5247.9038      1824.3625
    3157.98760      5247.9697      1677.4110
    3158.14000      5248.0352      1557.8567
    3158.29240      5248.1001      1557.8567
    3158.44480      5248.1650      1610.3232
    3158.59720      5248.2305      1588.4442
    3158.74960      5248.2954      1426.8188
    3158.90200      5248.3608      1147.1975
    3159.05440      5248.4268       850.9630
    3159.20680      5248.4912       739.5424
    3159.35920      5248.5562       721.0401
    3159.51160      5248.6216       811.0138
    3159.66400      5248.6865       980.3459
    3159.81640      5248.7520      1012.8133
    3159.96880      5248.8169      1089.6851
    3160.12120      5248.8818      1131.9054
    3160.27360      5248.9468      1154.2028
    3160.42600      5249.0117      1199.8517
    3160.57840      5249.0767      1385.6982
    3160.73080      5249.1416      1652.9319
    3160.88320      5249.2070      1838.5868
