~Version Information Block
VERS .                  2.0:  CWLS LOG ASCII STANDARD - VERSION 2.0
WRAP .                  YES:  Multiple lines per depth step
~Well Information Block
#MNEM.UNIT        Data Type   Information
#---------- ----------------  -----------
STRT .M          2682.11640:  START DEPTH
STOP .M          3633.09240:  STOP DEPTH
STEP .M             0.15240:  STEP
NULL .              -999.25:  NULL VALUE
COMP .                     :  COMPANY
WELL .       RAAG-94-07-216:  WELL
FLD  .                     :  FIELD
LOC  .                     :  LOCATION
CTRY .                     :  COUNTRY
STAT .                     :  STATE
CNTY .                     :  COUNTY
SRVC .                     :  SERVICE COMPANY
DATE .                     :  DATE
API  .                     :  API NUMBER
UWI  .                     :  UNIQUE WELL ID
~Curve Information Block
#MNEM.UNIT         API CODE   Curve Description
#---------- ----------------  -----------------
DEPTH.M                    :  
ANGLE_FAIL.DEG                  :  Fail Angle
BRIT_IND.                     :  Brittleness Index
BRIT_PR.                     :  Brittleness Index from Poisson's Ratio
BRIT_YM.                     :  Brittleness Index from Young's Modulus
CS   .M/MIN                 :  Compressive Strength
IP   .RAYL/M2                 :  P Impedence
IS   .RAYL/M2                 :  S Impedance
KBULK.                     :  Bulk Mudulus
LAMBDA.                     :  Lambda
LAMRHO.                     :  
MU   .CP                   :  Mu
MURHO.(GF/C3S)2                 :  Mu*Rho
PR   .                     :  Poisson's ratio
PRESS_FG.PSI                  :  Fracture Gradient Pressure
PRESS_OB.PSI                  :  Over-burden Pressure
PRESS_PP.PSI                  :  Pore Pressure
PRESS_SHMAX.PSI                  :  Horizontal Stress (Max)
PRESS_SHMIN.PSI                  :  Horizontal Stress (Min)
PR_STAT.                     :  Poisson's ratio (Static)
PZS  .PSI                  :  Processed Zone Stress
SHMAX_GRAD.                     :  Horizontal Stress Gradient (Max)
SHMIN_GRAD.                     :  Horizontal Stress Gradient (Min)
STRESS_CUM.PSI                  :  Cumulative stress (SHPZ)
UCS_BF.PSI                  :  Uniaxial Compressive Strength (BF)
UCS_LAL.PSI                  :  Uniaxial Compressive Strength (lal)
VP   .FT/S                 :  Compressional velocity
VPVS .                     :  Vp / Vs ratio
VS   .FT/S                 :  Shear velocity
YM   .                     :  Youngs' Modulus
YM_STAT.                     :  Youngs' Modulus (Static)
~Parameter Information Block
#MNEM.UNIT            Value   Description
#---------- ----------------  -----------
PROJECT.          RDG_13Jul21:  
SET  .              GEOMECH:  
~Other Information Block
~Ascii Log Data
# ...
    2998.19400 
       37.4489        48.2296        36.1730        60.2861      1110.8599 
    11540.0010      6260.4136        19.4777        19.4777        54.7861 
       13.9339         0.0004       0.291481      -999.2500      9981.7109 
     5162.3701     10140.0957      6814.0073       0.262333      2663.4436 
        2.4699         1.6598     12154.9014      2216.6306      4500.1416 
    13460.4277         1.8433      7302.2388         5.2200         3.1646
    2998.34640 
       38.1807        48.6116        33.4937        63.7294      1140.5435 
    11945.0928      6390.3994        21.6438        21.6438        61.0108 
       14.4872         0.0004       0.299519      -999.2500      9982.2852 
     5162.4570     10137.3672      6880.6602       0.269567      2651.3926 
        2.4691         1.6759     12264.1055      2326.6970      4695.6997 
    13902.7910         1.8692      7437.7314         5.4611         3.3493
    2998.49880 
       38.6460        47.9024        30.7808        65.0239      1159.7288 
    12177.1475      6418.3389        23.4106        23.4106        65.8928 
       14.6359         0.0004       0.307658      -999.2500      9982.8613 
     5162.5439     10134.5371      6949.3496       0.276892      2646.8989 
        2.4683         1.6926     12392.4971      2368.6016      4824.4316 
    14193.9912         1.8972      7481.3789         5.5517         3.4196
    2998.65120 
       38.7056        47.0922        29.6285        64.5558      1162.2061 
    12200.3438      6388.4854        23.9014        23.9014        67.2229 
       14.5111         0.0004       0.311114      -999.2500      9983.4355 
     5162.6309     10133.6563      6979.0322       0.280003      2643.4202 
        2.4680         1.6997     12444.9043      2353.4138      4841.1885 
    14231.8955         1.9097      7452.2700         5.5189         3.3941
    2998.80360 
       38.6267        46.9405        29.5812        64.2998      1158.9281 
    12209.0625      6391.3047        23.8500        23.8500        67.3636 
       14.4624         0.0004       0.311257      -999.2500      9984.0107 
     5162.7173     10134.1865      6980.5039       0.280131      2629.8113 
        2.4680         1.7000     12420.6309      2345.1235      4819.0229 
    14181.7559         1.9103      7423.9873         5.5010         3.3802
    2998.95600 
       38.6090        47.6809        30.3532        65.0086      1158.1934 
    12242.0645      6436.9683        23.6382        23.6382        66.9990 
       14.6187         0.0004       0.308940      -999.2500      9984.5869 
     5162.8042     10135.7627      6961.0659       0.278046      2589.0730 
        2.4682         1.6951     12300.2773      2368.1023      4814.0615 
    14170.5322         1.9018      7450.9707         5.5506         3.4188
    2999.10840 
       38.6973        49.2542        31.7819        66.7265      1161.8595 
    12300.5186      6519.6616        23.3693        23.3693        66.2908 
       14.9845         0.0005       0.304654      -999.2500      9985.1611 
     5162.8916     10138.1602      6925.1836       0.274189      2520.4058 
        2.4687         1.6863     12091.1787      2424.1521      4838.8423 
    14226.5898         1.8867      7540.5396         5.6709         3.5128
    2999.26080 
       38.8839        50.9200        32.7942        69.0458      1169.6357 
    12438.1953      6629.2212        23.4891        23.4891        66.8156 
       15.4495         0.0005       0.301617      -999.2500      9985.7363 
     5162.9780     10140.0156      6900.1504       0.271456      2452.9880 
        2.4690         1.6801     11906.2764      2500.6218      4891.6284 
    14345.9932         1.8763      7646.0264         5.8332         3.6412
    2999.41320 
       39.1330        51.7485        32.4866        71.0104      1180.0771 
    12622.9561      6716.4653        24.2119        24.2119        69.1172 
       15.8025         0.0005       0.302540      -999.2500      9986.3105 
     5163.0649     10140.2119      6908.2930       0.272286      2386.8074 
        2.4689         1.6820     11790.2002      2566.1145      4962.9814 
    14507.3984         1.8794      7719.1465         5.9707         3.7511
    2999.56560 
       39.2791        51.9804        32.0751        71.8856      1186.2385 
    12713.8906      6749.6475        24.6913        24.6913        70.5275 
       15.9495         0.0005       0.303775      -999.2500      9986.8857 
     5163.1514     10140.2803      6918.9888       0.273397      2349.4185 
        2.4688         1.6845     11736.8145      2595.5068      5005.3433 
    14603.2246         1.8836      7752.6719         6.0320         3.8004
    2999.71800 
       39.1598        51.6258        32.7970        70.4546      1181.2037 
    12492.3936      6658.2090        23.8847        23.8847        67.3964 
       15.7107         0.0005       0.301609      -999.2500      9987.4609 
     5163.2383     10141.7852      6900.9907       0.271448      2468.5100 
        2.4691         1.6801     11939.0010      2547.5215      4970.7134 
    14524.8887         1.8762      7741.4902         5.9318         3.7199
    2999.87040 
       38.8909        50.8293        34.0986        67.5599      1169.9263 
    12079.7783      6483.2451        22.3978        22.3978        61.8561 
       15.2197         0.0005       0.297704      -999.2500      9988.0361 
     5163.3242     10144.0107      6868.5415       0.267934      2660.7390 
        2.4695         1.6721     12258.5615      2451.5232      4893.6060 
    14350.4678         1.8632      7701.9297         5.7292         3.5588
    3000.02280 
       38.7190        49.9374        34.9294        64.9454      1162.7622 
    11704.6367      6309.3003        21.2799        21.2799        57.3840 
       14.7619         0.0004       0.295212      -999.2500      9988.6113 
     5163.4111     10145.6396      6848.0298       0.265691      2763.2251 
        2.4697         1.6670     12422.5098      2366.0500      4844.9546 
    14240.4150         1.8551      7676.1938         5.5462         3.4154
    3000.17520 
       38.7124        49.0887        34.5655        63.6120      1162.4886 
    11545.0918      6211.4985        21.0940        21.0940        56.1237 
       14.5012         0.0004       0.296304      -999.2500      9989.1855 
     5163.4980     10145.7852      6857.1958       0.266673      2829.5815 
        2.4696         1.6692     12573.5547      2322.9104      4843.1025 
    14236.2256         1.8587      7659.3833         5.4528         3.3430
    3000.32760 
       38.6001        48.7270        34.7753        62.6787      1157.8260 
    11444.6523      6164.2095        20.7430        20.7430        54.9851 
       14.3345         0.0004       0.295674      -999.2500      9989.7617 
     5163.5845     10146.6396      6852.1982       0.266107      2905.2402 
        2.4697         1.6678     12714.8770      2292.8960      4811.5830 
    14164.9268         1.8566      7629.3770         5.3875         3.2926
    3000.48000 
       38.4327        48.4148        35.0275        61.8021      1150.9039 
    11375.8975      6135.2183        20.3907        20.3907        54.1292 
       14.1795         0.0004       0.294917      -999.2500      9990.3369 
     5163.6709     10147.5449      6846.1646       0.265426      2875.5967 
        2.4698         1.6663     12643.5225      2264.8391      4764.9893 
    14059.5303         1.8542      7582.5474         5.3261         3.2455
    3000.63240 
       38.3075        47.6860        34.7704        60.6016      1145.7493 
    11282.4072      6076.6685        20.1854        20.1854        53.4409 
       13.9475         0.0004       0.295689      -999.2500      9990.9111 
     5163.7578     10147.8223      6852.6919       0.266120      2868.0085 
        2.4698         1.6678     12641.4004      2226.6316      4730.4487 
    13981.3965         1.8567      7530.3359         5.2421         3.1814
