~Version Information Block
VERS .                  2.0:  CWLS LOG ASCII STANDARD - VERSION 2.0
WRAP .                   NO:  One line per depth step
~Well Information Block
#MNEM.UNIT        Data Type   Information
#---------- ----------------  -----------
STRT .M          2889.76360:  START DEPTH
STOP .M          3614.73040:  STOP DEPTH
STEP .M             0.15240:  STEP
NULL .              -999.25:  NULL VALUE
COMP .                     :  COMPANY
WELL .       RAAG-89-05-105:  WELL
FLD  .                     :  FIELD
LOC  .                     :  LOCATION
CTRY .                     :  COUNTRY
STAT .                     :  STATE
CNTY .                     :  COUNTY
SRVC .                     :  SERVICE COMPANY
DATE .                     :  DATE
API  .                     :  API NUMBER
UWI  .                     :  UNIQUE WELL ID
~Curve Information Block
#MNEM.UNIT         API CODE   Curve Description
#---------- ----------------  -----------------
DEPTH.M                    :  
PRESS_PP.PSI                  :  Pore Pressure
PZS  .PSI                  :  Processed Zone Stress
~Parameter Information Block
#MNEM.UNIT            Value   Description
#---------- ----------------  -----------
PROJECT.          RDG_13Jul21:  
SET  .              GEOMECH:  
~Other Information Block
# 
~A       DEPTH       PRESS_PP            PZS 
# ...
    3540.81640      5352.6948      2271.9541
    3540.96880      5352.7129      2443.5063
    3541.12120      5352.7310      2590.2224
    3541.27360      5352.7485      2641.5713
    3541.42600      5352.7666      2590.2224
    3541.57840      5352.7847      2574.1741
    3541.73080      5352.8027      2476.9575
    3541.88320      5352.8203      2330.4939
    3542.03560      5352.8379      2056.1174
    3542.18800      5352.8555      1736.9558
    3542.34040      5352.8735      1636.1528
    3542.49280      5352.8921      1468.9099
    3542.64520      5352.9097      1343.9441
    3542.79760      5352.9277      1267.9912
    3542.95000      5352.9453      1207.1129
    3543.10240      5352.9629      1061.8073
    3543.25480      5352.9805      1108.5934
    3543.40720      5352.9980      1134.6736
    3543.55960      5353.0156      1220.2717
    3543.71200      5353.0332      1406.9609
    3543.86440      5353.0513      1606.6602
    3544.01680      5353.0688      1863.1774
    3544.16920      5353.0864      2207.5090
    3544.32160      5353.1040      2584.8640
    3544.47400      5353.1211      2887.2019
    3544.62640      5353.1387      2919.5168
    3544.77880      5353.1563      2952.1201
    3544.93120      5353.1738      2904.7925
    3545.08360      5353.1919      2803.3782
    3545.23600      5353.2095      2727.0967
    3545.38840      5353.2266      2849.3813
    3545.54080      5353.2441      2994.0359
    3545.69320      5353.2612      3060.8645
    3545.84560      5353.2783      3079.2959
    3545.99800      5353.2959      3079.2959
    3546.15040      5353.3135      3079.2959
    3546.30280      5353.3306      2937.2644
    3546.45520      5353.3481      2852.2766
    3546.60760      5353.3652      2913.6199
    3546.76000      5353.3828      3079.2959
    3546.91240      5353.3994      3079.2959
    3547.06480      5353.4165      3063.9302
    3547.21720      5353.4341      2952.1201
    3547.36960      5353.4512      2875.5225
    3547.52200      5353.4683      2910.6750
    3547.67440      5353.4863      3070.0691
    3547.82680      5353.5034      2961.0623
    3547.97920      5353.5205      2979.0117
    3548.13160      5353.5371      3009.1208
    3548.28400      5353.5542      3003.0796
    3548.43640      5353.5713      3076.2180
    3548.58880      5353.5884      2991.0264
    3548.74120      5353.6055      3003.0796
    3548.89360      5353.6226      3051.6819
    3549.04600      5353.6396      3079.2959
    3549.19840      5353.6567      3079.2959
    3549.35080      5353.6729      3079.2959
    3549.50320      5353.6899      2820.5593
    3549.65560      5353.7070      2718.7244
    3549.80800      5353.7241      2875.5225
    3549.96040      5353.7407      2875.5225
    3550.11280      5353.7578      2852.2766
    3550.26520      5353.7749      2713.1545
    3550.41760      5353.7915      2772.0972
    3550.57000      5353.8086      3024.2664
    3550.72240      5353.8252      2814.8230
    3550.87480      5353.8423      2976.0142
    3551.02720      5353.8589      3057.8013
    3551.17960      5353.8750      3076.2180
    3551.33200      5353.8916      3063.9302
    3551.48440      5353.9087      3024.2664
    3551.63680      5353.9253      3066.9985
    3551.78920      5353.9419      3079.2959
    3551.94160      5353.9585      3079.2959
    3552.09400      5353.9756      3079.2959
    3552.24640      5353.9922      3079.2959
    3552.39880      5354.0088      2997.0481
    3552.55120      5354.0254      2925.4231
    3552.70360      5354.0420      2881.3574
    3552.85600      5354.0586      2846.4888
    3553.00840      5354.0752      2738.2915
    3553.16080      5354.0913      2707.5935
    3553.31320      5354.1079      2791.9709
    3553.46560      5354.1245      2791.9709
    3553.61800      5354.1411      2727.0967
    3553.77040      5354.1567      3063.9302
    3553.92280      5354.1733      3079.2959
    3554.07520      5354.1899      3079.2959
    3554.22760      5354.2061      3079.2959
    3554.38000      5354.2227      3060.8645
    3554.53240      5354.2388      2973.0190
    3554.68480      5354.2554      3015.1716
    3554.83720      5354.2715      3009.1208
    3554.98960      5354.2876      3024.2664
    3555.14200      5354.3037      2979.0117
    3555.29440      5354.3198      2523.8782
    3555.44680      5354.3364      2479.5457
    3555.59920      5354.3525      2800.5229
    3555.75160      5354.3687      3079.2959
    3555.90400      5354.3848      3079.2959
    3556.05640      5354.4009      3079.2959
    3556.20880      5354.4175      3079.2959
    3556.36120      5354.4336      3079.2959
    3556.51360      5354.4497      2958.0791
    3556.66600      5354.4658      2794.8193
    3556.81840      5354.4810      2991.0264
    3556.97080      5354.4971      3060.8645
    3557.12320      5354.5132      3079.2959
    3557.27560      5354.5293      3079.2959
    3557.42800      5354.5449      3079.2959
    3557.58040      5354.5605      3079.2959
    3557.73280      5354.5767      3079.2959
    3557.88520      5354.5928      3079.2959
    3558.03760      5354.6089      3000.0627
    3558.19000      5354.6245      2789.1248
    3558.34240      5354.6406      2433.2869
    3558.49480      5354.6563      2592.9050
    3558.64720      5354.6724      2884.2786
    3558.79960      5354.6880      3070.0691
    3558.95200      5354.7041      3057.8013
    3559.10440      5354.7197      3079.2959
    3559.25680      5354.7349      3079.2959
    3559.40920      5354.7505      3039.4727
    3559.56160      5354.7666      3006.0989
    3559.71400      5354.7822      3003.0796
    3559.86640      5354.7979      2991.0264
    3560.01880      5354.8135      2916.5671
    3560.17120      5354.8291      2922.4688
    3560.32360      5354.8452      2994.0359
    3560.47600      5354.8599      3051.6819
    3560.62840      5354.8755      2916.5671
    3560.78080      5354.8921      2860.9761
    3560.93320      5354.9077      2655.2185
    3561.08560      5354.9224      2603.6572
    3561.23800      5354.9380      2809.0959
    3561.39040      5354.9536      3066.9985
    3561.54280      5354.9692      3079.2959
    3561.69520      5354.9844      3003.0796
    3561.84760      5355.0000      2943.1995
    3562.00000      5355.0156      2946.1707
    3562.15240      5355.0308      2985.0142
    3562.30480      5355.0464      3057.8013
    3562.45720      5355.0610      2976.0142
    3562.60960      5355.0767      2860.9761
    3562.76200      5355.0918      2846.4888
    3562.91440      5355.1074      3070.0691
    3563.06680      5355.1221      3079.2959
    3563.21920      5355.1372      2970.0261
    3563.37160      5355.1533      2955.0984
    3563.52400      5355.1685      3079.2959
    3563.67640      5355.1831      3079.2959
    3563.82880      5355.1982      3079.2959
    3563.98120      5355.2139      3079.2959
    3564.13360      5355.2290      3079.2959
    3564.28600      5355.2441      3079.2959
    3564.43840      5355.2593      3079.2959
    3564.59080      5355.2744      3079.2959
    3564.74320      5355.2896      3079.2959
    3564.89560      5355.3042      3021.2324
    3565.04800      5355.3188      2943.1995
    3565.20040      5355.3340      3073.1423
    3565.35280      5355.3491      2934.3005
    3565.50520      5355.3638      2964.0479
    3565.65760      5355.3789      3042.5215
    3565.81000      5355.3936      3079.2959
    3565.96240      5355.4092      3079.2959
    3566.11480      5355.4238      3009.1208
    3566.26720      5355.4385      2875.5225
    3566.41960      5355.4536      2890.1279
    3566.57200      5355.4683      3076.2180
    3566.72440      5355.4834      3073.1423
    3566.87680      5355.4980      3076.2180
    3567.02920      5355.5132      3000.0627
    3567.18160      5355.5278      2887.2019
    3567.33400      5355.5420      2752.3369
    3567.48640      5355.5566      2544.9587
    3567.63880      5355.5718      2943.1995
    3567.79120      5355.5864      3079.2959
