~Version Information Block
VERS .                  2.0:  CWLS LOG ASCII STANDARD - VERSION 2.0
WRAP .                  YES:  Multiple lines per depth step
~Well Information Block
#MNEM.UNIT        Data Type   Information
#---------- ----------------  -----------
STRT .M          2682.11640:  START DEPTH
STOP .M          3633.09240:  STOP DEPTH
STEP .M             0.15240:  STEP
NULL .              -999.25:  NULL VALUE
COMP .                     :  COMPANY
WELL .       RAAG-94-07-216:  WELL
FLD  .                     :  FIELD
LOC  .                     :  LOCATION
CTRY .                     :  COUNTRY
STAT .                     :  STATE
CNTY .                     :  COUNTY
SRVC .                     :  SERVICE COMPANY
DATE .                     :  DATE
API  .                     :  API NUMBER
UWI  .                     :  UNIQUE WELL ID
~Curve Information Block
#MNEM.UNIT         API CODE   Curve Description
#---------- ----------------  -----------------
DEPTH.M                    :  
ANGLE_FAIL.DEG                  :  Fail Angle
BRIT_IND.                     :  Brittleness Index
BRIT_PR.                     :  Brittleness Index from Poisson's Ratio
BRIT_YM.                     :  Brittleness Index from Young's Modulus
CS   .M/MIN                 :  Compressive Strength
IP   .RAYL/M2                 :  P Impedence
IS   .RAYL/M2                 :  S Impedance
KBULK.                     :  Bulk Mudulus
LAMBDA.                     :  Lambda
LAMRHO.                     :  
MU   .CP                   :  Mu
MURHO.(GF/C3S)2                 :  Mu*Rho
PR   .                     :  Poisson's ratio
PRESS_FG.PSI                  :  Fracture Gradient Pressure
PRESS_OB.PSI                  :  Over-burden Pressure
PRESS_PP.PSI                  :  Pore Pressure
PRESS_SHMAX.PSI                  :  Horizontal Stress (Max)
PRESS_SHMIN.PSI                  :  Horizontal Stress (Min)
PR_STAT.                     :  Poisson's ratio (Static)
PZS  .PSI                  :  Processed Zone Stress
SHMAX_GRAD.                     :  Horizontal Stress Gradient (Max)
SHMIN_GRAD.                     :  Horizontal Stress Gradient (Min)
STRESS_CUM.PSI                  :  Cumulative stress (SHPZ)
UCS_BF.PSI                  :  Uniaxial Compressive Strength (BF)
UCS_LAL.PSI                  :  Uniaxial Compressive Strength (lal)
VP   .FT/S                 :  Compressional velocity
VPVS .                     :  Vp / Vs ratio
VS   .FT/S                 :  Shear velocity
YM   .                     :  Youngs' Modulus
YM_STAT.                     :  Youngs' Modulus (Static)
~Parameter Information Block
#MNEM.UNIT            Value   Description
#---------- ----------------  -----------
PROJECT.          RDG_13Jul21:  
SET  .              GEOMECH:  
~Other Information Block
~Ascii Log Data
# ...
    2809.06560 
       35.4761        27.9491        19.5898        36.3084      1033.6298 
    10029.2334      4923.6172        19.5643        19.5643        52.1015 
        9.1030         0.0003       0.341231      -999.2500      9272.7080 
     5039.9980      9393.2051      6862.7681       0.307108      1975.5701 
        2.4461         1.7871     10876.6768      1506.4307      4011.7722 
    12355.7070         2.0370      6065.7456         3.5416         1.9729
    2809.21800 
       33.5679        29.1339        26.3826        31.8851       962.4583 
     9206.2549      4728.3184        15.1075        15.1075        40.0411 
        8.4353         0.0002       0.320852      -999.2500      9273.2754 
     5040.1084      9401.8682      6701.4258       0.288767      2008.9861 
        2.4482         1.7450     10620.8242      1386.1658      3587.5417 
    11396.0723         1.9470      5853.0054         3.2320         1.7711
    2809.37040 
       32.8565        31.2536        31.1196        31.3876       936.7305 
     8970.3027      4737.0742        13.3770        13.3770        35.5866 
        8.4352         0.0002       0.306641      -999.2500      9273.8438 
     5040.2183      9407.8359      6593.9902       0.275977      2202.3494 
        2.4496         1.7170     10792.6797      1372.8473      3440.2065 
    11062.7920         1.8936      5842.0835         3.1971         1.7488
    2809.52280 
       33.0965        33.2280        33.1170        33.3389       945.3630 
     9101.6191      4859.3740        13.3260        13.3260        35.6124 
        8.8361         0.0003       0.300649      -999.2500      9274.4111 
     5040.3286      9410.6260      6550.1099       0.270584      2596.6521 
        2.4502         1.7054     11493.5234      1425.3240      3489.2883 
    11173.8174         1.8730      5965.7256         3.3337         1.8368
    2809.67520 
       33.8951        35.8675        34.3649        37.3700       974.4318 
     9448.8506      5078.3364        14.0513        14.0513        37.7018 
        9.6116         0.0003       0.296905      -999.2500      9274.9795 
     5040.4390      9412.5635      6523.3018       0.267215      2928.7944 
        2.4506         1.6984     12104.1924      1535.7943      3657.1960 
    11553.6348         1.8606      6209.5640         3.6159         2.0222
    2809.82760 
       35.0753        40.5640        36.8962        44.2318      1018.4075 
     9979.6074      5433.6831        15.0397        15.0397        40.5427 
       10.9526         0.0003       0.289311      -999.2500      9275.5469 
     5040.5493      9415.8584      6469.3184       0.260380      2949.1650 
        2.4513         1.6842     12036.9658      1730.2334      3918.9688 
    12145.7803         1.8366      6613.1182         4.0962         2.3484
    2809.98000 
       36.8616        42.7605        33.1806        52.3405      1087.4568 
    10839.5762      5789.2500        18.6160        18.6160        50.4656 
       12.3633         0.0004       0.300458      -999.2500      9276.1162 
     5040.6597      9412.3818      6550.8018       0.270412      2904.0522 
        2.4503         1.7053     12109.7080      1970.3900      4349.0444 
    13118.6367         1.8724      7006.4609         4.6638         2.7514
    2810.13240 
       38.4415        43.0762        27.4158        58.7365      1151.2651 
    11677.0635      6035.2236        23.3150        23.3150        63.5060 
       13.3724         0.0004       0.317753      -999.2500      9276.6836 
     5040.7700      9406.4580      6681.2002       0.285977      3010.3948 
        2.4486         1.7392     12583.1895      2167.7588      4767.4146 
    14065.0146         1.9348      7269.4233         5.1116         3.0826
    2810.28480 
       39.3409        45.6510        26.7619        64.5400      1188.8497 
    12185.1670      6272.8730        25.5609        25.5609        69.7804 
       14.4137         0.0004       0.319714      -999.2500      9277.2510 
     5040.8804      9406.2637      6696.9956       0.287743      3059.9705 
        2.4484         1.7432     12713.9326      2352.9023      5023.3540 
    14643.9648         1.9425      7538.6523         5.5178         3.3933
    2810.43720 
       40.0535        46.5303        24.7744        68.2861      1219.3214 
    12611.8779      6412.4419        28.0810        28.0810        76.8206 
       15.0308         0.0004       0.325677      -999.2500      9277.8184 
     5040.9902      9404.5176      6743.8472       0.293109      3067.3301 
        2.4478         1.7553     12822.3545      2475.4719      5236.0693 
    15125.1396         1.9668      7690.2969         5.7800         3.5990
    2810.58960 
       40.2050        47.9810        25.7078        70.2543      1225.8818 
    12700.0029      6495.4292        28.1119        28.1119        76.9089 
       15.4216         0.0005       0.322877      -999.2500      9278.3867 
     5041.1006      9406.1816      6722.4824       0.290589      3051.6790 
        2.4481         1.7496     12748.3223      2540.8315      5282.4785 
    15230.1201         1.9552      7789.4604         5.9178         3.7086
    2810.74200 
       39.7110        46.2216        26.0576        66.3856      1204.5963 
    12350.4658      6330.4395        26.6019        26.6019        72.3851 
       14.7276         0.0004       0.321827      -999.2500      9278.9551 
     5041.2109      9407.1855      6714.3389       0.289644      2937.3965 
        2.4482         1.7474     12503.4697      2412.9897      5132.6924 
    14891.2949         1.9510      7632.7842         5.6470         3.4941
    2810.89440 
       38.5671        41.8612        25.8533        57.8691      1156.4586 
    11654.4082      5966.0757        23.9101        23.9101        64.6371 
       13.1667         0.0004       0.322440      -999.2500      9279.5225 
     5041.3213      9407.5615      6718.7412       0.290196      2937.5686 
        2.4482         1.7485     12512.6201      2140.5818      4802.3589 
    14144.0615         1.9534      7240.5684         5.0508         3.0370
    2811.04680 
       37.4980        39.6545        27.2085        52.1004      1112.8335 
    11091.3184      5725.3047        21.3004        21.3004        57.4591 
       12.1514         0.0004       0.318375      -999.2500      9280.0898 
     5041.4312      9409.7324      6687.2437       0.286537      2936.2817 
        2.4486         1.7402     12447.0508      1963.1179      4513.0083 
    13489.5322         1.9372      6963.2549         4.6470         2.7392
    2811.19920 
       36.9069        37.9613        27.1630        48.7596      1089.2491 
    10814.3936      5580.8188        20.2502        20.2502        54.6600 
       11.5387         0.0003       0.318511      -999.2500      9280.6582 
     5041.5415      9410.2734      6688.3481       0.286660      2962.7747 
        2.4486         1.7404     12502.2451      1862.9445      4360.5205 
    13144.5957         1.9378      6783.3311         4.4132         2.5711
    2811.35160 
       36.3911        40.1274        31.6145        48.6403      1068.9618 
    10591.1055      5608.4243        18.2218        18.2218        49.2627 
       11.6347         0.0003       0.305156      -999.2500      9281.2256 
     5041.6509      9415.8994      6587.7510       0.274641      3035.0791 
        2.4500         1.7141     12445.6602      1859.4052      4231.5503 
    12852.8584         1.8884      6806.1152         4.4048         2.5652
    2811.50400 
       36.4380        44.0161        36.5522        51.4800      1070.7965 
    10605.2861      5764.3779        17.0328        17.0328        46.0160 
       12.2993         0.0004       0.290344      -999.2500      9281.7930 
     5041.7612      9421.8750      6480.1572       0.261309      3072.2529 
        2.4514         1.6860     12304.8213      1944.3702      4243.1304 
    12879.0527         1.8398      7000.2568         4.6036         2.7078
