~Version Information Block
VERS .                  2.0:  CWLS LOG ASCII STANDARD - VERSION 2.0
WRAP .                  YES:  Multiple lines per depth step
~Well Information Block
#MNEM.UNIT        Data Type   Information
#---------- ----------------  -----------
STRT .M          2776.00000:  START DEPTH
STOP .M          3750.44560:  STOP DEPTH
STEP .M             0.15240:  STEP
NULL .              -999.25:  NULL VALUE
COMP .                     :  COMPANY
WELL .      RAAG-102-07-105:  WELL
FLD  .                     :  FIELD
LOC  .                     :  LOCATION
CTRY .                     :  COUNTRY
STAT .                     :  STATE
CNTY .                     :  COUNTY
SRVC .                     :  SERVICE COMPANY
DATE .                     :  DATE
API  .                     :  API NUMBER
UWI  .                     :  UNIQUE WELL ID
~Curve Information Block
#MNEM.UNIT         API CODE   Curve Description
#---------- ----------------  -----------------
DEPTH.M                    :  
ANGLE_FAIL.DEG                  :  Fail Angle
BRIT_IND.                     :  Brittleness Index
BRIT_PR.                     :  Brittleness Index from Poisson's Ratio
BRIT_YM.                     :  Brittleness Index from Young's Modulus
CS   .M/MIN                 :  Compressive Strength
DTCO .US/F                 :  Compressional slowness
DTSM .US/F                 :  Fast Shear Slowness
IP   .RAYL/M2                 :  P Impedence
IS   .RAYL/M2                 :  S Impedance
KBULK.                     :  Bulk Mudulus
LAMBDA.                     :  Lambda
LAMRHO.                     :  
MU   .CP                   :  Mu
MURHO.(GF/C3S)2                 :  Mu*Rho
PR   .                     :  Poisson's ratio
PRESS_FG.PSI                  :  Fracture Gradient Pressure
PRESS_OB.PSI                  :  Over-burden Pressure
PRESS_PP.PSI                  :  Pore Pressure
PRESS_SHMAX.PSI                  :  Horizontal Stress (Max)
PRESS_SHMIN.PSI                  :  Horizontal Stress (Min)
PR_STAT.                     :  Poisson's ratio (Static)
PZS  .PSI                  :  Processed Zone Stress
SHMAX_GRAD.                     :  Horizontal Stress Gradient (Max)
SHMIN_GRAD.                     :  Horizontal Stress Gradient (Min)
STRESS_CUM.PSI                  :  Cumulative stress (SHPZ)
UCS_BF.PSI                  :  Uniaxial Compressive Strength (BF)
UCS_LAL.PSI                  :  Uniaxial Compressive Strength (lal)
VP   .FT/S                 :  Compressional velocity
VPVS .                     :  Vp / Vs ratio
VS   .FT/S                 :  Shear velocity
YM   .                     :  Youngs' Modulus
YM_STAT.                     :  Youngs' Modulus (Static)
~Parameter Information Block
#MNEM.UNIT            Value   Description
#---------- ----------------  -----------
PROJECT.          RDG_13Jul21:  
SET  .              GEOMECH:  
~Other Information Block
~Ascii Log Data
# ...
    3436.80640 
       44.2900        84.0406        41.1509       126.9302      1414.8684 
       54.1493        97.4328     15354.5303      8533.4404        33.0383 
       33.0383        90.1224        26.6952    0.000783824       0.276547 
     -999.2500     11228.0967      5304.4609     11429.1914      7206.2051 
      0.248893      3079.2886         2.5052         1.5796     13770.9873 
     4707.3037      6713.6255     18467.4609         1.7993     10263.4844 
        9.8851         7.3440
    3436.95880 
       44.0768        83.1708        41.7088       124.6328      1404.3751 
       54.7141        98.1958     15203.7871      8471.4570        32.1060 
       32.1060        87.6240        26.2954    0.000772478       0.274874 
     -999.2500     11228.6934      5304.5083     11430.6221      7190.1250 
      0.247386      3045.0396         2.5054         1.5760     13670.3291 
     4608.7935      6629.3506     18276.8242         1.7947     10183.7354 
        9.7243         7.1787
    3437.11120 
       43.9580        81.5514        40.9473       122.1555      1398.5604 
       55.0305        99.1121     15098.1250      8383.0059        32.0641 
       32.0641        87.4038        25.7803    0.000756432       0.277158 
     -999.2500     11229.2900      5304.5552     11430.1494      7212.0933 
      0.249442      2911.2280         2.5052         1.5807     13446.6426 
     4503.5835      6582.8960     18171.7422         1.8010     10089.5859 
        9.5509         7.0021
    3437.26360 
       43.9976        79.9183        39.2963       120.5404      1400.4961 
       54.9249        99.6966     15066.4844      8300.4346        32.8564 
       32.8564        89.2045        25.3767    0.000741603       0.282111 
     -999.2500     11229.8857      5304.6021     11428.3682      7260.2368 
      0.253900      2710.5793         2.5047         1.5912     13141.6328 
     4435.5552      6598.3408     18206.6777         1.8151     10030.4316 
        9.4378         6.8880
    3437.41600 
       44.2271        80.1209        38.3025       121.9393      1411.7654 
       54.3155        99.0656     15164.1025      8314.1455        33.9347 
       33.9347        91.7000        25.5805    0.000744055       0.285092 
     -999.2500     11230.4814      5304.6489     11427.5146      7289.8154 
      0.256583      2560.4082         2.5044         1.5976     12900.4473 
     4494.4521      6688.6445     18410.9512         1.8239     10094.3213 
        9.5358         6.9868
    3437.56840 
       44.7140        84.4698        39.4647       129.4748      1435.9720 
       53.0370        96.1922     15493.8057      8542.7402        34.9038 
       34.9038        94.1012        27.0690    0.000785533       0.281606 
     -999.2500     11231.0791      5304.6963     11429.8008      7256.6318 
      0.253445      2597.1389         2.5048         1.5902     12907.5410 
     4817.4644      6884.8423     18854.7617         1.8137     10395.8535 
       10.0632         7.5288
    3437.72080 
       44.9289        87.0489        40.0004       134.0975      1446.7837 
       52.4791        94.9381     15763.1191      8713.4072        35.6036 
       35.6036        96.6290        27.9745    0.000817233       0.279999 
     -999.2500     11231.6748      5304.7427     11431.1748      7241.6753 
      0.251999      2783.4900         2.5050         1.5869     13250.3301 
     5020.4287      6973.4531     19055.2051         1.8091     10533.1787 
       10.3868         7.8694
    3437.87320 
       45.2074        89.3074        39.2149       139.3998      1460.9150 
       51.7618        93.9918     16194.4922      8918.3955        37.5197 
       37.5197       103.1860        28.9209    0.000856138       0.282355 
     -999.2500     11232.2715      5304.7900     11430.6143      7265.4038 
      0.254120      2978.7974         2.5047         1.5920     13688.4014 
     5257.7305      7090.1880     19319.2676         1.8159     10639.2266 
       10.7580         8.2676
    3438.02560 
       45.6220        89.0807        35.3444       142.8171      1482.2131 
       50.7056        93.8642     16702.3262      9022.6260        41.8032 
       41.8032       116.1522        29.2987    0.000876266       0.293967 
     -999.2500     11232.8682      5304.8369     11425.4561      7381.1089 
      0.264570      3078.9363         2.5035         1.6173     14120.0908 
     5413.2212      7268.0879     19721.6875         1.8512     10653.6895 
       10.9972         8.5285
    3438.17800 
       46.0500        88.3296        30.7849       145.8744      1504.5327 
       49.6299        94.1578     17322.3066      9130.4639        47.2714 
       47.2714       133.3316        29.5564    0.000897337       0.307645 
     -999.2500     11233.4639      5304.8833     11419.0586      7521.5713 
      0.276881      3078.8748         2.5019         1.6480     14400.8916 
     5554.0239      7457.0557     20149.1445         1.8972     10620.4688 
       11.2112         8.7648
    3438.33040 
       46.1778        87.4126        28.3337       146.4916      1511.2656 
       49.3115        94.8870     17674.0742      9184.9785        50.2367 
       50.2367       143.6452        29.5044    0.000908085       0.314999 
     -999.2500     11234.0605      5304.9307     11415.8086      7599.0996 
      0.283499      3079.2241         2.5011         1.6649     14556.6484 
     5582.6426      7514.5703     20279.2441         1.9242     10538.8516 
       11.2544         8.8128
    3438.48280 
       45.9744        84.5885        27.3139       141.8631      1500.5659 
       49.8188        96.4497     17513.9688      9046.4248        49.9765 
       49.9765       143.0635        28.5885    0.000880895       0.318058 
     -999.2500     11234.6572      5304.9775     11414.8203      7631.4092 
      0.286253      3074.3398         2.5008         1.6719     14611.4980 
     5369.6104      7423.2813     20072.7422         1.9360     10368.0986 
       10.9304         8.4553
    3438.63520 
       45.2199        81.6789        30.8556       132.5021      1461.5516 
       51.7298        98.1027     16537.2715      8720.1455        43.2541 
       43.2541       121.3995        27.0930    0.000818498       0.307433 
     -999.2500     11235.2539      5305.0239     11421.0801      7518.7349 
      0.276690      3050.0393         2.5020         1.6471     14337.5479 
     4949.9683      7095.4707     19331.2168         1.8964     10193.3994 
       10.2751         7.7512
    3438.78760 
       44.3294        82.9883        39.5881       126.3885      1416.8186 
       54.0452        97.9630     15435.6445      8515.6895        34.0617 
       34.0617        93.2252        26.4955    0.000780566       0.281236 
     -999.2500     11235.8496      5305.0708     11434.9131      7254.5811 
      0.253112      2995.1292         2.5049         1.5892     13699.4209 
     4683.9941      6729.3506     18503.0313         1.8126     10207.9365 
        9.8472         7.3049
    3438.94000 
       44.0321        91.8241        51.8289       131.8194      1402.1829 
       54.8331        94.2914     15070.9043      8764.1543        27.1136 
       27.1136        73.5113        28.3304    0.000826780       0.244513 
     -999.2500     11236.4463      5305.1177     11452.6494      6912.3691 
      0.220062      2916.1853         2.5087         1.5142     12857.1084 
     4919.9468      6611.8154     18237.1602         1.7196     10605.4219 
       10.2274         7.7008
    3439.09240 
       43.9863        98.3623        59.4236       137.3011      1399.9419 
       54.9551        91.9051     15098.3594      9028.1377        23.8577 
       23.8577        64.9459        29.9415    0.000877337       0.221729 
     -999.2500     11237.0430      5305.1641     11463.1699      6714.5039 
      0.199556      2837.1917         2.5109         1.4707     12303.3916 
     5163.2275      6593.9175     18196.6719         1.6724     10880.7891 
       10.6111         8.1090
