~Version Information Block
VERS .                  2.0:  CWLS LOG ASCII STANDARD - VERSION 2.0
WRAP .                  YES:  Multiple lines per depth step
~Well Information Block
#MNEM.UNIT        Data Type   Information
#---------- ----------------  -----------
STRT .M          2776.00000:  START DEPTH
STOP .M          3750.44560:  STOP DEPTH
STEP .M             0.15240:  STEP
NULL .              -999.25:  NULL VALUE
COMP .                     :  COMPANY
WELL .      RAAG-102-07-105:  WELL
FLD  .                     :  FIELD
LOC  .                     :  LOCATION
CTRY .                     :  COUNTRY
STAT .                     :  STATE
CNTY .                     :  COUNTY
SRVC .                     :  SERVICE COMPANY
DATE .                     :  DATE
API  .                     :  API NUMBER
UWI  .                     :  UNIQUE WELL ID
~Curve Information Block
#MNEM.UNIT         API CODE   Curve Description
#---------- ----------------  -----------------
DEPTH.M                    :  
ANGLE_FAIL.DEG                  :  Fail Angle
BRIT_IND.                     :  Brittleness Index
BRIT_PR.                     :  Brittleness Index from Poisson's Ratio
BRIT_YM.                     :  Brittleness Index from Young's Modulus
CS   .M/MIN                 :  Compressive Strength
DTCO .US/F                 :  Compressional slowness
DTSM .US/F                 :  Fast Shear Slowness
IP   .RAYL/M2                 :  P Impedence
IS   .RAYL/M2                 :  S Impedance
KBULK.                     :  Bulk Mudulus
LAMBDA.                     :  Lambda
LAMRHO.                     :  
MU   .CP                   :  Mu
MURHO.(GF/C3S)2                 :  Mu*Rho
PR   .                     :  Poisson's ratio
PRESS_FG.PSI                  :  Fracture Gradient Pressure
PRESS_OB.PSI                  :  Over-burden Pressure
PRESS_PP.PSI                  :  Pore Pressure
PRESS_SHMAX.PSI                  :  Horizontal Stress (Max)
PRESS_SHMIN.PSI                  :  Horizontal Stress (Min)
PR_STAT.                     :  Poisson's ratio (Static)
PZS  .PSI                  :  Processed Zone Stress
SHMAX_GRAD.                     :  Horizontal Stress Gradient (Max)
SHMIN_GRAD.                     :  Horizontal Stress Gradient (Min)
STRESS_CUM.PSI                  :  Cumulative stress (SHPZ)
UCS_BF.PSI                  :  Uniaxial Compressive Strength (BF)
UCS_LAL.PSI                  :  Uniaxial Compressive Strength (lal)
VP   .FT/S                 :  Compressional velocity
VPVS .                     :  Vp / Vs ratio
VS   .FT/S                 :  Shear velocity
YM   .                     :  Youngs' Modulus
YM_STAT.                     :  Youngs' Modulus (Static)
~Parameter Information Block
#MNEM.UNIT            Value   Description
#---------- ----------------  -----------
PROJECT.          RDG_13Jul21:  
SET  .              GEOMECH:  
~Other Information Block
~Ascii Log Data
# ...
    3122.25280 
       39.4561        51.1338        34.5167        67.7510      1193.7330 
       67.9331       126.2971     11763.3174      6327.2920        22.2392 
       22.2392        58.3064        15.2700    0.000430929       0.296450 
     -999.2500     10009.8506      5165.8018     10166.9600      6867.6689 
      0.266805      2103.7539         2.4711         1.6692     11142.8447 
     2457.8152      5057.1284     14720.3643         1.8591      7917.8384 
        5.7426         3.5693
    3122.40520 
       38.3710        52.2922        41.1924        63.3921      1148.3618 
       71.3218       128.3072     11121.2715      6181.9526        18.1567 
       18.1567        47.2496        14.6855    0.000411359       0.276423 
     -999.2500     10010.4346      5165.8896     10175.6768      6705.5850 
      0.248781      2145.7944         2.4731         1.6298     10902.7588 
     2315.8250      4747.9385     14020.9590         1.7990      7793.7944 
        5.4374         3.3311
    3122.55760 
       37.2395        53.3472        47.8704        58.8240      1102.4724 
       74.9781       130.9962     10544.0176      6035.0640        14.7788 
       14.7788        38.3323        14.0423    0.000392043       0.256389 
     -999.2500     10011.0195      5165.9766     10184.0195      6551.0161 
      0.230750      2263.1797         2.4750         1.5921     10828.3916 
     2170.5068      4445.6777     13337.2266         1.7471      7633.8096 
        5.1177         3.0872
    3122.71000 
       37.8833        51.5172        42.3148        60.7196      1128.4073 
       72.8824       130.4408     10889.8271      6084.5747        17.1066 
       17.1066        44.5442        14.2178    0.000398502       0.273055 
     -999.2500     10011.6025      5166.0640     10178.2129      6679.4077 
      0.245750      2346.7666         2.4735         1.6232     11252.3486 
     2230.3748      4615.2163     13720.7334         1.7897      7666.3135 
        5.2504         3.1877
    3122.86240 
       38.4509        50.9097        38.6759        63.1434      1151.6532 
       71.0686       129.3862     11246.5469      6177.4468        19.1294 
       19.1294        50.1631        14.5524    0.000410760       0.283972 
     -999.2500     10012.1865      5166.1514     10174.4717      6766.4927 
      0.255575      2368.7063         2.4725         1.6443     11470.3984 
     2307.8225      4770.0210     14070.9102         1.8206      7728.7993 
        5.4200         3.3176
    3123.01480 
       39.0286        50.1839        35.1484        65.2194      1175.6902 
       69.2548       128.3316     11562.8350      6239.9424        21.2487 
       21.2487        55.8254        14.8205    0.000419113       0.294555 
     -999.2500     10012.7715      5166.2383     10170.7539      6853.1353 
      0.265099      2398.2690         2.4714         1.6653     11702.8086 
     2374.9543      4932.9351     14439.4326         1.8530      7792.3125 
        5.5654         3.4303
    3123.16720 
       39.4978        49.5621        32.4242        66.6999      1195.5035 
       67.8052       127.4767     11795.7373      6274.1841        23.0211 
       23.0211        60.4086        15.0017    0.000423725       0.302727 
     -999.2500     10013.3555      5166.3257     10167.9404      6921.6577 
      0.272455      2378.6077         2.4706         1.6818     11800.5313 
     2423.2786      5069.4033     14748.1318         1.8800      7844.5708 
        5.6690         3.5114
    3123.31960 
       39.5570        49.6606        32.1638        67.1575      1198.0222 
       67.6238       127.3168     11857.2783      6297.9453        23.2893 
       23.2893        61.2668        15.0775    0.000426941       0.303509 
     -999.2500     10013.9395      5166.4126     10168.2090      6928.5527 
      0.273158      2303.1362         2.4705         1.6834     11663.3779 
     2438.2917      5086.8921     14787.6924         1.8827      7854.4229 
        5.7010         3.5366
    3123.47200 
       39.6163        49.9306        31.9035        67.9576      1200.5498 
       67.4424       127.1570     11968.6855      6348.0337        23.6585 
       23.6585        62.6544        15.2165    0.000433759       0.304290 
     -999.2500     10014.5234      5166.4995     10168.4756      6935.4844 
      0.273861      2183.1167         2.4705         1.6850     11437.2021 
     2464.6279      5104.4761     14827.4678         1.8854      7864.2939 
        5.7570         3.5808
    3123.62440 
       39.5675        50.2309        32.3725        68.0893      1198.4717 
       67.5915       127.1108     11965.6162      6362.7476        23.4437 
       23.4437        62.2069        15.2573    0.000435772       0.302882 
     -999.2500     10015.1084      5166.5869     10169.6689      6923.8872 
      0.272594      2046.5680         2.4706         1.6821     11140.9111 
     2468.9712      5090.0166     14794.7598         1.8806      7867.1519 
        5.7662         3.5881
    3123.77680 
       39.0978        50.8573        35.6482        66.0664      1178.5969 
       69.0396       127.6039     11603.3105      6277.9263        21.2355 
       21.2355        55.8121        14.9957    0.000424231       0.293055 
     -999.2500     10015.6924      5166.6743     10174.3682      6842.1646 
      0.263750      1942.8016         2.4716         1.6622     10769.9316 
     2402.5544      4952.8325     14484.4424         1.8483      7836.7515 
        5.6246         3.4766
    3123.92920 
       38.4689        51.4433        39.7944        63.0921      1152.3976 
       71.0115       128.5900     11139.2344      6151.4404        18.6507 
       18.6507        48.4021        14.5809    0.000407309       0.280617 
     -999.2500     10016.2764      5166.7612     10180.0205      6741.3867 
      0.252555      1894.5073         2.4729         1.6376     10471.7881 
     2306.1729      4775.0234     14082.2266         1.8108      7776.6553 
        5.4165         3.3149
    3124.08160 
       37.6383        52.0756        44.7385        59.4126      1118.4869 
       73.6749       130.4438     10646.2715      6013.0337        15.9441 
       15.9441        41.0300        14.0503    0.000389186       0.265784 
     -999.2500     10016.8613      5166.8486     10186.4531      6625.0239 
      0.239206      1936.5292         2.4743         1.6092     10323.1064 
     2189.0320      4549.9707     13573.1436         1.7705      7666.1367 
        5.1589         3.1183
    3124.23400 
       36.5639        52.4101        49.8679        54.9523      1075.7266 
       77.2223       133.8237     10166.9854      5866.8081        13.4048 
       13.4048        34.5287        13.3624    0.000370488       0.250396 
     -999.2500     10017.4443      5166.9360     10192.8936      6508.4780 
      0.225357      1994.6798         2.4758         1.5808     10206.3164 
     2050.1379      4274.3296     12949.6270         1.7330      7472.5181 
        4.8467         2.8852
    3124.38640 
       37.0587        52.7012        48.0549        57.3475      1095.2676 
       75.5742       131.9370     10401.9287      5958.2793        14.4227 
       14.4227        37.1979        13.7648    0.000382131       0.255835 
     -999.2500     10018.0283      5167.0229     10191.4521      6549.5654 
      0.230252      1951.1548         2.4753         1.5907     10201.4404 
     2124.3030      4399.1719     13232.0283         1.7458      7579.3755 
        5.0143         3.0097
    3124.53880 
       37.5157        51.8552        44.9954        58.7150      1113.5436 
       74.0740       131.0039     10585.3877      5985.3330        15.7053 
       15.7053        40.4020        13.9258    0.000385609       0.265014 
     -999.2500     10018.6133      5167.1099     10188.5557      6619.7671 
      0.238512      1940.4899         2.4744         1.6077     10320.5137 
     2167.0837      4517.6416     13500.0137         1.7686      7633.3604 
        5.1101         3.0815
