~Version Information Block
VERS .                  2.0:  CWLS LOG ASCII STANDARD - VERSION 2.0
WRAP .                   NO:  One line per depth step
~Well Information Block
#MNEM.UNIT        Data Type   Information
#---------- ----------------  -----------
STRT .M                0.00:  START DEPTH
STOP .M             3613.00:  STOP DEPTH
STEP .M                0.50:  STEP
NULL .              -999.25:  NULL VALUE
COMP .                     :  COMPANY
WELL .      RAAG-100-07-213:  WELL
FLD  .                     :  FIELD
LOC  .                     :  LOCATION
CTRY .                     :  COUNTRY
STAT .                     :  STATE
CNTY .                     :  COUNTY
SRVC .                     :  SERVICE COMPANY
DATE .                     :  DATE
API  .                     :  API NUMBER
UWI  .                     :  UNIQUE WELL ID
~Curve Information Block
#MNEM.UNIT         API CODE   Curve Description
#---------- ----------------  -----------------
DEPTH.M                    :  
OBG  .G/CC                 :  2.174+0.00008962*TVDSS
PP   .G/CC                 :  2.1087-0.00029524*TVDSS
~Parameter Information Block
#MNEM.UNIT            Value   Description
#---------- ----------------  -----------
PROJECT.          RDG_13Jul21:  
SET  .              GEOMECH:  
~Other Information Block
# 
~A       DEPTH            OBG             PP 
# ...
       3560.00         2.4851         1.0838
       3560.50         2.4852         1.0836
       3561.00         2.4852         1.0835
       3561.50         2.4853         1.0833
       3562.00         2.4853         1.0832
       3562.50         2.4853         1.0830
       3563.00         2.4854         1.0829
       3563.50         2.4854         1.0827
       3564.00         2.4855         1.0826
       3564.50         2.4855         1.0824
       3565.00         2.4856         1.0823
       3565.50         2.4856         1.0821
       3566.00         2.4857         1.0820
       3566.50         2.4857         1.0818
       3567.00         2.4857         1.0817
       3567.50         2.4858         1.0815
       3568.00         2.4858         1.0814
       3568.50         2.4859         1.0812
       3569.00         2.4859         1.0811
       3569.50         2.4860         1.0809
       3570.00         2.4860         1.0808
       3570.50         2.4861         1.0807
       3571.00         2.4861         1.0805
       3571.50         2.4862         1.0804
       3572.00         2.4862         1.0802
       3572.50         2.4862         1.0801
       3573.00         2.4863         1.0799
       3573.50         2.4863         1.0798
       3574.00         2.4864         1.0796
       3574.50         2.4864         1.0795
       3575.00         2.4865         1.0793
       3575.50         2.4865         1.0792
       3576.00         2.4866         1.0790
       3576.50         2.4866         1.0789
       3577.00         2.4866         1.0787
       3577.50         2.4867         1.0786
       3578.00         2.4867         1.0784
       3578.50         2.4868         1.0783
       3579.00         2.4868         1.0781
       3579.50         2.4869         1.0780
       3580.00         2.4869         1.0778
       3580.50         2.4870         1.0777
       3581.00         2.4870         1.0776
       3581.50         2.4870         1.0774
       3582.00         2.4871         1.0773
       3582.50         2.4871         1.0771
       3583.00         2.4872         1.0770
       3583.50         2.4872         1.0768
       3584.00         2.4873         1.0767
       3584.50         2.4873         1.0765
       3585.00         2.4874         1.0764
       3585.50         2.4874         1.0762
       3586.00         2.4875         1.0761
       3586.50         2.4875         1.0759
       3587.00         2.4875         1.0758
       3587.50         2.4876         1.0756
       3588.00         2.4876         1.0755
       3588.50         2.4877         1.0753
       3589.00         2.4877         1.0752
       3589.50         2.4878         1.0750
       3590.00         2.4878         1.0749
       3590.50         2.4879         1.0747
       3591.00         2.4879         1.0746
       3591.50         2.4879         1.0745
       3592.00         2.4880         1.0743
       3592.50         2.4880         1.0742
       3593.00         2.4881         1.0740
       3593.50         2.4881         1.0739
       3594.00         2.4882         1.0737
       3594.50         2.4882         1.0736
       3595.00         2.4883         1.0734
       3595.50         2.4883         1.0733
       3596.00         2.4883         1.0731
       3596.50         2.4884         1.0730
       3597.00         2.4884         1.0728
       3597.50         2.4885         1.0727
       3598.00         2.4885         1.0725
       3598.50         2.4886         1.0724
       3599.00         2.4886         1.0722
       3599.50         2.4887         1.0721
       3600.00         2.4887         1.0719
       3600.50         2.4888         1.0718
       3601.00         2.4888         1.0716
       3601.50         2.4888         1.0715
       3602.00         2.4889         1.0714
       3602.50         2.4889         1.0712
       3603.00         2.4890         1.0711
       3603.50         2.4890         1.0709
       3604.00         2.4891         1.0708
       3604.50         2.4891         1.0706
       3605.00         2.4892         1.0705
       3605.50         2.4892         1.0703
       3606.00         2.4892         1.0702
       3606.50         2.4893         1.0700
       3607.00         2.4893         1.0699
       3607.50         2.4894         1.0697
       3608.00         2.4894         1.0696
       3608.50         2.4895         1.0694
       3609.00         2.4895         1.0693
       3609.50         2.4896         1.0691
       3610.00         2.4896         1.0690
       3610.50         2.4896         1.0688
       3611.00         2.4897         1.0687
       3611.50         2.4897         1.0685
       3612.00         2.4898         1.0684
       3612.50         2.4898         1.0683
       3613.00         2.4899         1.0681
