~Version Information Block
VERS .                  2.0:  CWLS LOG ASCII STANDARD - VERSION 2.0
WRAP .                  YES:  Multiple lines per depth step
~Well Information Block
#MNEM.UNIT        Data Type   Information
#---------- ----------------  -----------
STRT .M          2656.78920:  START DEPTH
STOP .M          3640.98840:  STOP DEPTH
STEP .M             0.15240:  STEP
NULL .              -999.25:  NULL VALUE
COMP .                     :  COMPANY
WELL .       RAAG-98-07-214:  WELL
FLD  .                     :  FIELD
LOC  .                     :  LOCATION
CTRY .                     :  COUNTRY
STAT .                     :  STATE
CNTY .                     :  COUNTY
SRVC .                     :  SERVICE COMPANY
DATE .                     :  DATE
API  .                     :  API NUMBER
UWI  .                     :  UNIQUE WELL ID
~Curve Information Block
#MNEM.UNIT         API CODE   Curve Description
#---------- ----------------  -----------------
DEPTH.M                    :  
ANGLE_FAIL.DEG                  :  Fail Angle
BRIT_IND.                     :  Brittleness Index
BRIT_PR.                     :  Brittleness Index from Poisson's Ratio
BRIT_YM.                     :  Brittleness Index from Young's Modulus
CS   .M/MIN                 :  Compressive Strength
IP   .RAYL/M2                 :  P Impedence
IS   .RAYL/M2                 :  S Impedance
KBULK.                     :  Bulk Mudulus
LAMBDA.                     :  Lambda
LAMRHO.                     :  
MU   .CP                   :  Mu
MURHO.(GF/C3S)2                 :  Mu*Rho
PR   .                     :  Poisson's ratio
PRESS_FG.PSI                  :  Fracture Gradient Pressure
PRESS_OB.PSI                  :  Over-burden Pressure
PRESS_PP.PSI                  :  Pore Pressure
PRESS_SHMAX.PSI                  :  Horizontal Stress (Max)
PRESS_SHMIN.PSI                  :  Horizontal Stress (Min)
PR_STAT.                     :  Poisson's ratio (Static)
PZS  .PSI                  :  Processed Zone Stress
SHMAX_GRAD.                     :  Horizontal Stress Gradient (Max)
SHMIN_GRAD.                     :  Horizontal Stress Gradient (Min)
STRESS_CUM.PSI                  :  Cumulative stress (SHPZ)
UCS_BF.PSI                  :  Uniaxial Compressive Strength (BF)
UCS_LAL.PSI                  :  Uniaxial Compressive Strength (lal)
VP   .FT/S                 :  Compressional velocity
VPVS .                     :  Vp / Vs ratio
VS   .FT/S                 :  Shear velocity
YM   .                     :  Youngs' Modulus
YM_STAT.                     :  Youngs' Modulus (Static)
~Parameter Information Block
#MNEM.UNIT            Value   Description
#---------- ----------------  -----------
PROJECT.          RDG_13Jul21:  
SET  .              GEOMECH:  
~Other Information Block
~Ascii Log Data
# ...
    3242.31000 
       38.2833        47.9065        35.8676        59.9455      1144.7549 
    11097.7725      6011.1514        19.5217        19.5217        50.8927 
       13.8605    0.000388943       0.292397      -999.2500     10904.7646 
     5276.0083     11088.8682      7222.7100       0.263157      2788.4976 
        2.4952         1.6252     13222.4150      2205.8525      4723.8003 
    13966.3574         1.8462      7564.9312         5.1962         3.1465
    3242.46240 
       38.2861        48.1328        35.9791        60.2865      1144.8694 
    11137.5938      6036.1509        19.5625        19.5625        51.1758 
       13.9277    0.000392184       0.292063      -999.2500     10905.3486 
     5276.0654     11089.6270      7219.7998       0.262857      2752.8025 
        2.4952         1.6245     13145.2041      2216.6440      4724.5664 
    13968.0889         1.8451      7570.1719         5.2201         3.1646
    3242.61480 
       38.0445        48.5735        37.5650        59.5820      1134.9758 
    11015.7344      6017.8345        18.7045        18.7045        48.9177 
       13.8472    0.000389808       0.287305      -999.2500     10905.9336 
     5276.1221     11092.4785      7175.0332       0.258574      2965.5532 
        2.4957         1.6143     13481.1729      2194.3745      4658.6860 
    13819.0645         1.8305      7549.2783         5.1707         3.1273
    3242.76720 
       37.8439        49.0780        38.8810        59.2750      1126.8087 
    10959.9141      6025.9863        18.0915        18.0915        47.4947 
       13.8320    0.000390865       0.283357      -999.2500     10906.5186 
     5276.1787     11094.9277      7138.3320       0.255021      3058.5005 
        2.4962         1.6060     13593.6650      2184.6951      4604.6689 
    13696.8750         1.8188      7530.8237         5.1492         3.1110
    3242.91960 
       37.5280        49.6518        40.7937        58.5100      1114.0394 
    10848.6387      6019.2300        17.1650        17.1650        45.2307 
       13.7496    0.000389989       0.277619      -999.2500     10907.1025 
     5276.2354     11098.1836      7085.4771       0.249857      2910.0029 
        2.4968         1.5940     13190.9600      2160.6484      4520.8794 
    13507.3379         1.8023      7494.3755         5.0957         3.0707
    3243.07200 
       37.3666        49.7901        41.5766        58.0036      1107.5565 
    10791.2510      6009.1650        16.7555        16.7555        44.2310 
       13.6791    0.000388685       0.275270      -999.2500     10907.6875 
     5276.2920     11099.8633      7064.1709       0.247743      2696.1067 
        2.4970         1.5892     12720.5547      2144.7866      4478.6499 
    13411.8115         1.7958      7468.4380         5.0602         3.0441
    3243.22440 
       37.3310        50.2825        42.5647        58.0003      1106.1316 
    10735.5107      6005.1553        16.3966        16.3966        43.1274 
       13.7104    0.000388167       0.272306      -999.2500     10908.2715 
     5276.3486     11101.8135      7037.4326       0.245075      3028.3074 
        2.4973         1.5831     13331.4805      2144.6838      4469.3960 
    13390.8789         1.7877      7490.4961         5.0600         3.0439
    3243.37680 
       37.5722        51.0764        42.7293        59.4235      1115.8197 
    10819.4893      6056.6333        16.6595        16.6595        43.6957 
       13.9858    0.000394850       0.271812      -999.2500     10908.8564 
     5276.4063     11102.6348      7033.2871       0.244631      2721.1833 
        2.4974         1.5821     12708.9404      2189.3740      4532.5127 
    13533.6533         1.7864      7575.9927         5.1596         3.1189
    3243.52920 
       38.0034        52.5805        42.6711        62.4899      1133.2985 
    11061.2686      6190.3530        17.3746        17.3746        45.7107 
       14.5656    0.000412478       0.271987      -999.2500     10909.4414 
     5276.4629     11103.1484      7035.3110       0.244788      2533.0525 
        2.4974         1.5824     12336.7275      2286.8428      4647.5649 
    13793.9072         1.7869      7719.6528         5.3743         3.2824
    3243.68160 
       38.5641        55.5304        43.4217        67.6391      1156.3329 
    11455.4385      6432.5845        18.2389        18.2389        48.4708 
       15.5700    0.000445391       0.269735      -999.2500     10910.0254 
     5276.5190     11104.7490      7015.5591       0.242761      2619.2134 
        2.4976         1.5779     12469.5449      2454.1304      4801.5117 
    14142.1455         1.7808      7941.2539         5.7347         3.5632
    3243.83400 
       39.3269        59.4587        43.0974        75.8200      1188.2567 
    12201.3291      6841.4932        20.2025        20.2025        55.2604 
       17.1117    0.000503816       0.270708      -999.2500     10910.6113 
     5276.5752     11104.8828      7025.1758       0.243637      2932.2715 
        2.4976         1.5800     13114.8945      2729.2441      5019.2607 
    14634.7070         1.7834      8205.9297         6.3074         4.0248
    3243.98640 
       40.3873        62.4762        39.5143        85.4380      1233.8140 
    13190.3467      7274.4185        24.1856        24.1856        68.1509 
       18.7794    0.000569596       0.281457      -999.2500     10911.1953 
     5276.6318     11100.5273      7124.5547       0.253311      2991.9265 
        2.4965         1.6023     13432.9629      3067.3359      5338.8823 
    15357.7090         1.8133      8469.7090         6.9807         4.5921
    3244.13880 
       41.2484        64.0560        34.9481        93.1639      1271.8734 
    14143.2529      7624.5557        28.8468        28.8468        83.7639 
       20.0203    0.000625748       0.295156      -999.2500     10911.7793 
     5276.6885     11094.6377      7254.6133       0.265640      3049.0107 
        2.4950         1.6314     13807.2480      3350.3770      5613.9546 
    15979.9395         1.8550      8614.7041         7.5215         5.0671
    3244.29120 
       42.1410        69.3355        34.8355       103.8355      1312.4020 
    14926.0498      8041.8511        31.7922        31.7922        93.4442 
       22.0029    0.000696117       0.295493      -999.2500     10912.3643 
     5276.7451     11095.0313      7259.0308       0.265944      3073.1423 
        2.4950         1.6324     13864.3467      3758.1384      5914.9800 
    16660.8770         1.8560      8976.5400         8.2685         5.7513
    3244.44360 
       43.1194        77.2836        36.4132       118.1540      1358.1582 
    15777.4346      8569.6230        34.4074        34.4074       102.0505 
       24.7605    0.000790485       0.290761      -999.2500     10912.9482 
     5276.8022     11097.8252      7215.4189       0.261684      3072.9487 
        2.4955         1.6225     13776.7354      4335.8579      6264.9360 
    17452.4980         1.8411      9479.4453         9.2708         6.7207
    3244.59600 
       44.0366        81.5617        34.5702       128.5531      1402.4056 
    16521.2832      8889.0137        38.6753        38.6753       114.9237 
       26.5908    0.000850506       0.296289      -999.2500     10913.5332 
     5276.8584     11095.7354      7269.5068       0.266660      3060.8645 
        2.4949         1.6346     13860.7422      4777.4341      6613.5962 
    18241.1875         1.8586      9814.3809         9.9987         7.4617
    3244.74840 
       44.4480        84.7769        35.3352       134.2186      1422.6945 
    16732.0977      9038.2822        39.5233        39.5233       116.5820 
       27.6945    0.000879310       0.293994      -999.2500     10914.1172 
     5276.9150     11097.4092      7248.2974       0.264595      3061.0576 
        2.4952         1.6297     13818.7090      5025.7944      6776.8506 
    18610.4785         1.8512     10052.9395        10.3953         7.8784
