~Version Information Block
VERS .                  2.0:  CWLS LOG ASCII STANDARD - VERSION 2.0
WRAP .                  YES:  Multiple lines per depth step
~Well Information Block
#MNEM.UNIT        Data Type   Information
#---------- ----------------  -----------
STRT .M          2676.97280:  START DEPTH
STOP .M          3838.10840:  STOP DEPTH
STEP .M             0.15240:  STEP
NULL .              -999.25:  NULL VALUE
COMP .                     :  COMPANY
WELL .      RAAG-107-07-210:  WELL
FLD  .                     :  FIELD
LOC  .                     :  LOCATION
CTRY .                     :  COUNTRY
STAT .                     :  STATE
CNTY .                     :  COUNTY
SRVC .                     :  SERVICE COMPANY
DATE .                     :  DATE
API  .                     :  API NUMBER
UWI  .                     :  UNIQUE WELL ID
~Curve Information Block
#MNEM.UNIT         API CODE   Curve Description
#---------- ----------------  -----------------
DEPTH.M                    :  
ANGLE_FAIL.DEG                  :  Fail Angle
BRIT_IND.                     :  Brittleness Index
BRIT_PR.                     :  Brittleness Index from Poisson's Ratio
BRIT_YM.                     :  Brittleness Index from Young's Modulus
CS   .M/MIN                 :  Compressive Strength
DTCO .US/F                 :  Compressional slowness
DTSM .US/F                 :  Fast Shear Slowness
IP   .RAYL/M2                 :  P Impedence
IS   .RAYL/M2                 :  S Impedance
KBULK.                     :  Bulk Mudulus
LAMBDA.                     :  Lambda
LAMRHO.                     :  
MU   .CP                   :  Mu
MURHO.(GF/C3S)2                 :  Mu*Rho
PR   .                     :  Poisson's ratio
PRESS_FG.PSI                  :  Fracture Gradient Pressure
PRESS_OB.PSI                  :  Over-burden Pressure
PRESS_PP.PSI                  :  Pore Pressure
PRESS_SHMAX.PSI                  :  Horizontal Stress (Max)
PRESS_SHMIN.PSI                  :  Horizontal Stress (Min)
PR_STAT.                     :  Poisson's ratio (Static)
PZS  .PSI                  :  Processed Zone Stress
SHMAX_GRAD.                     :  Horizontal Stress Gradient (Max)
SHMIN_GRAD.                     :  Horizontal Stress Gradient (Min)
STRESS_CUM.PSI                  :  Cumulative stress (SHPZ)
UCS_BF.PSI                  :  Uniaxial Compressive Strength (BF)
UCS_LAL.PSI                  :  Uniaxial Compressive Strength (lal)
VP   .FT/S                 :  Compressional velocity
VPVS .                     :  Vp / Vs ratio
VS   .FT/S                 :  Shear velocity
YM   .                     :  Youngs' Modulus
YM_STAT.                     :  Youngs' Modulus (Static)
~Parameter Information Block
#MNEM.UNIT            Value   Description
#---------- ----------------  -----------
PROJECT.          RDG_13Jul21:  
SET  .              GEOMECH:  
~Other Information Block
~Ascii Log Data
# ...
    3410.93120 
       39.8019        61.8494        47.6044        76.0944      1208.4915 
       66.8766       116.9709     11644.6572      6657.6821        18.3754 
       18.3754        46.9486        17.3484    0.000477107       0.257187 
     -999.2500     10747.7197      5260.0391     10942.8770      6844.5718 
      0.231468      1793.0980         2.4946         1.5603     10475.3398 
     2738.6707      5159.9321     14952.9131         1.7491      8549.1348 
        6.3266         4.0406
    3411.08360 
       40.1220        60.8239        43.9055        77.7423      1222.2837 
       65.9088       117.1214     11956.5215      6728.4028        20.2734 
       20.2734        52.4156        17.5102    0.000487297       0.268283 
     -999.2500     10748.3008      5260.1011     10938.6758      6940.8066 
      0.241455      2050.2910         2.4935         1.5822     11182.1943 
     2795.5498      5256.9976     15172.4814         1.7770      8538.1494 
        6.4420         4.1361
    3411.23600 
       40.6242        60.8202        39.9830        81.6574      1244.1847 
       64.4097       116.5309     12510.9297      6915.1206        23.0297 
       23.0297        60.8856        18.0873    0.000514718       0.280051 
     -999.2500     10748.8828      5260.1631     10934.0352      7045.8394 
      0.252046      2278.8064         2.4923         1.6061     11849.2910 
     2932.5508      5413.1079     15525.6123         1.8092      8581.4150 
        6.7160         4.3659
    3411.38840 
       41.7741        63.4367        35.0367        91.8367      1295.6085 
       61.0634       113.2181     13620.6367      7346.1963        28.4338 
       28.4338        77.5886        19.7771    0.000580892       0.294890 
     -999.2500     10749.4658      5260.2246     10927.7891      7183.0034 
      0.265401      2450.9109         2.4908         1.6372     12467.8291 
     3301.0300      5789.2300     16376.4209         1.8541      8832.5098 
        7.4286         4.9843
    3411.54080 
       43.1128        69.4433        32.2212       106.6653      1357.8478 
       57.3163       107.8767     14917.7158      7925.9771        34.5414 
       34.5414        96.8960        22.3944    0.000676201       0.303336 
     -999.2500     10750.0479      5260.2866     10924.3369      7264.2764 
      0.273003      2591.8486         2.4899         1.6557     12912.2500 
     3869.5317      6262.5249     17447.0430         1.8821      9269.8428 
        8.4666         5.9382
    3411.69320 
       43.9928        75.5842        31.9953       119.1730      1400.2612 
       54.9377       103.5281     15808.2158      8388.7080        38.3107 
       38.3107       109.1588        24.6974    0.000757461       0.304014 
     -999.2500     10750.6299      5260.3481     10924.5527      7272.1777 
      0.273613      2694.6755         2.4898         1.6574     13133.7061 
     4378.3105      6596.4653     18202.4375         1.8845      9659.2129 
        9.3421         6.7919
    3411.84560 
       44.5325        76.5058        29.3465       123.6652      1426.8988 
       53.5114       102.3596     16299.9629      8521.2705        42.0961 
       42.0961       120.4647        25.3741    0.000781590       0.311961 
     -999.2500     10751.2129      5260.4097     10921.2949      7349.5752 
      0.280765      2752.8171         2.4889         1.6750     13404.7852 
     4567.5728      6810.9473     18687.6074         1.9129      9769.4795 
        9.6566         7.1095
    3411.99800 
       44.5655        72.6964        26.0088       119.3840      1428.5432 
       53.4250       104.2619     16288.8076      8346.5723        44.1299 
       44.1299       125.9947        24.4004    0.000749871       0.321974 
     -999.2500     10751.7949      5260.4717     10916.9717      7448.2705 
      0.289776      2766.4399         2.4878         1.6974     13629.4209 
     4387.1245      6824.3076     18717.8301         1.9516      9591.2314 
        9.3569         6.8067
    3412.15040 
       44.2001        67.6875        23.8887       111.4862      1410.4362 
       54.3869       107.5793     15951.8789      8064.5000        43.7013 
       43.7013       124.3901        22.8488    0.000700043       0.328334 
     -999.2500     10752.3779      5260.5332     10914.4033      7511.8809 
      0.295500      2719.4048         2.4871         1.7118     13662.5723 
     4062.4639      6677.9590     18386.7793         1.9780      9295.4688 
        8.8040         6.2619
    3412.30280 
       43.6961        63.2847        22.8753       103.6940      1385.8203 
       55.7324       110.9781     15504.0938      7786.0435        42.0232 
       42.0232       119.1320        21.3843    0.000652535       0.331374 
     -999.2500     10752.9600      5260.5952     10913.4863      7542.4351 
      0.298237      2639.8203         2.4868         1.7187     13564.5107 
     3752.6045      6481.7236     17942.8848         1.9913      9010.7871 
        8.2586         5.7420
    3412.45520 
       43.1312        59.4816        22.6742        96.2890      1358.7218 
       57.2659       114.1847     14964.1055      7504.7964        39.5810 
       39.5810       111.2805        20.0330    0.000606245       0.331978 
     -999.2500     10753.5420      5260.6563     10913.8076      7548.2188 
      0.298780      2292.1392         2.4868         1.7199     12880.7158 
     3467.7683      6269.3135     17462.3984         1.9939      8757.7412 
        7.7402         5.2640
    3412.60760 
       42.3301        57.0219        24.8637        89.1801      1321.1348 
       59.4881       116.9336     14205.8652      7227.0063        35.1109 
       35.1109        97.3474        18.8380    0.000562195       0.325409 
     -999.2500     10754.1250      5260.7183     10917.7783      7481.0625 
      0.292868      1846.3090         2.4875         1.7045     11854.7432 
     3203.1526      5980.9414     16810.0840         1.9657      8551.8613 
        7.2426         4.8200
    3412.76000 
       41.2911        56.4085        29.9884        82.8286      1273.7881 
       62.4544       119.0254     13313.3887      6985.7334        29.1960 
       29.1960        79.6454        17.8891    0.000525284       0.310035 
     -999.2500     10754.7070      5260.7798     10926.0068      7328.7129 
      0.279031      1505.0471         2.4893         1.6697     10867.5195 
     2974.0427      5627.9878     16011.6826         1.9058      8401.5684 
        6.7980         4.4356
    3412.91240 
       39.8253        57.6268        39.2778        75.9757      1209.4929 
       66.8057       121.2727     12269.9385      6759.1626        22.0052 
       22.0052        59.1788        16.9881    0.000491763       0.282166 
     -999.2500     10755.2900      5260.8418     10939.6982      7067.1152 
      0.253950      1310.9229         2.4923         1.6100      9956.0762 
     2734.5916      5166.9473     14968.7822         1.8153      8245.8789 
        6.3183         4.0338
    3413.06480 
       37.6728        62.0063        56.6800        67.3326      1119.8778 
       73.5631       124.2232     11020.8252      6526.3662        13.6367 
       13.6367        36.2717        16.0134    0.000458472       0.229960 
     -999.2500     10755.8721      5260.9028     10962.5820      6621.6768 
      0.206964      1259.1019         2.4974         1.5085      8961.5566 
     2444.0457      4559.0894     13593.7705         1.6887      8050.0259 
        5.7133         3.5462
    3413.21720 
       35.8822        65.7107        72.0544        59.3671      1049.2109 
       79.5340       127.7867     10113.1885      6294.4136         8.7298 
        8.7298        23.0373        15.0136    0.000426462       0.183837 
     -999.2500     10756.4541      5260.9644     10980.7842      6269.8472 
      0.165453      1294.1484         2.5014         1.4283      8327.9912 
     2187.5967      4107.9380     12573.2402         1.6067      7825.5410 
        5.1557         3.1159
