~Version Information Block
VERS .                  2.0:  CWLS LOG ASCII STANDARD - VERSION 2.0
WRAP .                  YES:  Multiple lines per depth step
~Well Information Block
#MNEM.UNIT        Data Type   Information
#---------- ----------------  -----------
STRT .M          2686.96440:  START DEPTH
STOP .M          3645.86520:  STOP DEPTH
STEP .M             0.15240:  STEP
NULL .              -999.25:  NULL VALUE
COMP .                     :  COMPANY
WELL .      RAAG-105-07-212:  WELL
FLD  .                     :  FIELD
LOC  .                     :  LOCATION
CTRY .                     :  COUNTRY
STAT .                     :  STATE
CNTY .                     :  COUNTY
SRVC .                     :  SERVICE COMPANY
DATE .                     :  DATE
API  .                     :  API NUMBER
UWI  .                     :  UNIQUE WELL ID
~Curve Information Block
#MNEM.UNIT         API CODE   Curve Description
#---------- ----------------  -----------------
DEPTH.M                    :  
ANGLE_FAIL.DEG                  :  Fail Angle
BRIT_IND.                     :  Brittleness Index
BRIT_PR.                     :  Brittleness Index from Poisson's Ratio
BRIT_YM.                     :  Brittleness Index from Young's Modulus
CS   .M/MIN                 :  Compressive Strength
DTCO .US/F                 :  Compressional slowness
DTSM .US/F                 :  Shear slowness
IP   .RAYL/M2                 :  P Impedence
IS   .RAYL/M2                 :  S Impedance
KBULK.                     :  Bulk Mudulus
LAMBDA.                     :  Lambda
LAMRHO.                     :  
MU   .CP                   :  Mu
MURHO.(GF/C3S)2                 :  Mu*Rho
PR   .                     :  Poisson's ratio
PRESS_FG.PSI                  :  Fracture Gradient Pressure
PRESS_OB.PSI                  :  Over-burden Pressure
PRESS_PP.PSI                  :  Pore Pressure
PRESS_SHMAX.PSI                  :  Horizontal Stress (Max)
PRESS_SHMIN.PSI                  :  Horizontal Stress (Min)
PR_STAT.                     :  Poisson's ratio (Static)
PZS  .PSI                  :  Processed Zone Stress
SHMAX_GRAD.                     :  Horizontal Stress Gradient (Max)
SHMIN_GRAD.                     :  Horizontal Stress Gradient (Min)
STRESS_CUM.PSI                  :  Cumulative stress (SHPZ)
UCS_BF.PSI                  :  Uniaxial Compressive Strength (BF)
UCS_LAL.PSI                  :  Uniaxial Compressive Strength (lal)
VP   .FT/S                 :  Compressional velocity
VPVS .                     :  Vp / Vs ratio
VS   .FT/S                 :  Shear velocity
YM   .                     :  Youngs' Modulus
YM_STAT.                     :  Youngs' Modulus (Static)
~Parameter Information Block
#MNEM.UNIT            Value   Description
#---------- ----------------  -----------
ALPHA.                 0.98:  Biot's Constant
CALIB_SHMINPZS.                 6800:  Calibration Factor for processing zones
EXT_FACT.                1e-06:  Extension Factor
PR_FAC.                  0.9:  Poisson's ratio factor
PR_MAX.                  0.4:  Maximum Poisson's ratio
PR_MIN.                  0.1:  Minimum Poisson's ratio
TECT_FACT.                 1.05:  Techtonic Factor
YM_MAX.                    8:  Maximum Youngs' Modulus
YM_MIN.                    1:  Minimum Youngs' Modulus
PROJECT.          RDG_13Jul21:  
SET  .              GEOMECH:  
~Other Information Block
~Ascii Log Data
# ...
    3323.38680 
       41.5671        60.6692        33.1103        88.2280      1286.2151 
       61.6571       115.4881     13498.2920      7206.5049        28.6891 
       28.6891        78.3365        19.0196    0.000559010       0.300669 
     -999.2500     10986.7939      5283.7886     11169.1523      7339.6274 
      0.270602      2133.0325         2.4964         1.6405     12145.3203 
     3168.3708      5719.5190     16218.7324         1.8731      8658.9004 
        7.1760         4.7617
    3323.53920 
       41.5641        62.1617        34.6422        89.6811      1286.0814 
       61.6656       114.5697     13518.6738      7276.2441        28.1047 
       28.1047        76.8671        19.3576    0.000569882       0.296073 
     -999.2500     10987.3887      5283.8438     11172.0049      7295.0586 
      0.266466      2055.2258         2.4969         1.6304     11900.5693 
     3221.5203      5718.5308     16216.4961         1.8579      8728.3105 
        7.2777         4.8508
    3323.69160 
       41.3022        64.6981        39.1695        90.2267      1274.2874 
       62.4221       113.3741     13285.4053      7314.7471        25.5405 
       25.5405        69.4909        19.6653    0.000575929       0.282492 
     -999.2500     10987.9824      5283.8989     11179.1104      7165.4248 
      0.254242      1994.8911         2.4984         1.6014     11520.6318 
     3241.5674      5631.6499     16019.9678         1.8162      8820.3574 
        7.3159         4.8845
    3323.84400 
       41.3627        65.5707        40.8396        90.3017      1277.0018 
       62.2469       112.1654     13100.7861      7270.3643        24.6365 
       24.6365        65.9142        19.7566    0.000568961       0.277481 
     -999.2500     10988.5762      5283.9531     11182.0645      7118.8013 
      0.249733      2130.7378         2.4989         1.5909     11699.0781 
     3244.3296      5651.5835     16065.0566         1.8019      8915.4053 
        7.3211         4.8891
    3323.99640 
       41.8333        65.2555        38.6493        91.8618      1298.3031 
       60.8945       110.8777     13213.2480      7256.7715        26.2399 
       26.2399        69.2685        19.9487    0.000566835       0.284052 
     -999.2500     10989.1709      5284.0083     11179.5918      7180.7500 
      0.255647      2279.6907         2.4982         1.6046     12120.8809 
     3301.9573      5809.3101     16421.8438         1.8208      9018.9463 
        7.4303         4.9858
    3324.14880 
       42.1221        67.2984        39.3097        95.2872      1311.5316 
       60.0743       109.0365     13391.1631      7377.9395        26.6945 
       26.6945        70.4553        20.6243    0.000585923       0.282071 
     -999.2500     10989.7646      5284.0630     11181.1221      7162.6045 
      0.253864      2271.4712         2.4984         1.6005     12068.1523 
     3429.9543      5908.4272     16646.0547         1.8150      9171.2412 
        7.6701         5.2006
    3324.30120 
       42.2525        71.3292        42.2380       100.4205      1317.5438 
       59.7064       106.8965     13650.2061      7624.2412        26.2052 
       26.2052        70.0700        21.7394    0.000625696       0.273286 
     -999.2500     10990.3584      5284.1182     11185.7998      7081.5298 
      0.245957      2197.1470         2.4994         1.5823     11757.3535 
     3625.5303      5953.7705     16748.6211         1.7904      9354.8428 
        8.0294         5.5288
    3324.45360 
       42.7308        72.9330        39.9164       105.9497      1339.8138 
       58.3696       105.6364     14215.0986      7854.5806        28.9030 
       28.9030        78.6802        22.6634    0.000664073       0.280251 
     -999.2500     10990.9531      5284.1729     11183.1543      7146.9214 
      0.252226      2158.8669         2.4987         1.5968     11811.5762 
     3841.2314      6123.3433     17132.2070         1.8098      9466.4346 
        8.4165         5.8907
    3324.60600 
       42.8063        72.9658        38.8415       107.0901      1343.3607 
       58.1604       105.8009     14410.1387      7921.4771        29.8772 
       29.8772        82.1525        22.8208    0.000675433       0.283475 
     -999.2500     10991.5469      5284.2275     11182.2451      7177.5791 
      0.255128      2264.7202         2.4983         1.6036     12084.5986 
     3886.3730      6150.5854     17193.8301         1.8191      9451.7148 
        8.4963         5.9665
    3324.75840 
       42.5825        73.6400        40.6499       106.6300      1332.8748 
       58.7818       106.0154     14321.9463      7941.0137        28.6016 
       28.6016        78.9987        22.8308    0.000678769       0.278050 
     -999.2500     10992.1396      5284.2822     11185.4023      7126.8960 
      0.250245      2103.8105         2.4989         1.5922     11661.4131 
     3868.1333      6070.2334     17012.0684         1.8035      9432.5918 
        8.4641         5.9359
    3324.91080 
       42.4354        73.6324        41.2630       106.0017      1326.0204 
       59.1928       106.4524     14286.0459      7943.7476        28.0729 
       28.0729        77.8848        22.7449    0.000679236       0.276211 
     -999.2500     10992.7334      5284.3369     11186.8721      7109.9741 
      0.248590      1943.2151         2.4991         1.5884     11306.3789 
     3843.2874      6018.0146     16893.9473         1.7984      9393.8701 
        8.4201         5.8942
    3325.06320 
       41.4679        75.6916        49.4534       101.9298      1281.7360 
       61.9429       107.5241     13720.7207      7904.2861        22.7022 
       22.7022        63.3027        22.4064    0.000672505       0.251640 
     -999.2500     10993.3291      5284.3921     11198.5742      6888.4087 
      0.226476      1741.6354         2.5016         1.5388     10460.0879 
     3683.8901      5686.4375     16143.8994         1.7359      9300.2412 
        8.1351         5.6267
    3325.21560 
       41.2045        73.5082        49.4209        97.5955      1269.9087 
       62.7061       108.8632     13374.2178      7703.6597        21.8709 
       21.8709        60.1769        21.5690    0.000638799       0.251737 
     -999.2500     10993.9219      5284.4463     11199.1631      6889.1133 
      0.226564      1533.7273         2.5016         1.5389     10045.6816 
     3517.3406      5599.5752     15947.4111         1.7361      9185.8408 
        7.8317         5.3472
    3325.36800 
       40.8267        71.5358        51.0512        92.0205      1253.1105 
       63.8117       110.0652     12814.9678      7429.6401        20.0621 
       20.0621        53.8243        20.5747    0.000594163       0.246846 
     -999.2500     10994.5156      5284.5015     11201.9277      6846.2827 
      0.222162      1400.3909         2.5021         1.5292      9693.3467 
     3307.8435      5477.4282     15671.1084         1.7248      9085.5234 
        7.4414         4.9957
    3325.52040 
       40.3563        69.3314        52.3444        86.3184      1232.4624 
       65.2064       111.9059     12306.7754      7171.0298        18.4629 
       18.4629        48.6094        19.5319    0.000553520       0.242967 
     -999.2500     10995.1113      5284.5557     11204.2363      6812.5967 
      0.218670      1375.6486         2.5025         1.5216      9576.4902 
     3099.0735      5329.2490     15335.9180         1.7162      8936.0791 
        7.0423         4.6454
    3325.67280 
       39.5672        69.2563        56.9688        81.5437      1198.4591 
       67.5924       114.0221     11873.1592      7038.4189        15.9109 
       15.9109        41.8932        18.8149    0.000533237       0.229094 
     -999.2500     10995.7051      5284.6108     11210.7275      6695.2510 
      0.206184      1411.5745         2.5038         1.4953      9413.6514 
     2928.5356      5089.9292     14794.5635         1.6869      8770.2295 
        6.7081         4.3592
