~Version Information Block
VERS .                  2.0:  CWLS LOG ASCII STANDARD - VERSION 2.0
WRAP .                   NO:  One line per depth step
~Well Information Block
#MNEM.UNIT        Data Type   Information
#---------- ----------------  -----------
STRT .M          2889.76360:  START DEPTH
STOP .M          3614.73040:  STOP DEPTH
STEP .M             0.15240:  STEP
NULL .              -999.25:  NULL VALUE
COMP .                     :  COMPANY
WELL .       RAAG-89-05-105:  WELL
FLD  .                     :  FIELD
LOC  .                     :  LOCATION
CTRY .                     :  COUNTRY
STAT .                     :  STATE
CNTY .                     :  COUNTY
SRVC .                     :  SERVICE COMPANY
DATE .                     :  DATE
API  .                     :  API NUMBER
UWI  .                     :  UNIQUE WELL ID
~Curve Information Block
#MNEM.UNIT         API CODE   Curve Description
#---------- ----------------  -----------------
DEPTH.M                    :  
PRESS_PP.PSI                  :  Pore Pressure
PZS  .PSI                  :  Processed Zone Stress
~Parameter Information Block
#MNEM.UNIT            Value   Description
#---------- ----------------  -----------
PROJECT.          RDG_13Jul21:  
SET  .              GEOMECH:  
~Other Information Block
# 
~A       DEPTH       PRESS_PP            PZS 
# ...
    3079.65400      5211.9614      2003.1730
    3079.80640      5212.0361      1857.0052
    3079.95880      5212.1108      1992.2815
    3080.11120      5212.1851      1904.7460
    3080.26360      5212.2603      1772.2986
    3080.41600      5212.3354      1686.9028
    3080.56840      5212.4097      1561.4304
    3080.72080      5212.4844      1315.6316
    3080.87320      5212.5591      1178.2775
    3081.02560      5212.6333      1120.8867
    3081.17800      5212.7080      1109.9540
    3081.33040      5212.7822      1107.2341
    3081.48280      5212.8574      1184.0000
    3081.63520      5212.9316      1385.6982
    3081.78760      5213.0063      1735.0090
    3081.94000      5213.0806      2126.1545
    3082.09240      5213.1558      2105.6277
    3082.24480      5213.2300      1788.1899
    3082.39720      5213.3042      1304.7510
    3082.54960      5213.3789      1133.2888
    3082.70200      5213.4531      1248.4285
    3082.85440      5213.5273      1073.6841
    3083.00680      5213.6021      1336.0310
    3083.15920      5213.6763      1524.2300
    3083.31160      5213.7505      1731.1206
    3083.46400      5213.8247      2027.3020
    3083.61640      5213.8994      2286.4775
    3083.76880      5213.9736      2603.6572
    3083.92120      5214.0479      2783.4397
    3084.07360      5214.1221      2837.8245
    3084.22600      5214.1968      2791.9709
    3084.37840      5214.2705      2617.1477
    3084.53080      5214.3447      2817.6899
    3084.68320      5214.4194      2949.1443
    3084.83560      5214.4937      3027.3027
    3084.98800      5214.5674      3079.2959
    3085.14040      5214.6416      3079.2959
    3085.29280      5214.7163      3079.2959
    3085.44520      5214.7900      3073.1423
    3085.59760      5214.8643      3070.0691
    3085.75000      5214.9380      3024.2664
    3085.90240      5215.0122      2786.2810
    3086.05480      5215.0859      2890.1279
    3086.20720      5215.1602      2582.1882
    3086.35960      5215.2344      2342.8403
    3086.51200      5215.3081      2328.0310
    3086.66440      5215.3823      2238.3530
    3086.81680      5215.4561      1919.4690
    3086.96920      5215.5298      1608.4908
    3087.12160      5215.6040      1511.9886
    3087.27400      5215.6777      1696.4376
    3087.42640      5215.7520      2092.0313
    3087.57880      5215.8257      2380.1936
    3087.73120      5215.8999      2238.3530
    3087.88360      5215.9736      1917.3601
    3088.03600      5216.0474      1634.2970
    3088.18840      5216.1211      1474.0270
    3088.34080      5216.1948      1410.2550
    3088.49320      5216.2686      1374.3560
    3088.64560      5216.3423      1403.6727
    3088.79800      5216.4160      1513.7325
    3088.95040      5216.4897      1652.9319
    3089.10280      5216.5635      2003.1730
    3089.25520      5216.6372      2392.7500
    3089.40760      5216.7104      2702.0417
    3089.56000      5216.7842      2860.9761
    3089.71240      5216.8579      2946.1707
    3089.86480      5216.9316      3048.6260
    3090.01720      5217.0049      2964.0479
    3090.16960      5217.0786      2738.2915
    3090.32200      5217.1523      2390.2344
    3090.47440      5217.2256      1852.8995
    3090.62680      5217.2993      1446.9004
    3090.77920      5217.3730      1293.9424
    3090.93160      5217.4463      1237.9950
    3091.08400      5217.5200      1145.8005
    3091.23640      5217.5933       898.2023
    3091.38880      5217.6670       812.0734
    3091.54120      5217.7402       903.9630
    3091.69360      5217.8135      1249.9246
    3091.84600      5217.8872      1812.2406
    3091.99840      5217.9604      1875.5709
    3092.15080      5218.0337      1902.6501
    3092.30320      5218.1069      1859.0608
    3092.45560      5218.1807      1826.3892
    3092.60800      5218.2539      1830.4478
    3092.76040      5218.3271      1780.2301
    3092.91280      5218.4004      1857.0052
    3093.06520      5218.4736      2110.1753
    3093.21760      5218.5469      2255.1035
    3093.37000      5218.6201      2130.7378
    3093.52240      5218.6934      1919.4690
    3093.67480      5218.7666      1802.1882
    3093.82720      5218.8398      2397.7874
    3093.97960      5218.9126      2590.2224
    3094.13200      5218.9858      1875.5709
    3094.28440      5219.0586      1415.2080
    3094.43680      5219.1318      1125.0085
    3094.58920      5219.2046      1089.6851
    3094.74160      5219.2778      1158.4224
    3094.89400      5219.3506      1240.9689
    3095.04640      5219.4233      1325.0155
    3095.19880      5219.4961      1300.1100
    3095.35120      5219.5693      1281.6777
    3095.50360      5219.6421      1379.2079
    3095.65600      5219.7153      1677.4110
    3095.80840      5219.7881      2221.7021
    3095.96080      5219.8608      2849.3813
    3096.11320      5219.9336      3070.0691
    3096.26560      5220.0068      2884.2786
    3096.41800      5220.0796      2550.2507
    3096.57040      5220.1523      2474.3713
    3096.72280      5220.2251      2367.6899
    3096.87520      5220.2979      2274.3696
    3097.02760      5220.3706      2000.9910
    3097.18000      5220.4434      1575.7916
    3097.33240      5220.5161      1245.4403
    3097.48480      5220.5889      1020.4264
    3097.63720      5220.6616       889.0464
    3097.78960      5220.7344       833.4990
    3097.94200      5220.8066       830.2567
    3098.09440      5220.8794       846.5698
    3098.24680      5220.9521       865.3670
    3098.39920      5221.0249       841.1039
    3098.55160      5221.0972       813.1342
    3098.70400      5221.1699       802.5768
    3098.85640      5221.2422       791.0907
    3099.00880      5221.3149       827.0244
    3099.16120      5221.3872       898.2023
    3099.31360      5221.4600       939.1507
    3099.46600      5221.5322       903.9630
    3099.61840      5221.6050       808.8979
    3099.77080      5221.6768       729.7576
    3099.92320      5221.7490       740.5266
    3100.07560      5221.8213       856.4801
    3100.22800      5221.8940      1081.6609
    3100.38040      5221.9663      1355.0851
    3100.53280      5222.0386      1355.0851
    3100.68520      5222.1108      1258.9319
    3100.83760      5222.1831      1191.1844
    3100.99000      5222.2554      1184.0000
    3101.14240      5222.3276      1144.4049
    3101.29480      5222.3999       961.9971
    3101.44720      5222.4722       802.5768
    3101.59960      5222.5444       751.4223
    3101.75200      5222.6162       825.9492
    3101.90440      5222.6885       974.1989
    3102.05680      5222.7607       946.3180
    3102.20920      5222.8330       807.8417
    3102.36160      5222.9048       688.8561
    3102.51400      5222.9771       640.9878
    3102.66640      5223.0493       654.2565
    3102.81880      5223.1211       707.6454
    3102.97120      5223.1934       777.6862
    3103.12360      5223.2651       845.4744
    3103.27600      5223.3374       926.1237
    3103.42840      5223.4092      1107.2341
    3103.58080      5223.4810      1393.8456
    3103.73320      5223.5532      1696.4376
    3103.88560      5223.6250      1877.6429
    3104.03800      5223.6968      1836.5493
    3104.19040      5223.7686      1575.7916
    3104.34280      5223.8403      1397.1151
    3104.49520      5223.9126      1630.5902
    3104.64760      5223.9839      2009.7307
    3104.80000      5224.0557      2308.4019
    3104.95240      5224.1274      2579.5146
    3105.10480      5224.1992      2579.5146
    3105.25720      5224.2710      2555.5515
    3105.40960      5224.3418      2707.5935
    3105.56200      5224.4136      3024.2664
    3105.71440      5224.4854      3033.3828
    3105.86680      5224.5571      3066.9985
    3106.01920      5224.6289      3079.2959
    3106.17160      5224.7002      3079.2959
    3106.32400      5224.7720      3079.2959
    3106.47640      5224.8433      3079.2959
    3106.62880      5224.9150      3079.2959
