~Version Information Block
VERS .                  2.0:  CWLS LOG ASCII STANDARD - VERSION 2.0
WRAP .                  YES:  Multiple lines per depth step
~Well Information Block
#MNEM.UNIT        Data Type   Information
#---------- ----------------  -----------
STRT .M          2686.96440:  START DEPTH
STOP .M          3645.86520:  STOP DEPTH
STEP .M             0.15240:  STEP
NULL .              -999.25:  NULL VALUE
COMP .                     :  COMPANY
WELL .      RAAG-105-07-212:  WELL
FLD  .                     :  FIELD
LOC  .                     :  LOCATION
CTRY .                     :  COUNTRY
STAT .                     :  STATE
CNTY .                     :  COUNTY
SRVC .                     :  SERVICE COMPANY
DATE .                     :  DATE
API  .                     :  API NUMBER
UWI  .                     :  UNIQUE WELL ID
~Curve Information Block
#MNEM.UNIT         API CODE   Curve Description
#---------- ----------------  -----------------
DEPTH.M                    :  
ANGLE_FAIL.DEG                  :  Fail Angle
BRIT_IND.                     :  Brittleness Index
BRIT_PR.                     :  Brittleness Index from Poisson's Ratio
BRIT_YM.                     :  Brittleness Index from Young's Modulus
CS   .M/MIN                 :  Compressive Strength
DTCO .US/F                 :  Compressional slowness
DTSM .US/F                 :  Shear slowness
IP   .RAYL/M2                 :  P Impedence
IS   .RAYL/M2                 :  S Impedance
KBULK.                     :  Bulk Mudulus
LAMBDA.                     :  Lambda
LAMRHO.                     :  
MU   .CP                   :  Mu
MURHO.(GF/C3S)2                 :  Mu*Rho
PR   .                     :  Poisson's ratio
PRESS_FG.PSI                  :  Fracture Gradient Pressure
PRESS_OB.PSI                  :  Over-burden Pressure
PRESS_PP.PSI                  :  Pore Pressure
PRESS_SHMAX.PSI                  :  Horizontal Stress (Max)
PRESS_SHMIN.PSI                  :  Horizontal Stress (Min)
PR_STAT.                     :  Poisson's ratio (Static)
PZS  .PSI                  :  Processed Zone Stress
SHMAX_GRAD.                     :  Horizontal Stress Gradient (Max)
SHMIN_GRAD.                     :  Horizontal Stress Gradient (Min)
STRESS_CUM.PSI                  :  Cumulative stress (SHPZ)
UCS_BF.PSI                  :  Uniaxial Compressive Strength (BF)
UCS_LAL.PSI                  :  Uniaxial Compressive Strength (lal)
VP   .FT/S                 :  Compressional velocity
VPVS .                     :  Vp / Vs ratio
VS   .FT/S                 :  Shear velocity
YM   .                     :  Youngs' Modulus
YM_STAT.                     :  Youngs' Modulus (Static)
~Parameter Information Block
#MNEM.UNIT            Value   Description
#---------- ----------------  -----------
ALPHA.                 0.98:  Biot's Constant
CALIB_SHMINPZS.                 6800:  Calibration Factor for processing zones
EXT_FACT.                1e-06:  Extension Factor
PR_FAC.                  0.9:  Poisson's ratio factor
PR_MAX.                  0.4:  Maximum Poisson's ratio
PR_MIN.                  0.1:  Minimum Poisson's ratio
TECT_FACT.                 1.05:  Techtonic Factor
YM_MAX.                    8:  Maximum Youngs' Modulus
YM_MIN.                    1:  Minimum Youngs' Modulus
PROJECT.          RDG_13Jul21:  
SET  .              GEOMECH:  
~Other Information Block
~Ascii Log Data
# ...
    3067.35480 
       42.1466        64.5484        36.0499        93.0468      1312.6604 
       60.0050       110.6782     13428.5215      7280.3716        28.1119 
       28.1119        74.3176        20.0496    0.000570528       0.291850 
     -999.2500      9997.3193      5163.9238     10155.8789      6826.1289 
      0.262665      2176.0730         2.4713         1.6610     11204.4043 
     3346.0132      5916.9258     16665.2773         1.8445      9035.2031 
        7.5133         5.0597
    3067.50720 
       42.1925        65.2416        36.3597        94.1235      1314.7743 
       59.8755       110.2659     13501.1914      7331.2832        28.1980 
       28.1980        74.7867        20.2653    0.000578536       0.290921 
     -999.2500      9997.9023      5164.0112     10156.8535      6818.8887 
      0.261829      1913.5688         2.4714         1.6592     10664.9160 
     3386.2471      5932.8599     16701.3223         1.8416      9068.9873 
        7.5886         5.1272
    3067.65960 
       42.1896        66.2910        37.4016        95.1803      1314.6420 
       59.8836       109.7066     13525.7822      7383.0796        27.8194 
       27.8194        73.9271        20.5126    0.000586739       0.287795 
     -999.2500      9998.4863      5164.0996     10158.7197      6793.8198 
      0.259016      1792.5801         2.4717         1.6530     10372.7998 
     3425.9319      5931.8613     16699.0625         1.8320      9115.2227 
        7.6626         5.1938
    3067.81200 
       42.1856        66.4987        37.8502        95.1472      1314.4589 
       59.8948       109.4841     13478.4707      7373.5845        27.5353 
       27.5353        72.9297        20.5278    0.000585231       0.286449 
     -999.2500      9999.0703      5164.1870     10159.8643      6783.1890 
      0.257804      1834.5137         2.4718         1.6503     10435.4053 
     3424.6863      5930.4810     16695.9414         1.8279      9133.7461 
        7.6603         5.1917
    3067.96440 
       42.1355        67.0852        38.8909        95.2795      1312.1487 
       60.0364       109.1875     13422.6660      7380.4102        26.9406 
       26.9406        71.2271        20.6026    0.000586315       0.283327 
     -999.2500      9999.6553      5164.2749     10161.7207      6758.3359 
      0.254995      1905.5848         2.4722         1.6442     10527.8418 
     3429.6667      5913.0728     16656.5605         1.8187      9158.5576 
        7.6696         5.2001
    3068.11680 
       42.2424        67.7317        38.9985        96.4649      1317.0780 
       59.7348       108.5826     13489.1104      7420.7954        27.1674 
       27.1674        71.8197        20.8308    0.000592749       0.283004 
     -999.2500     10000.2383      5164.3628     10162.4453      6756.1069 
      0.254704      2154.6980         2.4722         1.6435     11021.6094 
     3474.4270      5950.2510     16740.6602         1.8177      9209.5791 
        7.7525         5.2752
    3068.26920 
       42.5942        67.1100        36.2360        97.9841      1333.4196 
       58.7493       108.2597     13732.2480      7452.0801        29.2830 
       29.2830        77.5076        20.9810    0.000597758       0.291292 
     -999.2500     10000.8223      5164.4502     10159.6855      6823.5654 
      0.262163      2399.3000         2.4714         1.6599     11645.7314 
     3532.1431      6074.3940     17021.4805         1.8427      9237.0479 
        7.8589         5.3721
    3068.42160 
       42.6124        67.4042        36.5691        98.2392      1334.2717 
       58.6985       107.9841     13715.9346      7455.7715        29.1320 
       29.1320        76.9498        21.0449    0.000598350       0.290293 
     -999.2500     10001.4072      5164.5371     10160.6934      6815.6895 
      0.261263      2421.5767         2.4715         1.6579     11674.5322 
     3541.8748      6080.9058     17036.2090         1.8396      9260.6221 
        7.8767         5.3884
    3068.57400 
       42.9200        66.9102        34.0515        99.7688      1348.7167 
       57.8464       107.8080     13979.3613      7500.8882        31.2453 
       31.2453        82.8959        21.2069    0.000605613       0.297846 
     -999.2500     10001.9912      5164.6250     10158.1768      6878.2656 
      0.268061      2053.8894         2.4708         1.6730     11064.3096 
     3600.4517      6191.8442     17287.1602         1.8637      9275.7500 
        7.9838         5.4867
    3068.72640 
       43.0503        66.6675        32.8215       100.5135      1354.8829 
       57.4877       107.8464     14128.3555      7531.1431        32.3389 
       32.3389        86.1742        21.2848    0.000610509       0.301535 
     -999.2500     10002.5742      5164.7124     10157.2334      6909.4028 
      0.271382      2148.2261         2.4704         1.6805     11315.2578 
     3629.1169      6239.5288     17395.0234         1.8760      9272.4473 
        8.0359         5.5348
    3068.87880 
       43.1024        66.2262        32.2203       100.2321      1357.3540 
       57.3448       107.9309     14131.4053      7508.1611        32.7049 
       32.7049        86.9516        21.2033    0.000606788       0.303339 
     -999.2500     10003.1582      5164.8003     10157.0762      6924.8110 
      0.273005      2522.8276         2.4702         1.6841     12095.2773 
     3618.2729      6258.6919     17438.3730         1.8821      9265.1875 
        8.0162         5.5166
    3069.03120 
       43.0710        65.8531        32.2420        99.4642      1355.8641 
       57.4309       108.0801     14055.0771      7468.4951        32.4695 
       32.4695        85.9883        21.0621    0.000600394       0.303274 
     -999.2500     10003.7432      5164.8882     10157.7070      6924.4668 
      0.272947      2897.1594         2.4703         1.6840     12843.2529 
     3588.7527      6247.1343     17412.2305         1.8819      9252.3975 
        7.9625         5.4671
    3069.18360 
       42.8788        66.3235        33.8690        98.7779      1346.7728 
       57.9601       108.1243     13906.1348      7454.3926        31.1019 
       31.1019        82.2447        21.0138    0.000598129       0.298393 
     -999.2500     10004.3271      5164.9751     10160.3525      6883.8062 
      0.268554      2890.7134         2.4708         1.6740     12749.0391 
     3562.4590      6176.8530     17253.2480         1.8655      9248.6152 
        7.9145         5.4229
    3069.33600 
       42.7714        65.9112        33.7424        98.0799      1341.7208 
       58.2570       108.7512     13905.6855      7449.1460        30.9985 
       30.9985        82.3885        20.8779    0.000597287       0.298773 
     -999.2500     10004.9111      5165.0630     10160.7979      6887.1753 
      0.268895      2226.4495         2.4708         1.6747     11427.2490 
     3535.7957      6137.9814     17165.3184         1.8667      9195.3008 
        7.8656         5.3782
    3069.48840 
       42.3217        66.4248        36.5959        96.2537      1320.7440 
       59.5118       109.4655     13657.7617      7425.1523        28.6008 
       28.6008        76.2687        20.6749    0.000593445       0.290212 
     -999.2500     10005.4951      5165.1509     10164.9355      6816.6968 
      0.261191      1854.9514         2.4716         1.6575     10543.2959 
     3466.4331      5977.9819     16803.3906         1.8394      9135.2988 
        7.7378         5.2618
    3069.64080 
       42.1109        65.7255        36.8920        94.5590      1311.0192 
       60.1058       110.3938     13551.5908      7378.3965        27.9770 
       27.9770        74.7641        20.3719    0.000585995       0.289324 
     -999.2500     10006.0791      5165.2378     10165.9043      6809.5723 
      0.260392      2024.6586         2.4717         1.6557     10868.4619 
     3402.5754      5904.5703     16637.3301         1.8367      9058.4795 
        7.6191         5.1546
