~Version Information Block
VERS .                  2.0:  CWLS LOG ASCII STANDARD - VERSION 2.0
WRAP .                  YES:  Multiple lines per depth step
~Well Information Block
#MNEM.UNIT        Data Type   Information
#---------- ----------------  -----------
STRT .M          2682.11640:  START DEPTH
STOP .M          3633.09240:  STOP DEPTH
STEP .M             0.15240:  STEP
NULL .              -999.25:  NULL VALUE
COMP .                     :  COMPANY
WELL .       RAAG-94-07-216:  WELL
FLD  .                     :  FIELD
LOC  .                     :  LOCATION
CTRY .                     :  COUNTRY
STAT .                     :  STATE
CNTY .                     :  COUNTY
SRVC .                     :  SERVICE COMPANY
DATE .                     :  DATE
API  .                     :  API NUMBER
UWI  .                     :  UNIQUE WELL ID
~Curve Information Block
#MNEM.UNIT         API CODE   Curve Description
#---------- ----------------  -----------------
DEPTH.M                    :  
ANGLE_FAIL.DEG                  :  Fail Angle
BRIT_IND.                     :  Brittleness Index
BRIT_PR.                     :  Brittleness Index from Poisson's Ratio
BRIT_YM.                     :  Brittleness Index from Young's Modulus
CS   .M/MIN                 :  Compressive Strength
IP   .RAYL/M2                 :  P Impedence
IS   .RAYL/M2                 :  S Impedance
KBULK.                     :  Bulk Mudulus
LAMBDA.                     :  Lambda
LAMRHO.                     :  
MU   .CP                   :  Mu
MURHO.(GF/C3S)2                 :  Mu*Rho
PR   .                     :  Poisson's ratio
PRESS_FG.PSI                  :  Fracture Gradient Pressure
PRESS_OB.PSI                  :  Over-burden Pressure
PRESS_PP.PSI                  :  Pore Pressure
PRESS_SHMAX.PSI                  :  Horizontal Stress (Max)
PRESS_SHMIN.PSI                  :  Horizontal Stress (Min)
PR_STAT.                     :  Poisson's ratio (Static)
PZS  .PSI                  :  Processed Zone Stress
SHMAX_GRAD.                     :  Horizontal Stress Gradient (Max)
SHMIN_GRAD.                     :  Horizontal Stress Gradient (Min)
STRESS_CUM.PSI                  :  Cumulative stress (SHPZ)
UCS_BF.PSI                  :  Uniaxial Compressive Strength (BF)
UCS_LAL.PSI                  :  Uniaxial Compressive Strength (lal)
VP   .FT/S                 :  Compressional velocity
VPVS .                     :  Vp / Vs ratio
VS   .FT/S                 :  Shear velocity
YM   .                     :  Youngs' Modulus
YM_STAT.                     :  Youngs' Modulus (Static)
~Parameter Information Block
#MNEM.UNIT            Value   Description
#---------- ----------------  -----------
PROJECT.          RDG_13Jul21:  
SET  .              GEOMECH:  
~Other Information Block
~Ascii Log Data
# ...
    3500.80920 
       40.6397        72.4285        52.9952        91.8618      1244.8696 
    12773.2949      7461.4629        19.2082        19.2082        51.8102 
       20.6405         0.0006       0.241014      -999.2500     11908.8428 
     5345.6836     12149.6484      7092.7285       0.216913      2868.7473 
        2.5256         1.4744     13122.9512      3301.9575      5418.0293 
    15536.7441         1.7119      9075.7197         7.4303         4.9858
    3500.96160 
       41.2014        76.2877        53.6848        98.8906      1269.7704 
    13223.0654      7744.4365        20.1771        20.1771        54.8969 
       22.0440         0.0006       0.238946      -999.2500     11909.4355 
     5345.7085     12151.2441      7073.2549       0.215051      3063.7273 
        2.5258         1.4703     13473.9648      3566.7698      5598.5635 
    15945.1240         1.7074      9338.6816         7.9223         5.4302
    3501.11400 
       42.1477        77.7566        48.6513       106.8619      1312.7115 
    13918.6299      7992.2192        24.0795        24.0795        65.9771 
       23.3125         0.0007       0.254046      -999.2500     11910.0283 
     5345.7324     12144.3311      7223.9731       0.228641      3042.1902 
        2.5243         1.5016     13732.3262      3877.3220      5917.3110 
    16666.1484         1.7415      9569.8730         8.4803         5.9513
    3501.26640 
       42.7216        81.0966        48.1300       114.0632      1339.3804 
    14394.7520      8247.9434        25.8000        25.8000        71.1517 
       24.6675         0.0007       0.255610      -999.2500     11910.6211 
     5345.7568     12144.1211      7240.6230       0.230049      3059.4395 
        2.5241         1.5050     13800.1250      4167.2246      6120.0176 
    17124.6836         1.7453      9812.1475         8.9844         6.4377
    3501.41880 
       43.0403        80.6383        45.1544       116.1223      1354.4050 
    14667.8691      8299.4258        27.9591        27.9591        77.3854 
       24.8863         0.0007       0.264537      -999.2500     11911.2139 
     5345.7808     12140.1514      7332.4707       0.238083      2983.4985 
        2.5232         1.5240     13831.9385      4251.7476      6235.8257 
    17386.6484         1.7673      9837.7744         9.1286         6.5796
    3501.57120 
       43.1473        82.8341        46.6889       118.9794      1359.4860 
    14772.0996      8413.4229        27.6367        27.6367        76.6436 
       25.5244         0.0008       0.259933      -999.2500     11911.8066 
     5345.8052     12143.1211      7285.5190       0.233940      2848.6125 
        2.5237         1.5141     13468.2627      4370.2314      6275.2515 
    17475.8320         1.7558      9953.3291         9.3286         6.7784
    3501.72360 
       42.9383        84.0825        49.5319       118.6331      1349.5822 
    14635.6309      8434.0215        25.9212        25.9212        71.9363 
       25.6316         0.0008       0.251404      -999.2500     11912.4004 
     5345.8291     12148.0615      7199.1704       0.226264      2714.2522 
        2.5246         1.4961     13026.8447      4355.7959      6198.5249 
    17302.2715         1.7353      9970.7158         9.3043         6.7542
    3501.87600 
       42.3620        85.4401        55.6573       115.2229      1322.6139 
    14190.1572      8372.0186        22.1236        22.1236        61.1792 
       25.3462         0.0008       0.233028      -999.2500     11912.9932 
     5345.8535     12157.7246      7018.3638       0.209725      2640.0076 
        2.5265         1.4585     12516.7432      4214.7388      5992.1523 
    16835.4434         1.6950      9932.7061         9.0656         6.5175
    3502.02840 
       41.6187        83.0566        58.7251       107.3882      1288.5511 
    13606.9961      8116.6108        19.4441        19.4441        53.3916 
       23.9919         0.0007       0.223825      -999.2500     11913.5869 
     5345.8779     12162.7568      6930.1826       0.201442      2690.8477 
        2.5274         1.4401     12442.0605      3898.2080      5736.8130 
    16257.8525         1.6764      9697.8535         8.5172         5.9863
    3502.18080 
       41.0129        77.5894        56.5307        98.6481      1261.3660 
    13123.9600      7767.6245        18.9301        18.9301        51.5663 
       22.1494         0.0006       0.230408      -999.2500     11914.1797 
     5345.9019     12160.2803      6992.1660       0.207367      2607.5127 
        2.5268         1.4529     12399.3564      3557.4937      5537.2783 
    15806.4922         1.6896      9355.3242         7.9054         5.4146
    3502.33320 
       40.8259        75.2080        54.7468        95.6692      1253.0757 
    13001.6865      7645.1206        19.1575        19.1575        52.1481 
       21.4718         0.0006       0.235760      -999.2500     11914.7725 
     5345.9258     12158.3301      7043.6313       0.212184      2421.3650 
        2.5263         1.4636     12129.9932      3444.3552      5477.1772 
    15670.5391         1.7007      9214.4326         7.6968         5.2248
    3502.48560 
       41.0495        74.0509        51.4411        96.6606      1262.9949 
    13209.3027      7669.9795        20.7622        20.7622        56.8285 
       21.4929         0.0006       0.245677      -999.2500     11915.3672 
     5345.9497     12154.0811      7141.0762       0.221109      2230.2979 
        2.5253         1.4837     11942.7471      3481.8408      5549.1279 
    15833.2969         1.7222      9193.6016         7.7662         5.2877
    3502.63800 
       41.7324        69.6809        41.4594        97.9024      1293.7133 
    13753.3896      7654.5083        26.0703        26.0703        71.9727 
       21.2233         0.0006       0.275622      -999.2500     11915.9600 
     5345.9741     12139.3145      7448.8555       0.248060      2183.0266 
        2.5221         1.5476     12463.7637      3529.0300      5775.1284 
    16344.5244         1.7968      9096.6152         7.8532         5.3668
    3502.79040 
       42.6446        67.0706        32.9635       101.1777      1335.7771 
    14469.7764      7719.0562        32.4212        32.4212        90.2068 
       21.4150         0.0006       0.301110      -999.2500     11916.5527 
     5345.9980     12125.9297      7729.0107       0.270999      2438.0225 
        2.5192         1.6057     13534.0664      3654.7625      6092.4170 
    17062.2480         1.8746      9102.0381         8.0824         5.5778
    3502.94280 
       43.1664        67.0546        29.8262       104.2830      1360.3933 
    14901.3125      7811.6777        35.7803        35.7803       100.0045 
       21.8330         0.0007       0.310521      -999.2500     11917.1455 
     5346.0215     12121.1377      7837.3076       0.279469      2648.6709 
        2.5181         1.6282     14171.9570      3775.6631      6282.3057 
    17491.7891         1.9076      9169.6768         8.2998         5.7807
    3503.09520 
       43.3094        67.6559        29.5939       105.7178      1367.2141 
    15010.7617      7858.5405        36.4092        36.4092       101.8096 
       22.0854         0.0007       0.311218      -999.2500     11917.7383 
     5346.0459     12121.3369      7845.7676       0.280096      2723.7646 
        2.5181         1.6299     14339.0645      3832.0808      6335.4727 
    17612.0566         1.9101      9220.3887         8.4002         5.8754
    3503.24760 
       43.3354        67.6294        29.5362       105.7225      1368.4600 
    15000.6074      7850.6104        36.4595        36.4595       101.7541 
       22.0834         0.0007       0.311391      -999.2500     11918.3311 
     5346.0698     12121.8467      7848.0225       0.280252      2674.4268 
        2.5181         1.6303     14244.8984      3832.2666      6345.2095 
    17634.0820         1.9108      9228.8467         8.4006         5.8757
