~Version Information Block
VERS .                  2.0:  CWLS LOG ASCII STANDARD - VERSION 2.0
WRAP .                  YES:  Multiple lines per depth step
~Well Information Block
#MNEM.UNIT        Data Type   Information
#---------- ----------------  -----------
STRT .M          2556.50000:  START DEPTH
STOP .M          3600.74480:  STOP DEPTH
STEP .M             0.15240:  STEP
NULL .              -999.25:  NULL VALUE
COMP .                     :  COMPANY
WELL .      RAAG-100-07-213:  WELL
FLD  .                     :  FIELD
LOC  .                     :  LOCATION
CTRY .                     :  COUNTRY
STAT .                     :  STATE
CNTY .                     :  COUNTY
SRVC .                     :  SERVICE COMPANY
DATE .                     :  DATE
API  .                     :  API NUMBER
UWI  .                     :  UNIQUE WELL ID
~Curve Information Block
#MNEM.UNIT         API CODE   Curve Description
#---------- ----------------  -----------------
DEPTH.M                    :  
ANGLE_FAIL.DEG                  :  Fail Angle
BRIT_IND.                     :  Brittleness Index
BRIT_PR.                     :  Brittleness Index from Poisson's Ratio
BRIT_YM.                     :  Brittleness Index from Young's Modulus
CS   .M/MIN                 :  Compressive Strength
DTCO .US/F                 :  Compressional slowness
DTSM .US/F                 :  Description
IP   .RAYL/M2                 :  P Impedence
IS   .RAYL/M2                 :  S Impedance
KBULK.                     :  Bulk Mudulus
LAMBDA.                     :  Lambda
LAMRHO.                     :  
MU   .CP                   :  Mu
MURHO.(GF/C3S)2                 :  Mu*Rho
PR   .                     :  Poisson's ratio
PRESS_FG.PSI                  :  Fracture Gradient Pressure
PRESS_OB.PSI                  :  Over-burden Pressure
PRESS_PP.PSI                  :  Pore Pressure
PRESS_SHMAX.PSI                  :  Horizontal Stress (Max)
PRESS_SHMIN.PSI                  :  Horizontal Stress (Min)
PR_STAT.                     :  Poisson's ratio (Static)
PZS  .PSI                  :  Processed Zone Stress
SHMAX_GRAD.                     :  Horizontal Stress Gradient (Max)
SHMIN_GRAD.                     :  Horizontal Stress Gradient (Min)
STRESS_CUM.PSI                  :  Cumulative stress (SHPZ)
UCS_BF.PSI                  :  Uniaxial Compressive Strength (BF)
UCS_LAL.PSI                  :  Uniaxial Compressive Strength (lal)
VP   .FT/S                 :  Compressional velocity
VPVS .                     :  Vp / Vs ratio
VS   .FT/S                 :  Shear velocity
YM   .                     :  Youngs' Modulus
YM_STAT.                     :  Youngs' Modulus (Static)
~Parameter Information Block
#MNEM.UNIT            Value   Description
#---------- ----------------  -----------
PROJECT.          RDG_13Jul21:  
SET  .              GEOMECH:  
~Other Information Block
~Ascii Log Data
# ...
    2607.70640 
     -999.2500      -999.2500      -999.2500      -999.2500      -999.2500 
       97.9350       196.3258      -999.2500      -999.2500      -999.2500 
     -999.2500      -999.2500      -999.2500 -999.250000000    -999.250000 
     -999.2500      -999.2500      -999.2500      -999.2500      -999.2500 
   -999.250000      -999.2500      -999.2500      -999.2500      -999.2500 
     -999.2500      -999.2500      -999.2500      -999.2500      -999.2500 
     -999.2500      -999.2500
    2607.85880 
     -999.2500      -999.2500      -999.2500      -999.2500      -999.2500 
      102.6416       195.8549      -999.2500      -999.2500      -999.2500 
     -999.2500      -999.2500      -999.2500 -999.250000000    -999.250000 
     -999.2500      -999.2500      -999.2500      -999.2500      -999.2500 
   -999.250000      -999.2500      -999.2500      -999.2500      -999.2500 
     -999.2500      -999.2500      -999.2500      -999.2500      -999.2500 
     -999.2500      -999.2500
    2608.01120 
     -999.2500      -999.2500      -999.2500      -999.2500      -999.2500 
      104.0860       191.5037      -999.2500      -999.2500      -999.2500 
     -999.2500      -999.2500      -999.2500 -999.250000000    -999.250000 
     -999.2500      -999.2500      -999.2500      -999.2500      -999.2500 
   -999.250000      -999.2500      -999.2500      -999.2500      -999.2500 
     -999.2500      -999.2500      -999.2500      -999.2500      -999.2500 
     -999.2500      -999.2500
    2608.16360 
     -999.2500      -999.2500      -999.2500      -999.2500      -999.2500 
       97.9269       179.4231      -999.2500      -999.2500      -999.2500 
     -999.2500      -999.2500      -999.2500 -999.250000000    -999.250000 
     -999.2500      -999.2500      -999.2500      -999.2500      -999.2500 
   -999.250000      -999.2500      -999.2500      -999.2500      -999.2500 
     -999.2500      -999.2500      -999.2500      -999.2500      -999.2500 
     -999.2500      -999.2500
    2608.31600 
     -999.2500      -999.2500      -999.2500      -999.2500      -999.2500 
       90.7891       168.3416      -999.2500      -999.2500      -999.2500 
     -999.2500      -999.2500      -999.2500 -999.250000000    -999.250000 
     -999.2500      -999.2500      -999.2500      -999.2500      -999.2500 
   -999.250000      -999.2500      -999.2500      -999.2500      -999.2500 
     -999.2500      -999.2500      -999.2500      -999.2500      -999.2500 
     -999.2500      -999.2500
    2608.46840 
     -999.2500      -999.2500      -999.2500      -999.2500      -999.2500 
       87.7509       167.3330      -999.2500      -999.2500      -999.2500 
     -999.2500      -999.2500      -999.2500 -999.250000000    -999.250000 
     -999.2500      -999.2500      -999.2500      -999.2500      -999.2500 
   -999.250000      -999.2500      -999.2500      -999.2500      -999.2500 
     -999.2500      -999.2500      -999.2500      -999.2500      -999.2500 
     -999.2500      -999.2500
    2608.62080 
     -999.2500      -999.2500      -999.2500      -999.2500      -999.2500 
       85.6022       171.5558      -999.2500      -999.2500      -999.2500 
     -999.2500      -999.2500      -999.2500 -999.250000000    -999.250000 
     -999.2500      -999.2500      -999.2500      -999.2500      -999.2500 
   -999.250000      -999.2500      -999.2500      -999.2500      -999.2500 
     -999.2500      -999.2500      -999.2500      -999.2500      -999.2500 
     -999.2500      -999.2500
    2608.77320 
     -999.2500      -999.2500      -999.2500      -999.2500      -999.2500 
       89.9400       177.5668      -999.2500      -999.2500      -999.2500 
     -999.2500      -999.2500      -999.2500 -999.250000000    -999.250000 
     -999.2500      -999.2500      -999.2500      -999.2500      -999.2500 
   -999.250000      -999.2500      -999.2500      -999.2500      -999.2500 
     -999.2500      -999.2500      -999.2500      -999.2500      -999.2500 
     -999.2500      -999.2500
    2608.92560 
       31.8029        28.1729        31.1442        25.2017       899.3743 
       94.4144       178.7621      8098.6240      4277.3423        11.5587 
       11.5587        28.9964         7.2931    0.000196933       0.306567 
     -999.2500      8612.6846      4897.0581      8730.6045      6254.2974 
      0.275911      2068.7202         2.4327         1.7427      9846.0342 
     1210.7997      3231.9067     10591.6045         1.8934      5594.0269 
        2.7641         1.4768
    2609.07800 
       31.2407        29.9074        35.4212        24.3936       879.7890 
       96.6132       178.7758      7830.4419      4231.6919        10.2744 
       10.2744        25.5014         7.2147    0.000192752       0.293737 
     -999.2500      8613.2549      4897.1929      8735.3252      6171.8325 
      0.264363      2038.4026         2.4339         1.7197      9620.4707 
     1190.1158      3125.3435     10350.5527         1.8504      5593.5991 
        2.7076         1.4421
    2609.23040 
       30.9212        30.7991        37.7473        23.8508       868.7636 
       97.8794       179.0084      7681.9604      4200.3936         9.6178 
        9.6178        23.7259         7.1521    0.000189911       0.286758 
     -999.2500      8613.8252      4897.3276      8738.1074      6128.1792 
      0.258082      1991.6158         2.4345         1.7074      9439.5898 
     1176.2841      3066.1504     10216.6543         1.8289      5586.3306 
        2.6696         1.4189
    2609.38280 
       30.8512        30.3046        37.2076        23.4016       866.3558 
       98.1587       180.0000      7644.3521      4168.6641         9.6192 
        9.6192        23.6806         7.0589    0.000187053       0.288377 
     -999.2500      8614.3945      4897.4619      8738.1865      6138.5615 
      0.259540      1946.4258         2.4344         1.7102      9369.9746 
     1164.8749      3053.2991     10187.5840         1.8338      5555.5547 
        2.6381         1.3998
    2609.53520 
       30.8319        29.3879        35.8410        22.9347       865.6917 
       98.2359       181.3875      7636.1694      4135.5981         9.7943 
        9.7943        24.1047         6.9494    0.000184097       0.292477 
     -999.2500      8614.9639      4897.5967      8737.4805      6164.6343 
      0.263229      1921.8412         2.4341         1.7173      9372.9502 
     1153.0542      3049.7598     10179.5781         1.8464      5513.0576 
        2.6054         1.3799
    2609.68760 
       30.8537        28.6537        34.6540        22.6534       866.4418 
       98.1487       182.3411      7644.0825      4114.5781         9.9828 
        9.9828        24.5725         6.8779    0.000182230       0.296038 
     -999.2500      8615.5342      4897.7314      8736.9336      6187.5415 
      0.266434      1937.2188         2.4338         1.7236      9449.5205 
     1145.9489      3053.7581     10188.6230         1.8578      5484.2266 
        2.5857         1.3680
    2609.84000 
       30.6974        28.8995        35.4186        22.3805       861.0832 
       98.7738       182.7763      7589.0444      4101.1826         9.7402 
        9.7402        23.9542         6.8392    0.000181046       0.293744 
     -999.2500      8616.1035      4897.8657      8738.2480      6173.2119 
      0.264370      1949.4323         2.4340         1.7195      9445.2891 
     1139.0690      3025.2529     10124.1416         1.8505      5471.1704 
        2.5666         1.3565
    2609.99240 
       30.7792        28.1628        34.1185        22.2071       863.8862 
       98.4462       183.4087      7607.8926      4083.6023         9.9821 
        9.9821        24.5284         6.7864    0.000179497       0.297644 
     -999.2500      8616.6738      4898.0005      8737.5889      6198.3750 
      0.267880      1936.0575         2.4337         1.7264      9468.8652 
     1134.7051      3040.1467     10157.8330         1.8630      5452.3052 
        2.5545         1.3491
