~Version Information Block
VERS .                  2.0:  CWLS LOG ASCII STANDARD - VERSION 2.0
WRAP .                  YES:  Multiple lines per depth step
~Well Information Block
#MNEM.UNIT        Data Type   Information
#---------- ----------------  -----------
STRT .M          2776.00000:  START DEPTH
STOP .M          3750.44560:  STOP DEPTH
STEP .M             0.15240:  STEP
NULL .              -999.25:  NULL VALUE
COMP .                     :  COMPANY
WELL .      RAAG-102-07-105:  WELL
FLD  .                     :  FIELD
LOC  .                     :  LOCATION
CTRY .                     :  COUNTRY
STAT .                     :  STATE
CNTY .                     :  COUNTY
SRVC .                     :  SERVICE COMPANY
DATE .                     :  DATE
API  .                     :  API NUMBER
UWI  .                     :  UNIQUE WELL ID
~Curve Information Block
#MNEM.UNIT         API CODE   Curve Description
#---------- ----------------  -----------------
DEPTH.M                    :  
ANGLE_FAIL.DEG                  :  Fail Angle
BRIT_IND.                     :  Brittleness Index
BRIT_PR.                     :  Brittleness Index from Poisson's Ratio
BRIT_YM.                     :  Brittleness Index from Young's Modulus
CS   .M/MIN                 :  Compressive Strength
DTCO .US/F                 :  Compressional slowness
DTSM .US/F                 :  Fast Shear Slowness
IP   .RAYL/M2                 :  P Impedence
IS   .RAYL/M2                 :  S Impedance
KBULK.                     :  Bulk Mudulus
LAMBDA.                     :  Lambda
LAMRHO.                     :  
MU   .CP                   :  Mu
MURHO.(GF/C3S)2                 :  Mu*Rho
PR   .                     :  Poisson's ratio
PRESS_FG.PSI                  :  Fracture Gradient Pressure
PRESS_OB.PSI                  :  Over-burden Pressure
PRESS_PP.PSI                  :  Pore Pressure
PRESS_SHMAX.PSI                  :  Horizontal Stress (Max)
PRESS_SHMIN.PSI                  :  Horizontal Stress (Min)
PR_STAT.                     :  Poisson's ratio (Static)
PZS  .PSI                  :  Processed Zone Stress
SHMAX_GRAD.                     :  Horizontal Stress Gradient (Max)
SHMIN_GRAD.                     :  Horizontal Stress Gradient (Min)
STRESS_CUM.PSI                  :  Cumulative stress (SHPZ)
UCS_BF.PSI                  :  Uniaxial Compressive Strength (BF)
UCS_LAL.PSI                  :  Uniaxial Compressive Strength (lal)
VP   .FT/S                 :  Compressional velocity
VPVS .                     :  Vp / Vs ratio
VS   .FT/S                 :  Shear velocity
YM   .                     :  Youngs' Modulus
YM_STAT.                     :  Youngs' Modulus (Static)
~Parameter Information Block
#MNEM.UNIT            Value   Description
#---------- ----------------  -----------
PROJECT.          RDG_13Jul21:  
SET  .              GEOMECH:  
~Other Information Block
~Ascii Log Data
# ...
    3185.65120 
       43.1149        68.9439        39.6374        98.2504      1357.9448 
       57.3107       103.8577     13089.6123      7223.1030        27.2190 
       27.2190        66.9915        21.1983    0.000561588       0.281088 
     -999.2500     10253.3584      5200.4424     10423.5234      6850.0430 
      0.252979      2608.0610         2.4791         1.6292     12116.2080 
     3542.3005      6263.2788     17448.7480         1.8122      9628.5596 
        7.8775         5.3891
    3185.80360 
       43.3244        69.4081        38.5728       100.2435      1367.9338 
       56.7383       103.3484     13291.0479      7296.7891        28.3599 
       28.3599        70.1657        21.5200    0.000573104       0.284281 
     -999.2500     10253.9443      5200.5215     10422.7832      6877.1597 
      0.255853      2514.6931         2.4788         1.6356     11983.7061 
     3618.7100      6341.0972     17624.7793         1.8215      9676.0088 
        8.0170         5.5173
    3185.95600 
       43.4420        70.2301        38.5707       101.8895      1373.5703 
       56.4187       102.7673     13406.3428      7360.0107        28.7688 
       28.7688        71.3905        21.8292    0.000583078       0.284288 
     -999.2500     10254.5303      5200.6006     10423.3770      6877.6089 
      0.255859      2553.3943         2.4788         1.6356     12062.0068 
     3682.3301      6385.2344     17724.6191         1.8215      9730.7217 
        8.1323         5.6241
    3186.10840 
       43.4420        71.7648        40.0465       103.4831      1373.5703 
       56.4187       102.0428     13445.6396      7433.9937        28.2292 
       28.2292        70.2567        22.2052    0.000594860       0.279860 
     -999.2500     10255.1182      5200.6802     10425.8223      6841.0396 
      0.251874      2725.6287         2.4793         1.6268     12333.3359 
     3744.3604      6385.2344     17724.6191         1.8087      9799.8096 
        8.2438         5.7282
    3186.26080 
       43.4420        72.8288        40.9797       104.6779      1373.5703 
       56.4187       101.5970     13493.1455      7492.9941        27.9369 
       27.9369        69.7750        22.4796    0.000604339       0.277061 
     -999.2500     10255.7041      5200.7588     10427.5781      6818.2217 
      0.249355      2925.8738         2.4796         1.6213     12688.1904 
     3791.1531      6385.2344     17724.6191         1.8008      9842.8105 
        8.3274         5.8067
    3186.41320 
       43.4197        73.2304        41.3944       105.0664      1372.4966 
       56.4794       101.5109     13512.9287      7518.4248        27.7745 
       27.7745        69.5458        22.5751    0.000608448       0.275817 
     -999.2500     10256.2910      5200.8384     10428.6924      6808.2515 
      0.248235      2924.5742         2.4797         1.6188     12665.6514 
     3806.4248      6376.8130     17705.5703         1.7973      9851.1582 
        8.3547         5.8323
    3186.56560 
       43.3196        73.5963        42.4915       104.7011      1367.7020 
       56.7515       101.4892     13435.8975      7513.1870        27.0330 
       27.0330        67.6274        22.5642    0.000607601       0.272525 
     -999.2500     10256.8779      5200.9170     10430.6475      6781.4961 
      0.245273      2827.9238         2.4800         1.6124     12418.8398 
     3792.0642      6339.2852     17620.6797         1.7883      9853.2656 
        8.3291         5.8082
    3186.71800 
       43.2421        74.1481        43.6398       104.6564      1364.0000 
       56.9628       101.3435     13378.8574      7519.9414        26.3546 
       26.3546        65.8948        22.6169    0.000608694       0.269081 
     -999.2500     10257.4639      5200.9966     10432.6514      6753.7310 
      0.242173      2765.7112         2.4804         1.6057     12238.8838 
     3790.3103      6310.3901     17555.3184         1.7791      9867.4316 
        8.3259         5.8053
    3186.87040 
       43.2421        75.1660        44.5678       105.7642      1364.0000 
       56.9628       100.9297     13422.8691      7575.6113        26.0684 
       26.0684        65.3936        22.8778    0.000617740       0.266296 
     -999.2500     10258.0508      5201.0752     10434.3730      6731.5981 
      0.239667      2734.6682         2.4807         1.6004     12132.5322 
     3833.9124      6310.3901     17555.3184         1.7719      9907.8857 
        8.4035         5.8784
    3187.02280 
       43.2957        76.7709        45.8053       107.7366      1366.5612 
       56.8165       100.1327     13502.9463      7661.7349        25.7944 
       25.7944        64.9252        23.3220    0.000631865       0.262584 
     -999.2500     10258.6377      5201.1543     10436.4561      6702.2749 
      0.236326      2744.4832         2.4810         1.5933     12093.5166 
     3912.0625      6330.3730     17600.5215         1.7624      9986.7480 
        8.5416         6.0096
    3187.17520 
       43.5864        77.8341        45.0571       110.6110      1380.5176 
       56.0281        99.0622     13693.0977      7744.6108        26.8341 
       26.8341        67.5429        23.8290    0.000645609       0.264829 
     -999.2500     10259.2246      5201.2334     10436.1504      6720.7109 
      0.238346      2700.1982         2.4808         1.5976     12041.8184 
     4027.1433      6439.8604     17848.1875         1.7681     10094.6680 
        8.7428         6.2027
    3187.32760 
       44.0306        78.5853        42.9455       114.2251      1402.1093 
       54.8371        97.8649     13979.4463      7833.1689        28.9089 
       28.9089        72.7078        24.3964    0.000660458       0.271164 
     -999.2500     10259.8105      5201.3125     10434.1787      6772.4551 
      0.244047      2666.9946         2.4802         1.6098     12078.8994 
     4173.8452      6611.2275     18235.8301         1.7846     10218.1689 
        8.9958         6.4488
    3187.48000 
       44.3471        79.6600        42.0788       117.2411      1417.6932 
       53.9986        96.7476     14170.8447      7909.2998        30.1527 
       30.1527        75.6988        24.9180    0.000673358       0.273763 
     -999.2500     10260.3975      5201.3916     10433.7070      6794.2061 
      0.246387      2734.9893         2.4800         1.6149     12258.3906 
     4297.9805      6736.4097     18518.9980         1.7917     10336.1738 
        9.2069         6.6571
    3187.63240 
       44.4220        80.5521        42.6363       118.4679      1421.4058 
       53.8014        96.1505     14197.4287      7944.2285        30.0655 
       30.0655        75.3454        25.1834    0.000679319       0.272091 
     -999.2500     10260.9844      5201.4702     10434.9893      6780.8896 
      0.244882      2721.3625         2.4802         1.6117     12204.5039 
     4348.9160      6766.4170     18586.8770         1.7871     10400.3623 
        9.2928         6.7426
    3187.78480 
       44.3537        80.6745        43.4585       117.8906      1418.0220 
       53.9811        96.1162     14105.9365      7922.2227        29.4028 
       29.4028        73.4542        25.1226    0.000675560       0.269624 
     -999.2500     10261.5713      5201.5493     10436.5996      6761.0049 
      0.242662      2392.8955         2.4804         1.6069     11507.8008 
     4324.9131      6739.0640     18525.0039         1.7806     10404.0732 
        9.2523         6.7023
    3187.93720 
       44.3252        80.5408        43.3813       117.7003      1416.6123 
       54.0562        96.2831     14112.3779      7923.1094        29.4099 
       29.4099        73.6079        25.0819    0.000675712       0.269856 
     -999.2500     10262.1572      5201.6284     10437.1094      6763.1089 
      0.242871      2230.2771         2.4804         1.6073     11186.7715 
     4317.0151      6727.6865     18499.2656         1.7812     10386.0391 
        9.2390         6.6891
