~Version Information Block
VERS .                  2.0:  CWLS LOG ASCII STANDARD - VERSION 2.0
WRAP .                  YES:  Multiple lines per depth step
~Well Information Block
#MNEM.UNIT        Data Type   Information
#---------- ----------------  -----------
STRT .M          2784.04320:  START DEPTH
STOP .M          3715.96920:  STOP DEPTH
STEP .M             0.15240:  STEP
NULL .              -999.25:  NULL VALUE
COMP .                     :  COMPANY
WELL .      RAAG-101-02-104:  WELL
FLD  .                     :  FIELD
LOC  .                     :  LOCATION
CTRY .                     :  COUNTRY
STAT .                     :  STATE
CNTY .                     :  COUNTY
SRVC .                     :  SERVICE COMPANY
DATE .                     :  DATE
API  .                     :  API NUMBER
UWI  .                     :  UNIQUE WELL ID
~Curve Information Block
#MNEM.UNIT         API CODE   Curve Description
#---------- ----------------  -----------------
DEPTH.M                    :  
ANGLE_FAIL.DEG                  :  Fail Angle
BRIT_IND.                     :  Brittleness Index
BRIT_PR.                     :  Brittleness Index from Poisson's Ratio
BRIT_YM.                     :  Brittleness Index from Young's Modulus
CS   .M/MIN                 :  Compressive Strength
DTCO .US/F                 :  Compressional slowness
DTSM .US/F                 :  Fast Shear slowness
IP   .RAYL/M2                 :  P Impedence
IS   .RAYL/M2                 :  S Impedance
KBULK.                     :  Bulk Mudulus
LAMBDA.                     :  Lambda
LAMRHO.                     :  
MU   .CP                   :  Mu
MURHO.(GF/C3S)2                 :  Mu*Rho
PR   .                     :  Poisson's ratio
PRESS_FG.PSI                  :  Fracture Gradient Pressure
PRESS_OB.PSI                  :  Over-burden Pressure
PRESS_PP.PSI                  :  Pore Pressure
PRESS_SHMAX.PSI                  :  Horizontal Stress (Max)
PRESS_SHMIN.PSI                  :  Horizontal Stress (Min)
PR_STAT.                     :  Poisson's ratio (Static)
PZS  .PSI                  :  Processed Zone Stress
SHMAX_GRAD.                     :  Horizontal Stress Gradient (Max)
SHMIN_GRAD.                     :  Horizontal Stress Gradient (Min)
STRESS_CUM.PSI                  :  Cumulative stress (SHPZ)
UCS_BF.PSI                  :  Uniaxial Compressive Strength (BF)
UCS_LAL.PSI                  :  Uniaxial Compressive Strength (lal)
VP   .FT/S                 :  Compressional velocity
VPVS .                     :  Vp / Vs ratio
VS   .FT/S                 :  Shear velocity
YM   .                     :  Youngs' Modulus
YM_STAT.                     :  Youngs' Modulus (Static)
~Parameter Information Block
#MNEM.UNIT            Value   Description
#---------- ----------------  -----------
PROJECT.          RDG_13Jul21:  
SET  .              GEOMECH:  
~Other Information Block
~Ascii Log Data
# ...
    3357.06720 
       40.4637        63.8805        49.9468        77.8142      1237.1508 
       64.8862       112.4101     11358.5879      6556.4893        17.8006 
       17.8006        43.0424        17.7779         0.0005       0.250159 
     -999.2500     11596.2246      5329.7056     11822.0234      7080.2363 
      0.225144      1853.2054         2.5176         1.5078     11066.8838 
     2798.0437      5362.7051     15411.5977         1.7324      8895.9971 
        6.4470         4.1402
    3357.21960 
       40.3284        64.5363        51.7110        77.3617      1231.2461 
       65.2898       112.3243     11263.4502      6547.0112        17.0509 
       17.0509        41.1386        17.7658         0.0005       0.244867 
     -999.2500     11596.8252      5329.7407     11825.1602      7030.1128 
      0.220380      1848.5618         2.5182         1.4971     10957.3486 
     2782.3721      5320.5884     15316.3271         1.7204      8902.7930 
        6.4153         4.1139
    3357.37200 
       40.1102        66.4453        55.5387        77.3519      1221.7731 
       65.9443       111.8209     11153.6396      6577.6514        15.6945 
       15.6945        37.8727        17.9293         0.0005       0.233384 
     -999.2500     11597.4248      5329.7754     11831.1328      6923.2705 
      0.210045      1864.5245         2.5194         1.4743     10775.5898 
     2782.0352      5253.3867     15164.3125         1.6957      8942.8721 
        6.4146         4.1134
    3357.52440 
       40.1059        67.3354        56.5980        78.0728      1221.5847 
       65.9574       111.4127     11186.0547      6622.2529        15.4586 
       15.4586        37.4194        18.1170         0.0005       0.230206 
     -999.2500     11598.0244      5329.8105     11833.2070      6894.3789 
      0.207186      1771.9126         2.5197         1.4680     10532.5830 
     2807.0139      5252.0557     15161.3008         1.6892      8975.6377 
        6.4651         4.1553
    3357.67680 
       40.3754        65.9808        53.0447        78.9169      1233.2932 
       65.1495       111.5085     11349.5928      6631.0664        16.8477 
       16.8477        40.8712        18.1255         0.0005       0.240866 
     -999.2500     11598.6240      5329.8452     11828.8955      6993.1880 
      0.216779      1531.4790         2.5186         1.4890     10249.3340 
     2836.3779      5335.1704     15349.3115         1.7116      8967.9258 
        6.5242         4.2046
    3357.82920 
       40.5567        64.8482        50.4840        79.2124      1241.2255 
       64.6096       111.6915     11447.5605      6622.0107        17.8624 
       17.8624        43.3446        18.0711         0.0005       0.248548 
     -999.2500     11599.2246      5329.8804     11825.8887      7065.9526 
      0.223693      1482.3447         2.5179         1.5044     10296.5947 
     2846.6865      5391.8730     15477.5771         1.7287      8953.2324 
        6.5449         4.2219
    3357.98160 
       40.5321        65.0148        51.0549        78.9746      1240.1449 
       64.6828       111.5661     11395.5645      6606.8188        17.5987 
       17.5987        42.5588        18.0499         0.0005       0.246835 
     -999.2500     11599.8242      5329.9155     11827.3232      7049.8442 
      0.222152      1644.9587         2.5181         1.5009     10589.6064 
     2838.3914      5384.1294     15460.0605         1.7248      8963.2959 
        6.5282         4.2079
    3358.13400 
       40.3734        66.0343        53.5594        78.5092      1233.2085 
       65.1553       111.3007     11270.8896      6597.9653        16.5884 
       16.5884        39.9667        18.0687         0.0005       0.239322 
     -999.2500     11600.4248      5329.9502     11831.4805      6979.3013 
      0.215390      1743.5586         2.5188         1.4858     10645.7197 
     2822.1799      5334.5664     15347.9473         1.7082      8984.6699 
        6.4956         4.1807
    3358.28640 
       40.2971        66.3093        54.6208        77.9977      1229.8851 
       65.3833       111.2463     11187.5068      6575.2852        16.1225 
       16.1225        38.6916        18.0154         0.0005       0.236137 
     -999.2500     11601.0254      5329.9854     11833.5840      6949.8511 
      0.212524      1792.1926         2.5192         1.4795     10684.0869 
     2804.4080      5310.9063     15294.4248         1.7014      8989.0635 
        6.4598         4.1509
    3358.43880 
       40.4205        65.6329        53.1190        78.1468      1235.2611 
       65.0150       111.2468     11228.2324      6562.0181        16.6817 
       16.6817        39.9530        17.9790         0.0005       0.240643 
     -999.2500     11601.6250      5330.0205     11832.1064      6991.9990 
      0.216579      1956.3953         2.5187         1.4884     11096.7891 
     2809.5825      5349.2080     15381.0664         1.7111      8989.0225 
        6.4703         4.1596
    3358.59120 
       40.5033        65.3790        52.3611        78.3968      1238.8846 
       64.7683       111.1469     11260.5674      6561.8374        17.0030 
       17.0030        40.6850        17.9946         0.0005       0.242917 
     -999.2500     11602.2246      5330.0552     11831.6592      7013.5444 
      0.218625      1899.1672         2.5185         1.4929     11025.4238 
     2818.2722      5375.1069     15439.6514         1.7161      8997.1025 
        6.4878         4.1742
    3358.74360 
       40.5200        65.0140        51.6902        78.3378      1239.6155 
       64.7187       111.3508     11285.1016      6559.0645        17.2403 
       17.2403        41.3109        17.9541         0.0005       0.244929 
     -999.2500     11602.8252      5330.0894     11831.3311      7032.7173 
      0.220436      1763.4547         2.5183         1.4969     10792.3438 
     2816.2192      5380.3384     15451.4854         1.7205      8980.6270 
        6.4836         4.1707
    3358.89600 
       40.5264        64.3869        50.6791        78.0948      1239.8956 
       64.6997       111.7608     11314.2979      6549.9858        17.5747 
       17.5747        42.2087        17.8635         0.0005       0.247963 
     -999.2500     11603.4258      5330.1245     11830.5127      7061.6719 
      0.223166      1713.2386         2.5181         1.5030     10749.8213 
     2807.7778      5382.3442     15456.0225         1.7274      8947.6807 
        6.4666         4.1566
    3359.04840 
       40.5211        64.4562        50.7360        78.1763      1239.6655 
       64.7153       111.7626     11323.4668      6556.7690        17.5686 
       17.5686        42.2385        17.8817         0.0005       0.247792 
     -999.2500     11604.0254      5330.1592     11831.2139      7060.2495 
      0.223013      1691.6615         2.5181         1.5027     10703.8223 
     2810.6091      5380.6968     15452.2959         1.7270      8947.5371 
        6.4723         4.1613
    3359.20080 
       40.5456        65.0028        51.5160        78.4896      1240.7351 
       64.6428       111.2958     11300.9453      6563.8125        17.3336 
       17.3336        41.5441        17.9760         0.0005       0.245452 
     -999.2500     11604.6260      5330.1938     11832.9443      7038.2563 
      0.220907      1671.6014         2.5183         1.4979     10619.7158 
     2821.4971      5388.3584     15469.6279         1.7217      8985.0654 
        6.4943         4.1796
    3359.35320 
       40.5812        65.4725        52.1510        78.7941      1242.2972 
       64.5371       110.8400     11281.0332      6568.4336        17.1536 
       17.1536        40.9731        18.0626         0.0005       0.243547 
     -999.2500     11605.2256      5330.2285     11834.4629      7020.4746 
      0.219192      1637.7087         2.5185         1.4941     10516.3672 
     2832.0974      5399.5586     15494.9629         1.7175      9022.0137 
        6.5156         4.1974
