~Version Information Block
VERS .                  2.0:  CWLS LOG ASCII STANDARD - VERSION 2.0
WRAP .                  YES:  Multiple lines per depth step
~Well Information Block
#MNEM.UNIT        Data Type   Information
#---------- ----------------  -----------
STRT .M          2784.04320:  START DEPTH
STOP .M          3715.96920:  STOP DEPTH
STEP .M             0.15240:  STEP
NULL .              -999.25:  NULL VALUE
COMP .                     :  COMPANY
WELL .      RAAG-101-02-104:  WELL
FLD  .                     :  FIELD
LOC  .                     :  LOCATION
CTRY .                     :  COUNTRY
STAT .                     :  STATE
CNTY .                     :  COUNTY
SRVC .                     :  SERVICE COMPANY
DATE .                     :  DATE
API  .                     :  API NUMBER
UWI  .                     :  UNIQUE WELL ID
~Curve Information Block
#MNEM.UNIT         API CODE   Curve Description
#---------- ----------------  -----------------
DEPTH.M                    :  
ANGLE_FAIL.DEG                  :  Fail Angle
BRIT_IND.                     :  Brittleness Index
BRIT_PR.                     :  Brittleness Index from Poisson's Ratio
BRIT_YM.                     :  Brittleness Index from Young's Modulus
CS   .M/MIN                 :  Compressive Strength
DTCO .US/F                 :  Compressional slowness
DTSM .US/F                 :  Fast Shear slowness
IP   .RAYL/M2                 :  P Impedence
IS   .RAYL/M2                 :  S Impedance
KBULK.                     :  Bulk Mudulus
LAMBDA.                     :  Lambda
LAMRHO.                     :  
MU   .CP                   :  Mu
MURHO.(GF/C3S)2                 :  Mu*Rho
PR   .                     :  Poisson's ratio
PRESS_FG.PSI                  :  Fracture Gradient Pressure
PRESS_OB.PSI                  :  Over-burden Pressure
PRESS_PP.PSI                  :  Pore Pressure
PRESS_SHMAX.PSI                  :  Horizontal Stress (Max)
PRESS_SHMIN.PSI                  :  Horizontal Stress (Min)
PR_STAT.                     :  Poisson's ratio (Static)
PZS  .PSI                  :  Processed Zone Stress
SHMAX_GRAD.                     :  Horizontal Stress Gradient (Max)
SHMIN_GRAD.                     :  Horizontal Stress Gradient (Min)
STRESS_CUM.PSI                  :  Cumulative stress (SHPZ)
UCS_BF.PSI                  :  Uniaxial Compressive Strength (BF)
UCS_LAL.PSI                  :  Uniaxial Compressive Strength (lal)
VP   .FT/S                 :  Compressional velocity
VPVS .                     :  Vp / Vs ratio
VS   .FT/S                 :  Shear velocity
YM   .                     :  Youngs' Modulus
YM_STAT.                     :  Youngs' Modulus (Static)
~Parameter Information Block
#MNEM.UNIT            Value   Description
#---------- ----------------  -----------
PROJECT.          RDG_13Jul21:  
SET  .              GEOMECH:  
~Other Information Block
~Ascii Log Data
# ...
    3183.94080 
       43.0706        50.4375        20.9582        79.9168      1355.8417 
       57.4322       115.8629     13037.5459      6462.5942        35.1897 
       35.1897        86.4473        17.0011         0.0004       0.337125 
     -999.2500     10918.4404      5277.3325     11080.3135      7680.9790 
      0.303413      2026.7023         2.4904         1.7264     12615.3623 
     2871.3188      6246.9600     17411.8359         2.0174      8630.8896 
        6.5942         4.2632
    3184.09320 
       44.1144        52.3598        16.5249        88.1947      1406.2205 
       54.6142       113.8128     14250.1406      6838.0718        42.9037 
       42.9037       109.5481        18.3129         0.0005       0.350425 
     -999.2500     10919.0342      5277.3892     11073.6680      7826.3545 
      0.315383      2849.2251         2.4888         1.7590     14551.1592 
     3167.1563      6644.1299     18310.2559         2.0839      8786.3584 
        7.1736         4.7596
    3184.24560 
       44.8610        57.9217        15.7363       100.1071      1443.3582 
       52.6550       110.4065     15498.5059      7391.5376        48.9033 
       48.9033       130.9340        20.4059         0.0006       0.352791 
     -999.2500     10919.6270      5277.4468     11072.9102      7853.9673 
      0.317512      3029.6418         2.4885         1.7651     14967.2178 
     3613.4600      6945.3125     18991.5488         2.0968      9057.4375 
        8.0075         5.5085
    3184.39800 
       45.2571        64.0394        18.0861       109.9926      1463.4526 
       51.6344       106.3382     16011.9863      7774.9038        49.9486 
       49.9486       135.4855        22.2854         0.0007       0.345742 
     -999.2500     10920.2207      5277.5039     11077.3535      7777.5713 
      0.311167      2873.1692         2.4894         1.7478     14501.4805 
     4002.2620      7111.2607     19366.9336         2.0594      9403.9580 
        8.6995         6.1609
    3184.55040 
       45.6293        70.5768        20.6305       120.5230      1482.5936 
       50.6870       102.4892     16529.4531      8174.7974        50.7746 
       50.7746       139.5682        24.3116         0.0007       0.338109 
     -999.2500     10920.8135      5277.5610     11082.0342      7696.4155 
      0.304298      2846.0249         2.4903         1.7295     14284.8818 
     4434.8271      7271.2876     19728.9238         2.0220      9757.1260 
        9.4366         6.8868
    3184.70280 
       45.9524        77.6910        23.1044       132.2776      1499.4169 
       49.8737        99.1610     17192.2109      8646.9395        51.9114 
       51.9114       146.0330        26.5789         0.0008       0.330687 
     -999.2500     10921.4072      5277.6177     11086.5156      7619.2285 
      0.297618      2696.8433         2.4912         1.7121     13832.1436 
     4940.0850      7413.5137     20050.6484         1.9882     10084.6094 
       10.2594         7.7346
    3184.85520 
       45.9383        85.3686        28.6051       142.1321      1498.6769 
       49.9091        95.8832     17358.3047      9035.3398        48.5646 
       48.5646       138.0360        28.7221         0.0009       0.314185 
     -999.2500     10922.0010      5277.6748     11095.5605      7450.8027 
      0.282766      2066.3696         2.4931         1.6742     12234.3447 
     5381.8926      7407.2266     20036.4258         1.9212     10429.3555 
       10.9492         8.4760
    3185.00760 
       45.3408        91.8121        40.6974       142.9268      1467.7323 
       51.4205        92.7184     16283.7852      9030.7900        37.1486 
       37.1486       102.0513        29.6876         0.0009       0.277908 
     -999.2500     10922.5938      5277.7319     11113.6455      7101.5630 
      0.250117      1246.7429         2.4971         1.5956      9896.6113 
     5418.2466      7146.8750     19447.4961         1.8031     10785.3467 
       11.0049         8.5370
    3185.16000 
       44.1994        97.2588        61.2477       133.2700      1410.4027 
       54.3887        90.3926     14429.7891      8682.3193        22.3132 
       22.3132        57.4535        29.2764         0.0008       0.216257 
     -999.2500     10923.1865      5277.7891     11140.7588      6571.7451 
      0.194631       792.3817         2.5030         1.4765      7928.2534 
     4983.8262      6677.6904     18386.1719         1.6620     11062.8525 
       10.3289         7.8080
    3185.31240 
       43.3212       100.5664        76.5316       124.6013      1367.7810 
       56.7470        90.0297     13419.1914      8458.3076        14.8052 
       14.8052        36.9888        28.6360         0.0008       0.170405 
     -999.2500     10923.7803      5277.8457     11158.8379      6222.6265 
      0.153365       449.8292         2.5070         1.3980      6544.9111 
     4607.4507      6339.9028     17622.0762         1.5865     11107.4453 
        9.7221         7.1764
    3185.46480 
       43.1100        92.7189        68.5837       116.8541      1357.7125 
       57.3241        93.0580     13133.5488      8090.3188        16.8352 
       16.8352        41.5836        26.4988         0.0007       0.194249 
     -999.2500     10924.3730      5277.9028     11150.6406      6399.0205 
      0.174824       357.4994         2.5050         1.4376      6713.0396 
     4281.9634      6261.4756     17444.6699         1.6234     10745.9863 
        9.1798         6.6303
    3185.61720 
       43.0876        75.6682        46.0683       105.2681      1356.6528 
       57.3853       101.0215     13340.5498      7578.1040        25.1289 
       25.1289        63.1149        22.8645         0.0006       0.261795 
     -999.2500     10924.9658      5277.9604     11123.5527      6953.2329 
      0.235616       345.0627         2.4988         1.5620      7796.5908 
     3814.3601      6253.2510     17426.0664         1.7604      9898.8828 
        8.3688         5.8456
    3185.76960 
       42.6626        57.5090        24.8209        90.1971      1336.6190 
       58.5589       115.1385     14127.7559      7185.3105        35.4926 
       35.4926        96.3361        19.0213         0.0006       0.325537 
     -999.2500     10925.5586      5278.0171     11093.6660      7563.4150 
      0.292984       352.4662         2.4920         1.6990      9031.7627 
     3240.4780      6098.8599     17076.8242         1.9662      8685.1924 
        7.3138         4.8826
    3185.92200 
       41.4988        42.0128        13.2141        70.8115      1283.1294 
       61.8538       132.3813     14032.0498      6556.3311        38.9553 
       38.9553       110.9275        15.0956         0.0005       0.360358 
     -999.2500     10926.1533      5278.0742     11075.4727      7939.7666 
      0.324322       420.8199         2.4878         1.7834      9921.1729 
     2559.4541      5696.7183     16167.1553         2.1402      7553.9370 
        5.9568         3.7399
    3186.07440 
       39.6294        34.4474        12.2398        56.6549      1201.1112 
       67.4022       145.4564     12932.2432      5992.5972        33.3663 
       33.3663        95.4205        12.5573         0.0004       0.363280 
     -999.2500     10926.7461      5278.1313     11074.4717      7972.2456 
      0.326952       675.3189         2.4874         1.7906     10495.1289 
     2102.7573      5108.3853     14836.3125         2.1580      6874.9121 
        4.9658         2.9735
    3186.22680 
       38.1150        32.7723        16.6305        48.9140      1137.8525 
       72.1382       150.2094     11591.7188      5566.9336        26.3851 
       26.3851        72.3865        11.2962         0.0003       0.350108 
     -999.2500     10927.3389      5278.1880     11082.5107      7823.9150 
      0.315098      1070.8798         2.4891         1.7572     10989.5889 
     1867.5343      4677.7910     13862.2803         2.0822      6657.3730 
        4.4240         2.5788
