~Version Information Block
VERS .                  2.0:  CWLS LOG ASCII STANDARD - VERSION 2.0
WRAP .                  YES:  Multiple lines per depth step
~Well Information Block
#MNEM.UNIT        Data Type   Information
#---------- ----------------  -----------
STRT .M          2686.96440:  START DEPTH
STOP .M          3645.86520:  STOP DEPTH
STEP .M             0.15240:  STEP
NULL .              -999.25:  NULL VALUE
COMP .                     :  COMPANY
WELL .      RAAG-105-07-212:  WELL
FLD  .                     :  FIELD
LOC  .                     :  LOCATION
CTRY .                     :  COUNTRY
STAT .                     :  STATE
CNTY .                     :  COUNTY
SRVC .                     :  SERVICE COMPANY
DATE .                     :  DATE
API  .                     :  API NUMBER
UWI  .                     :  UNIQUE WELL ID
~Curve Information Block
#MNEM.UNIT         API CODE   Curve Description
#---------- ----------------  -----------------
DEPTH.M                    :  
ANGLE_FAIL.DEG                  :  Fail Angle
BRIT_IND.                     :  Brittleness Index
BRIT_PR.                     :  Brittleness Index from Poisson's Ratio
BRIT_YM.                     :  Brittleness Index from Young's Modulus
CS   .M/MIN                 :  Compressive Strength
DTCO .US/F                 :  Compressional slowness
DTSM .US/F                 :  Shear slowness
IP   .RAYL/M2                 :  P Impedence
IS   .RAYL/M2                 :  S Impedance
KBULK.                     :  Bulk Mudulus
LAMBDA.                     :  Lambda
LAMRHO.                     :  
MU   .CP                   :  Mu
MURHO.(GF/C3S)2                 :  Mu*Rho
PR   .                     :  Poisson's ratio
PRESS_FG.PSI                  :  Fracture Gradient Pressure
PRESS_OB.PSI                  :  Over-burden Pressure
PRESS_PP.PSI                  :  Pore Pressure
PRESS_SHMAX.PSI                  :  Horizontal Stress (Max)
PRESS_SHMIN.PSI                  :  Horizontal Stress (Min)
PR_STAT.                     :  Poisson's ratio (Static)
PZS  .PSI                  :  Processed Zone Stress
SHMAX_GRAD.                     :  Horizontal Stress Gradient (Max)
SHMIN_GRAD.                     :  Horizontal Stress Gradient (Min)
STRESS_CUM.PSI                  :  Cumulative stress (SHPZ)
UCS_BF.PSI                  :  Uniaxial Compressive Strength (BF)
UCS_LAL.PSI                  :  Uniaxial Compressive Strength (lal)
VP   .FT/S                 :  Compressional velocity
VPVS .                     :  Vp / Vs ratio
VS   .FT/S                 :  Shear velocity
YM   .                     :  Youngs' Modulus
YM_STAT.                     :  Youngs' Modulus (Static)
~Parameter Information Block
#MNEM.UNIT            Value   Description
#---------- ----------------  -----------
ALPHA.                 0.98:  Biot's Constant
CALIB_SHMINPZS.                 6800:  Calibration Factor for processing zones
EXT_FACT.                1e-06:  Extension Factor
PR_FAC.                  0.9:  Poisson's ratio factor
PR_MAX.                  0.4:  Maximum Poisson's ratio
PR_MIN.                  0.1:  Minimum Poisson's ratio
TECT_FACT.                 1.05:  Techtonic Factor
YM_MAX.                    8:  Maximum Youngs' Modulus
YM_MIN.                    1:  Minimum Youngs' Modulus
PROJECT.          RDG_13Jul21:  
SET  .              GEOMECH:  
~Other Information Block
~Ascii Log Data
# ...
    3130.75320 
       41.8218        67.5297        43.0412        92.0181      1297.7806 
       60.9272       108.6868     12839.8584      7197.7153        23.8635 
       23.8635        61.2478        20.1852    0.000557647       0.270876 
     -999.2500     10240.7705      5198.7383     10414.7920      6760.3477 
      0.243789      2061.9194         2.4798         1.6097     10844.5342 
     3307.7566      5805.4136     16413.0313         1.7839      9200.7490 
        7.4413         4.9955
    3130.90560 
       41.4530        69.1092        46.8057        91.4128      1281.0676 
       61.9857       108.7795     12682.8516      7227.0547        21.8645 
       21.8645        56.3941        20.2502    0.000562202       0.259583 
     -999.2500     10241.3574      5198.8174     10419.9160      6670.1934 
      0.233625      2117.0117         2.4809         1.5881     10774.4102 
     3285.3298      5681.5103     16132.7529         1.7549      9192.9082 
        7.3989         4.9579
    3131.05800 
       41.3844        68.9494        46.7107        91.1881      1277.9789 
       62.1840       109.1712     12703.6758      7236.0234        21.8630 
       21.8630        56.6633        20.2026    0.000563599       0.259868 
     -999.2500     10241.9443      5198.8970     10420.4082      6672.6577 
      0.233881      2539.6753         2.4809         1.5886     11624.6660 
     3277.0210      5658.7671     16081.3076         1.7556      9159.9248 
        7.3832         4.9440
    3131.21040 
       41.4792        67.8005        44.7467        90.8544      1282.2455 
       61.9103       109.6103     12762.2998      7208.4272        22.7422 
       22.7422        58.9535        20.0449    0.000559308       0.265760 
     -999.2500     10242.5303      5198.9766     10418.6699      6719.7397 
      0.239184      2377.1877         2.4803         1.5997     11393.8555 
     3264.6963      5690.1958     16152.4014         1.7705      9123.2295 
        7.3598         4.9233
    3131.36280 
       41.5042        67.9107        44.5286        91.2928      1283.3737 
       61.8382       109.5870     12818.3867      7233.2114        22.9455 
       22.9455        59.6723        20.1181    0.000563161       0.266414 
     -999.2500     10243.1162      5199.0562     10419.0088      6725.2593 
      0.239773      2257.5046         2.4803         1.6010     11165.5273 
     3280.8928      5698.5215     16171.2344         1.7722      9125.1699 
        7.3905         4.9505
    3131.51520 
       41.5028        68.5470        45.2591        91.8348      1283.3110 
       61.8422       109.2464     12825.5908      7260.3105        22.7003 
       22.7003        59.0716        20.2564    0.000567388       0.264223 
     -999.2500     10243.7031      5199.1357     10420.4883      6708.0005 
      0.237800      2174.2075         2.4805         1.5968     10964.4160 
     3300.9590      5698.0586     16170.1885         1.7665      9153.6191 
        7.4284         4.9841
    3131.66760 
       41.4584        69.1954        46.4788        91.9120      1281.3096 
       61.9702       108.9026     12764.8662      7263.7505        22.1239 
       22.1239        57.4177        20.3300    0.000567926       0.260564 
     -999.2500     10244.2900      5199.2153     10422.5469      6679.1533 
      0.234507      2146.3799         2.4809         1.5898     10851.0664 
     3303.8208      5683.2939     16136.7891         1.7573      9182.5166 
        7.4338         4.9889
    3131.82000 
       41.5821        68.9161        45.9279        91.9044      1286.8961 
       61.6138       108.5304     12733.4824      7228.9258        22.3880 
       22.3880        57.6268        20.3019    0.000562494       0.262216 
     -999.2500     10244.8760      5199.2949     10422.4951      6692.4946 
      0.235995      2219.3315         2.4807         1.5929     11023.6523 
     3303.5366      5724.5581     16230.1309         1.7615      9214.0078 
        7.4333         4.9885
    3131.97240 
       41.5966        68.9858        46.2591        91.7124      1287.5509 
       61.5722       108.3041     12676.0479      7206.4878        22.1877 
       22.1877        56.8153        20.2812    0.000559007       0.261223 
     -999.2500     10245.4629      5199.3745     10423.4951      6684.8262 
      0.235100      2715.3813         2.4808         1.5910     12000.4150 
     3296.4238      5729.4053     16241.0967         1.7590      9233.2607 
        7.4199         4.9765
    3132.12480 
       41.3134        69.9872        49.0505        90.9238      1274.7902 
       62.3896       108.4763     12539.6768      7212.1318        20.7320 
       20.7320        53.2138        20.2649    0.000559883       0.252848 
     -999.2500     10246.0488      5199.4541     10427.3896      6619.2319 
      0.227564      2620.3936         2.4816         1.5753     11679.2510 
     3267.2600      5635.3394     16028.3125         1.7387      9218.6035 
        7.3647         4.9276
    3132.27720 
       41.0570        70.3222        50.6909        89.9535      1263.3290 
       63.1361       109.0548     12457.3574      7212.0527        19.8257 
       19.8257        51.1583        20.1571    0.000559871       0.247927 
     -999.2500     10246.6357      5199.5332     10429.9014      6581.3271 
      0.223135      2272.4370         2.4821         1.5662     10907.5283 
     3231.5229      5551.5601     15838.7988         1.7273      9169.7012 
        7.2967         4.8676
    3132.42960 
       40.9444        69.5767        50.4060        88.7473      1258.3241 
       63.4658       109.7482     12397.0127      7169.0137        19.7172 
       19.7172        50.8964        19.9103    0.000553209       0.248782 
     -999.2500     10247.2227      5199.6123     10430.1826      6588.0342 
      0.223904      2008.4178         2.4820         1.5677     10392.9043 
     3187.3228      5515.1855     15756.5176         1.7292      9111.7666 
        7.2123         4.7935
    3132.58200 
       40.7035        69.2710        51.7735        86.7685      1247.6761 
       64.1749       110.3794     12203.3711      7095.0747        18.7757 
       18.7757        48.2421        19.5922    0.000541856       0.244680 
     -999.2500     10247.8086      5199.6919     10432.3672      6556.6426 
      0.220212      2065.0493         2.4824         1.5602     10443.3838 
     3115.3491      5438.2202     15582.4160         1.7200      9059.6611 
        7.0738         4.6727
    3132.73440 
       40.6358        67.9930        51.0634        84.9225      1244.6967 
       64.3752       111.0318     12064.1250      6994.6665        18.7176 
       18.7176        47.6924        19.2015    0.000526628       0.246810 
     -999.2500     10248.3955      5199.7715     10432.1641      6573.0200 
      0.222129      2036.5760         2.4823         1.5640     10419.1914 
     3048.8120      5416.7866     15533.9326         1.7248      9006.4287 
        6.9446         4.5610
    3132.88680 
       40.8468        65.5005        47.5934        83.4077      1254.0016 
       63.7524       111.5116     11999.6797      6860.3481        19.8670 
       19.8670        49.8636        18.7517    0.000506597       0.257220 
     -999.2500     10248.9814      5199.8506     10428.7324      6653.9595 
      0.231498      1996.6324         2.4813         1.5832     10501.1836 
     2994.6465      5483.8721     15685.6846         1.7491      8967.6768 
        6.8385         4.4701
    3133.03920 
       41.0590        63.5805        45.0823        82.0788      1263.4188 
       63.1302       111.6071     11902.2744      6732.4834        20.6926 
       20.6926        51.0115        18.3865    0.000487889       0.264753 
     -999.2500     10249.5684      5199.9302     10426.3555      6713.8291 
      0.238278      1929.6173         2.4806         1.5973     10486.8926 
     2947.4529      5552.2148     15840.2793         1.7679      8960.0029 
        6.7455         4.3909
