~Version Information Block
VERS .                  2.0:  CWLS LOG ASCII STANDARD - VERSION 2.0
WRAP .                  YES:  Multiple lines per depth step
~Well Information Block
#MNEM.UNIT        Data Type   Information
#---------- ----------------  -----------
STRT .M          2656.78920:  START DEPTH
STOP .M          3640.98840:  STOP DEPTH
STEP .M             0.15240:  STEP
NULL .              -999.25:  NULL VALUE
COMP .                     :  COMPANY
WELL .       RAAG-98-07-214:  WELL
FLD  .                     :  FIELD
LOC  .                     :  LOCATION
CTRY .                     :  COUNTRY
STAT .                     :  STATE
CNTY .                     :  COUNTY
SRVC .                     :  SERVICE COMPANY
DATE .                     :  DATE
API  .                     :  API NUMBER
UWI  .                     :  UNIQUE WELL ID
~Curve Information Block
#MNEM.UNIT         API CODE   Curve Description
#---------- ----------------  -----------------
DEPTH.M                    :  
ANGLE_FAIL.DEG                  :  Fail Angle
BRIT_IND.                     :  Brittleness Index
BRIT_PR.                     :  Brittleness Index from Poisson's Ratio
BRIT_YM.                     :  Brittleness Index from Young's Modulus
CS   .M/MIN                 :  Compressive Strength
IP   .RAYL/M2                 :  P Impedence
IS   .RAYL/M2                 :  S Impedance
KBULK.                     :  Bulk Mudulus
LAMBDA.                     :  Lambda
LAMRHO.                     :  
MU   .CP                   :  Mu
MURHO.(GF/C3S)2                 :  Mu*Rho
PR   .                     :  Poisson's ratio
PRESS_FG.PSI                  :  Fracture Gradient Pressure
PRESS_OB.PSI                  :  Over-burden Pressure
PRESS_PP.PSI                  :  Pore Pressure
PRESS_SHMAX.PSI                  :  Horizontal Stress (Max)
PRESS_SHMIN.PSI                  :  Horizontal Stress (Min)
PR_STAT.                     :  Poisson's ratio (Static)
PZS  .PSI                  :  Processed Zone Stress
SHMAX_GRAD.                     :  Horizontal Stress Gradient (Max)
SHMIN_GRAD.                     :  Horizontal Stress Gradient (Min)
STRESS_CUM.PSI                  :  Cumulative stress (SHPZ)
UCS_BF.PSI                  :  Uniaxial Compressive Strength (BF)
UCS_LAL.PSI                  :  Uniaxial Compressive Strength (lal)
VP   .FT/S                 :  Compressional velocity
VPVS .                     :  Vp / Vs ratio
VS   .FT/S                 :  Shear velocity
YM   .                     :  Youngs' Modulus
YM_STAT.                     :  Youngs' Modulus (Static)
~Parameter Information Block
#MNEM.UNIT            Value   Description
#---------- ----------------  -----------
PROJECT.          RDG_13Jul21:  
SET  .              GEOMECH:  
~Other Information Block
~Ascii Log Data
# ...
    2851.09920 
       36.9263        40.0130        30.2644        49.7616      1090.0146 
    10659.4795      5602.0039        19.1322        19.1322        50.8596 
       11.8054    0.000337798       0.309207      -999.2500      9423.8887 
     5067.8188      9560.6416      6688.8364       0.278286      2292.8860 
        2.4543         1.7171     11163.4443      1892.7882      4365.4268 
    13155.6943         1.9028      6913.8701         4.4833         2.6212
    2851.25160 
       36.5705        39.9001        31.8074        47.9928      1075.9880 
    10383.2246      5504.2080        17.9548        17.9548        47.2187 
       11.5201    0.000326107       0.304578      -999.2500      9424.4580 
     5067.9243      9563.0049      6653.5269       0.274120      2237.8647 
        2.4548         1.7079     10982.7832      1840.2234      4275.9873 
    12953.3779         1.8864      6866.6611         4.3595         2.5330
    2851.40400 
       36.6075        39.7155        31.9781        47.4529      1077.4398 
    10261.4023      5444.7471        17.7297        17.7297        46.0058 
       11.4247    0.000319099       0.304066      -999.2500      9425.0273 
     5068.0293      9563.7852      6649.8696       0.273659      2209.7766 
        2.4548         1.7069     10919.2930      1824.2864      4285.1997 
    12974.2168         1.8846      6884.1792         4.3217         2.5063
    2851.55640 
       37.0936        39.5808        30.4725        48.6890      1096.6558 
    10385.0049      5464.2090        18.7216        18.7216        48.1332 
       11.6132    0.000321384       0.308583      -999.2500      9425.5977 
     5068.1348      9562.6377      6684.8027       0.277724      2356.8828 
        2.4544         1.7158     11283.3711      1860.8507      4408.1118 
    13252.2510         1.9006      6972.8486         4.4082         2.5676
    2851.70880 
       37.5995        40.4108        29.5782        51.2433      1116.9197 
    10655.6133      5577.9980        19.8888        19.8888        51.3140 
       12.0595    0.000334909       0.311265      -999.2500      9426.1670 
     5068.2407      9562.1758      6705.9834       0.280139      2462.2842 
        2.4542         1.7211     11536.5352      1937.2354      4539.7085 
    13549.9297         1.9103      7093.1143         4.5870         2.6958
    2851.86120 
       37.7980        42.1514        30.8128        53.4900      1124.9449 
    10802.7373      5694.9390        19.9912        19.9912        51.8345 
       12.5083    0.000349099       0.307562      -999.2500      9426.7373 
     5068.3457      9564.1816      6677.8540       0.276805      2513.5552 
        2.4545         1.7138     11582.8193      2005.3448      4592.3887 
    13669.0957         1.8969      7206.0132         4.7443         2.8101
    2852.01360 
       38.2471        43.0498        30.0814        56.0182      1143.2654 
    11057.8320      5805.2964        21.0904        21.0904        54.8727 
       12.9532    0.000362760       0.309756      -999.2500      9427.3066 
     5068.4512      9563.9111      6695.2134       0.278780      2524.0435 
        2.4543         1.7182     11638.5137      2083.0225      4713.8521 
    13943.8535         1.9048      7320.4404         4.9213         2.9404
    2852.16600 
       39.1222        42.8714        26.5093        59.2335      1179.6240 
    11506.4121      5914.2842        23.9837        23.9837        62.4400 
       13.4356    0.000376508       0.320472      -999.2500      9427.8760 
     5068.5566      9560.2881      6779.6201       0.288425      2535.6875 
        2.4533         1.7397     11830.6152      2183.3870      4959.8740 
    14500.3691         1.9455      7453.1753         5.1463         3.1088
    2852.31840 
       40.0644        42.9561        22.8196        63.0925      1219.7928 
    12064.2900      6056.3550        27.5991        27.5991        72.1882 
       14.0233    0.000394814       0.331541      -999.2500      9428.4453 
     5068.6616      9556.4033      6869.2866       0.298387      2619.7886 
        2.4521         1.7626     12178.1504      2306.1848      5239.3965 
    15132.6670         1.9920      7596.7007         5.4165         3.3149
    2852.47080 
       40.8453        43.5862        20.1231        67.0494      1253.9368 
    12619.9258      6219.0483        31.0289        31.0289        81.9094 
       14.6514    0.000416311       0.339631      -999.2500      9429.0146 
     5068.7671      9553.6348      6936.6284       0.305668      2790.2898 
        2.4513         1.7798     12653.8359      2434.7422      5483.4033 
    15684.6240         2.0292      7729.3193         5.6935         3.5306
    2852.62320 
       41.4188        44.9615        18.6515        71.2716      1279.5262 
    13160.5723      6417.0703        33.8882        33.8882        90.8431 
       15.3614    0.000443245       0.344046      -999.2500      9429.5850 
     5068.8721      9552.3496      6974.2944       0.309641      2864.2925 
        2.4508         1.7894     12877.1738      2574.8733      5670.1548 
    16107.0674         2.0509      7853.7749         5.9890         3.7658
    2852.77560 
       41.8284        46.6776        18.2032        75.1520      1298.0829 
    13572.7158      6596.2017        35.8371        35.8371        97.1989 
       16.0420    0.000468336       0.345390      -999.2500      9430.1543 
     5068.9775      9552.3477      6986.2876       0.310851      2890.6350 
        2.4507         1.7924     12953.8457      2706.3525      5807.6675 
    16418.1289         2.0577      7979.0435         6.2606         3.9864
    2852.92800 
       41.9269        48.4642        19.1174        77.8111      1302.5769 
    13754.7354      6729.6055        36.0450        36.0450        98.6176 
       16.5527    0.000487472       0.342648      -999.2500      9430.7236 
     5069.0825      9554.0752      6963.6904       0.308383      2923.8643 
        2.4510         1.7865     12975.1094      2797.9348      5841.2339 
    16494.0586         2.0439      8069.8398         6.4468         4.1401
    2853.08040 
       41.5454        49.4023        21.8972        76.9074      1285.2374 
    13417.5186      6694.0010        33.2767        33.2767        90.4105 
       16.4928    0.000482327       0.334309      -999.2500      9431.2939 
     5069.1875      9558.1299      6894.5801       0.300878      3011.1921 
        2.4519         1.7686     13011.5439      2766.6765      5712.2900 
    16202.3799         2.0044      8083.3687         6.3835         4.0876
    2853.23280 
       40.5213        49.8995        27.1251        72.6739      1239.6700 
    12693.5088      6549.0396        27.9566        27.9566        75.3453 
       15.9142    0.000461663       0.318625      -999.2500      9431.8643 
     5069.2930      9565.0547      6768.0630       0.286762      2950.4795 
        2.4535         1.7361     12637.0850      2622.0896      5380.7290 
    15452.3682         1.9382      7972.4346         6.0872         3.8450
    2853.38520 
       39.2385        45.5642        27.6454        63.4829      1184.5236 
    11972.8252      6196.6436        24.6963        24.6963        66.5518 
       14.2490    0.000413317       0.317064      -999.2500      9432.4336 
     5069.3979      9566.2891      6755.3252       0.285357      2846.9668 
        2.4537         1.7327     12404.5840      2318.7500      4993.5332 
    14576.5088         1.9321      7544.2041         5.4438         3.3360
    2853.53760 
       37.9865        39.4611        25.1802        53.7419      1132.6102 
    11353.5137      5787.5308        22.9096        22.9096        61.9112 
       12.3946    0.000360543       0.324459      -999.2500      9433.0039 
     5069.5029      9563.9707      6813.6724       0.292013      2695.9978 
        2.4530         1.7476     12219.3408      2013.0355      4643.0054 
    13783.5938         1.9617      7026.2813         4.7619         2.8230
