~Version Information Block
VERS .                  2.0:  CWLS LOG ASCII STANDARD - VERSION 2.0
WRAP .                  YES:  Multiple lines per depth step
~Well Information Block
#MNEM.UNIT        Data Type   Information
#---------- ----------------  -----------
STRT .M          2784.04320:  START DEPTH
STOP .M          3715.96920:  STOP DEPTH
STEP .M             0.15240:  STEP
NULL .              -999.25:  NULL VALUE
COMP .                     :  COMPANY
WELL .      RAAG-101-02-104:  WELL
FLD  .                     :  FIELD
LOC  .                     :  LOCATION
CTRY .                     :  COUNTRY
STAT .                     :  STATE
CNTY .                     :  COUNTY
SRVC .                     :  SERVICE COMPANY
DATE .                     :  DATE
API  .                     :  API NUMBER
UWI  .                     :  UNIQUE WELL ID
~Curve Information Block
#MNEM.UNIT         API CODE   Curve Description
#---------- ----------------  -----------------
DEPTH.M                    :  
ANGLE_FAIL.DEG                  :  Fail Angle
BRIT_IND.                     :  Brittleness Index
BRIT_PR.                     :  Brittleness Index from Poisson's Ratio
BRIT_YM.                     :  Brittleness Index from Young's Modulus
CS   .M/MIN                 :  Compressive Strength
DTCO .US/F                 :  Compressional slowness
DTSM .US/F                 :  Fast Shear slowness
IP   .RAYL/M2                 :  P Impedence
IS   .RAYL/M2                 :  S Impedance
KBULK.                     :  Bulk Mudulus
LAMBDA.                     :  Lambda
LAMRHO.                     :  
MU   .CP                   :  Mu
MURHO.(GF/C3S)2                 :  Mu*Rho
PR   .                     :  Poisson's ratio
PRESS_FG.PSI                  :  Fracture Gradient Pressure
PRESS_OB.PSI                  :  Over-burden Pressure
PRESS_PP.PSI                  :  Pore Pressure
PRESS_SHMAX.PSI                  :  Horizontal Stress (Max)
PRESS_SHMIN.PSI                  :  Horizontal Stress (Min)
PR_STAT.                     :  Poisson's ratio (Static)
PZS  .PSI                  :  Processed Zone Stress
SHMAX_GRAD.                     :  Horizontal Stress Gradient (Max)
SHMIN_GRAD.                     :  Horizontal Stress Gradient (Min)
STRESS_CUM.PSI                  :  Cumulative stress (SHPZ)
UCS_BF.PSI                  :  Uniaxial Compressive Strength (BF)
UCS_LAL.PSI                  :  Uniaxial Compressive Strength (lal)
VP   .FT/S                 :  Compressional velocity
VPVS .                     :  Vp / Vs ratio
VS   .FT/S                 :  Shear velocity
YM   .                     :  Youngs' Modulus
YM_STAT.                     :  Youngs' Modulus (Static)
~Parameter Information Block
#MNEM.UNIT            Value   Description
#---------- ----------------  -----------
PROJECT.          RDG_13Jul21:  
SET  .              GEOMECH:  
~Other Information Block
~Ascii Log Data
# ...
    3242.46240 
       41.0221        72.1795        46.6297        97.7294      1261.7754 
       63.2382       111.0600     13727.0049      7816.2354        23.2597 
       23.2597        66.2436        21.4514         0.0007       0.260111 
     -999.2500     11146.6943      5297.8550     11353.0791      7018.9946 
      0.234100      2681.4575         2.5048         1.5486     12600.9043 
     3522.4392      5540.2554     15813.2266         1.7562      9004.1416 
        7.8411         5.3558
    3242.61480 
       40.5425        74.3905        52.3171        96.4639      1240.6023 
       64.6518       110.9658     13434.5713      7827.3599        20.3368 
       20.3368        57.9526        21.5001         0.0007       0.243049 
     -999.2500     11147.2900      5297.9053     11361.3477      6866.1338 
      0.218744      2461.3945         2.5065         1.5148     11855.0576 
     3474.3875      5387.4063     15467.4736         1.7164      9011.7852 
        7.7525         5.2751
    3242.76720 
       40.4852        74.6495        52.8647        96.4342      1238.0930 
       64.8221       111.0244     13427.5840      7839.7554        20.0922 
       20.0922        57.3765        21.5228         0.0007       0.241406 
     -999.2500     11147.8848      5297.9546     11362.6826      6851.9199 
      0.217265      2304.1353         2.5067         1.5116     11512.1104 
     3473.2634      5369.4424     15426.8379         1.7128      9007.0293 
        7.7504         5.2733
    3242.91960 
       40.6976        72.9288        49.5051        96.3525      1247.4154 
       64.1924       111.4057     13532.6523      7797.5669        21.5886 
       21.5886        61.5286        21.3337         0.0007       0.251485 
     -999.2500     11148.4814      5298.0044     11358.8340      6941.4165 
      0.226336      2204.9080         2.5057         1.5313     11492.6494 
     3470.1714      5436.3418     15578.1680         1.7355      8976.2021 
        7.7447         5.2681
    3243.07200 
       41.0140        70.0944        44.5305        95.6584      1261.4152 
       63.2619       112.1091     13655.5674      7705.6826        23.8933 
       23.8933        67.7194        20.9501         0.0006       0.266409 
     -999.2500     11149.0762      5298.0542     11352.6445      7077.7217 
      0.239768      2132.3389         2.5042         1.5613     11620.1211 
     3443.9458      5537.6362     15807.3027         1.7721      8919.8828 
        7.6961         5.2241
    3243.22440 
       41.3762        67.2776        39.6241        94.9311      1277.6074 
       62.2079       112.7395     13790.3730      7609.3130        26.4239 
       26.4239        74.3711        20.5724         0.0006       0.281128 
     -999.2500     11149.6719      5298.1035     11346.3066      7216.9785 
      0.253015      2165.3088         2.5027         1.5919     11964.5752 
     3416.5569      5656.0356     16075.1289         1.8123      8870.0049 
        7.6452         5.1781
    3243.37680 
       41.5112        65.8115        37.6202        94.0029      1283.6901 
       61.8180       113.1279     13789.6631      7535.2715        27.3869 
       27.3869        76.5942        20.3022         0.0006       0.287140 
     -999.2500     11150.2676      5298.1528     11344.0127      7275.3784 
      0.258426      2533.0864         2.5021         1.6047     12816.9297 
     3381.7283      5700.8574     16176.5176         1.8300      8839.5527 
        7.5802         5.1197
    3243.52920 
       41.3938        65.6121        38.4826        92.7417      1278.3986 
       62.1570       113.2682     13615.7451      7471.7695        26.5552 
       26.5552        73.7338        20.1062         0.0006       0.284552 
     -999.2500     11150.8633      5298.2026     11345.8896      7250.3384 
      0.256097      2644.6035         2.5024         1.5991     12989.8838 
     3334.6462      5661.8550     16088.2920         1.8223      8828.6035 
        7.4919         5.0407
    3243.68160 
       41.3113        65.2614        38.6673        91.8556      1274.6926 
       62.3959       113.6016     13536.4600      7434.9268        26.2280 
       26.2280        72.6795        19.9484         0.0006       0.283998 
     -999.2500     11151.4590      5298.2520     11346.7754      7245.1309 
      0.255598      2365.5549         2.5025         1.5979     12421.3711 
     3301.7292      5634.6240     16026.6943         1.8207      8802.6934 
        7.4299         4.9854
    3243.83400 
       41.2201        64.8251        38.6234        91.0268      1270.6068 
       62.6607       114.1080     13492.1133      7408.9922        26.0485 
       26.0485        72.2508        19.7906         0.0006       0.284130 
     -999.2500     11152.0547      5298.3018     11347.3291      7246.5737 
      0.255717      2523.7024         2.5025         1.5981     12740.5527 
     3271.0601      5604.6831     15958.9668         1.8210      8763.6270 
        7.3719         4.9340
    3243.98640 
       41.0720        65.7933        40.3724        91.2143      1263.9979 
       63.0922       113.9377     13438.5713      7441.5146        25.1078 
       25.1078        69.8429        19.9071         0.0006       0.278883 
     -999.2500     11152.6504      5298.3516     11350.4678      7196.2959 
      0.250995      2316.1724         2.5030         1.5870     12224.9365 
     3277.9893      5556.4321     15849.8193         1.8059      8776.7266 
        7.3850         4.9456
    3244.13880 
       40.8140        68.2948        44.8009        91.7888      1252.5504 
       63.8490       113.0160     13274.3545      7499.4180        22.9173 
       22.9173        63.7259        20.2257         0.0006       0.265597 
     -999.2500     11153.2451      5298.4004     11357.3369      7071.4209 
      0.239038      2358.0261         2.5044         1.5593     12058.8945 
     3299.2524      5473.3809     15661.9531         1.7701      8848.3047 
        7.4252         4.9813
    3244.29120 
       40.5769        70.1056        48.7490        91.4622      1242.1110 
       64.5497       112.3699     13062.8525      7503.8169        20.9743 
       20.9743        58.0236        20.3539         0.0006       0.253753 
     -999.2500     11153.8408      5298.4502     11363.3682      6963.2988 
      0.228378      2291.3289         2.5057         1.5354     11709.2549 
     3287.1594      5398.2222     15491.9385         1.7408      8899.1797 
        7.4024         4.9610
    3244.44360 
       40.7547        68.7696        46.0453        91.4940      1249.9304 
       64.0239       112.7192     13170.9014      7481.0015        22.2448 
       22.2448        61.5419        20.2291         0.0006       0.261864 
     -999.2500     11154.4375      5298.5000     11360.2910      7037.3691 
      0.235678      1978.1748         2.5049         1.5517     11231.0879 
     3288.3335      5454.4663     15619.1670         1.7606      8871.6035 
        7.4046         4.9629
    3244.59600 
       41.2471        65.9195        39.8073        92.0317      1271.8173 
       62.5821       113.3188     13487.2725      7448.5596        25.6188 
       25.6188        70.9444        20.0348         0.0006       0.280578 
     -999.2500     11155.0322      5298.5493     11352.1064      7213.5522 
      0.252520      1748.2401         2.5029         1.5905     11123.5850 
     3308.2583      5613.5439     15979.0107         1.8107      8824.6611 
        7.4422         4.9964
    3244.74840 
       41.7603        64.5284        35.4715        93.5853      1294.9781 
       61.1030       113.0374     13805.8604      7462.8350        28.6214 
       28.6214        79.2140        20.1232         0.0006       0.293585 
     -999.2500     11155.6279      5298.5981     11346.3623      7340.9497 
      0.264227      1589.0425         2.5015         1.6185     11059.9844 
     3366.1084      5784.5381     16365.8086         1.8499      8846.6289 
        7.5510         5.0935
