~Version Information Block
VERS .                  2.0:  CWLS LOG ASCII STANDARD - VERSION 2.0
WRAP .                  YES:  Multiple lines per depth step
~Well Information Block
#MNEM.UNIT        Data Type   Information
#---------- ----------------  -----------
STRT .M          2945.58720:  START DEPTH
STOP .M          3894.88680:  STOP DEPTH
STEP .M             0.15240:  STEP
NULL .              -999.25:  NULL VALUE
COMP .                     :  COMPANY
WELL .       RAAG-97-02-106:  WELL
FLD  .                     :  FIELD
LOC  .                     :  LOCATION
CTRY .                     :  COUNTRY
STAT .                     :  STATE
CNTY .                     :  COUNTY
SRVC .                     :  SERVICE COMPANY
DATE .                     :  DATE
API  .                     :  API NUMBER
UWI  .                     :  UNIQUE WELL ID
~Curve Information Block
#MNEM.UNIT         API CODE   Curve Description
#---------- ----------------  -----------------
DEPTH.M                    :  
ANGLE_FAIL.DEG                  :  Fail Angle
BRIT_IND.                     :  Brittleness Index
BRIT_PR.                     :  Brittleness Index from Poisson's Ratio
BRIT_YM.                     :  Brittleness Index from Young's Modulus
CS   .M/MIN                 :  Compressive Strength
DEN  .G/C3                 :  (HDRS-H)                (2in)                   Standard Resolution Formation Density
DTCO .US/F                 :  Compressional slowness
DTSM .US/F                 :  Description
IP   .RAYL/M2                 :  P Impedence
IS   .RAYL/M2                 :  S Impedance
KBULK.                     :  Bulk Mudulus
LAMBDA.                     :  Lambda
LAMRHO.                     :  
MU   .CP                   :  Mu
MURHO.(GF/C3S)2                 :  Mu*Rho
PR   .                     :  Poisson's ratio
PRESS_FG.PSI                  :  Fracture Gradient Pressure
PRESS_OB.PSI                  :  Over-burden Pressure
PRESS_PP.PSI                  :  Pore Pressure
PRESS_SHMAX.PSI                  :  Horizontal Stress (Max)
PRESS_SHMIN.PSI                  :  Horizontal Stress (Min)
PR_STAT.                     :  Poisson's ratio (Static)
PZS  .PSI                  :  Processed Zone Stress
SHMAX_GRAD.                     :  Horizontal Stress Gradient (Max)
SHMIN_GRAD.                     :  Horizontal Stress Gradient (Min)
STRESS_CUM.PSI                  :  Cumulative stress (SHPZ)
UCS_BF.PSI                  :  Uniaxial Compressive Strength (BF)
UCS_LAL.PSI                  :  Uniaxial Compressive Strength (lal)
VP   .FT/S                 :  Compressional velocity
VPVS .                     :  Vp / Vs ratio
VS   .FT/S                 :  Shear velocity
YM   .                     :  Youngs' Modulus
YM_STAT.                     :  Youngs' Modulus (Static)
~Parameter Information Block
#MNEM.UNIT            Value   Description
#---------- ----------------  -----------
PROJECT.          RDG_13Jul21:  
SET  .              GEOMECH:  
~Other Information Block
~Ascii Log Data
# ...
    3867.30240 
       43.3579    -23285.0742        39.1297    -46609.2773      1369.5377 
     -999.2500        56.6471       102.9050  -5376644.5000  -2959734.7500 
   -11396.7939    -11396.7939  11388246.0000     -8766.6055        94.2922 
      0.282611      -999.2500     12421.1074      5359.3110     -8145.0557 
   423744.3750       0.254350      3079.2886        -1.6316        84.8849 
   846847.3125 184877776.0000      6353.6396     17653.1504         1.8166 
     9717.7041     -3261.6497    310225.3750
    3867.45480 
       43.3119    -23336.1641        40.0507    -46712.3789      1367.3348 
     -999.2500        56.7724       102.6805  -5364778.5000  -2966204.0000 
   -11192.5068    -11192.5068  11184113.0000     -8804.9707        94.7048 
      0.279848      -999.2500     12421.7148      5359.3188     -8165.7598 
   424171.2188       0.251863      3079.2878        -1.6357        84.9667 
   847701.0000 185698784.0000      6336.4160     17614.1895         1.8086 
     9738.9453     -3268.8665    311603.0313
    3867.60720 
       43.1587    -23286.5527        41.8595    -46614.9648      1360.0276 
     -999.2500        57.1907       102.5697  -5325539.5000  -2969410.2500 
   -10734.6270    -10734.6270  10726576.0000     -8824.0156        94.9097 
      0.274422      -999.2500     12422.3223      5359.3271     -7940.5254 
   419679.2813       0.246979      3079.2876        -1.5905        84.0633 
   838717.1250 184923008.0000      6279.4624     17485.3555         1.7935 
     9749.4727     -3262.0476    310301.2813
    3867.75960 
       43.0643    -23292.4941        43.2499    -46628.2383      1355.5439 
     -999.2500        57.4494       102.3871  -5301556.5000  -2974705.5000 
   -10416.5703    -10416.5703  10408758.0000     -8855.5146        95.2485 
      0.270250      -999.2500     12422.9316      5359.3354     -7847.0303 
   417822.1563       0.243225      3079.2876        -1.5717        83.6877 
   835002.9375 185028608.0000      6244.6519     17406.6133         1.7822 
     9766.8574     -3262.9766    310478.4688
    3867.91200 
       43.0423    -23439.6875        44.5495    -46923.9258      1354.5012 
     -999.2500        57.5098       101.9071  -5295989.0000  -2988715.5000 
   -10190.3047    -10190.3047  10182662.0000     -8939.1240        96.1478 
      0.266352      -999.2500     12423.5391      5359.3438     -8010.0298 
   421094.9063       0.239716      3022.7874        -1.6043        84.3395 
   841435.4375 187389072.0000      6236.5708     17388.3340         1.7720 
     9812.8564     -3283.6748    314439.3438
    3868.06440 
       43.0748    -23513.4805        44.5556    -47071.5156      1356.0409 
     -999.2500        57.4207       101.7465  -5304211.0000  -2993434.7500 
   -10221.0176    -10221.0176  10213352.0000     -8967.3779        96.4517 
      0.266333      -999.2500     12424.1475      5359.3525     -8139.5801 
   423698.6875       0.239700      2787.4539        -1.6302        84.8573 
   846172.3125 188572864.0000      6248.5049     17415.3301         1.7719 
     9828.3516     -3294.0061    316425.7813
    3868.21680 
       43.1977    -23398.2246        42.0135    -46838.4609      1361.8862 
     -999.2500        57.0839       102.3060  -5335502.0000  -2977062.0000 
   -10749.8457    -10749.8457  10741783.0000     -8869.5508        95.3994 
      0.273960      -999.2500     12424.7559      5359.3604     -8124.8481 
   423416.8438       0.246564      2653.9048        -1.6272        84.7972 
   845341.5000 186705280.0000      6293.9224     17518.0664         1.7922 
     9774.5957     -3277.6924    313291.9375
    3868.36920 
       43.3532      -999.2500        40.5425      -999.2500      1369.3120 
     -999.2500        56.6599       102.2400      -999.2500      -999.2500 
     -999.2500      -999.2500      -999.2500      -999.2500      -999.2500 
      0.278373      -999.2500     12425.3643      5359.3687      -999.2500 
     -999.2500       0.250535      2506.1077      -999.2500      -999.2500 
     -999.2500      -999.2500      6351.8735     17649.1543         1.8044 
     9780.9072      -999.2500      -999.2500
    3868.52160 
       43.3314      -999.2500        40.7348      -999.2500      1368.2679 
     -999.2500        56.7193       102.2550      -999.2500      -999.2500 
     -999.2500      -999.2500      -999.2500      -999.2500      -999.2500 
      0.277795      -999.2500     12425.9717      5359.3765      -999.2500 
     -999.2500       0.250016      1922.6515      -999.2500      -999.2500 
     -999.2500      -999.2500      6343.7085     17630.6855         1.8028 
     9779.4756      -999.2500      -999.2500
    3868.67400 
       43.1367      -999.2500        40.0940      -999.2500      1358.9838 
     -999.2500        57.2508       103.5246      -999.2500      -999.2500 
     -999.2500      -999.2500      -999.2500      -999.2500      -999.2500 
      0.279718      -999.2500     12426.5791      5359.3853      -999.2500 
     -999.2500       0.251746      1231.3900      -999.2500      -999.2500 
     -999.2500      -999.2500      6271.3486     17467.0020         1.8083 
     9659.5430      -999.2500      -999.2500
    3868.82640 
       42.7271      -999.2500        42.0306      -999.2500      1339.6410 
     -999.2500        58.3798       104.6203      -999.2500      -999.2500 
     -999.2500      -999.2500      -999.2500      -999.2500      -999.2500 
      0.273908      -999.2500     12427.1885      5359.3931      -999.2500 
     -999.2500       0.246517      1061.0502      -999.2500      -999.2500 
     -999.2500      -999.2500      6122.0171     17129.2051         1.7921 
     9558.3711      -999.2500      -999.2500
    3868.97880 
       42.2031      -999.2500        44.2978      -999.2500      1315.2660 
     -999.2500        59.8454       106.1629      -999.2500      -999.2500 
     -999.2500      -999.2500      -999.2500      -999.2500      -999.2500 
      0.267107      -999.2500     12427.7959      5359.4014      -999.2500 
     -999.2500       0.240396       889.7919      -999.2500      -999.2500 
     -999.2500      -999.2500      5936.5698     16709.7148         1.7740 
     9419.4863      -999.2500      -999.2500
    3869.13120 
       41.7148      -999.2500        46.4575      -999.2500      1292.9095 
     -999.2500        61.2332       107.6171      -999.2500      -999.2500 
     -999.2500      -999.2500      -999.2500      -999.2500      -999.2500 
      0.260627      -999.2500     12428.4043      5359.4092      -999.2500 
     -999.2500       0.234565       770.8848      -999.2500      -999.2500 
     -999.2500      -999.2500      5769.1538     16331.0088         1.7575 
     9292.1992      -999.2500      -999.2500
    3869.28360 
       41.3120      -999.2500        48.2894      -999.2500      1274.7253 
     -999.2500        62.3938       108.8215      -999.2500      -999.2500 
     -999.2500      -999.2500      -999.2500      -999.2500      -999.2500 
      0.255132      -999.2500     12429.0137      5359.4175      -999.2500 
     -999.2500       0.229619       976.0889      -999.2500      -999.2500 
     -999.2500      -999.2500      5634.8638     16027.2363         1.7441 
     9189.3564      -999.2500      -999.2500
    3869.43600 
       41.0499      -999.2500        47.9145      -999.2500      1263.0128 
     -999.2500        63.1569       110.3229      -999.2500      -999.2500 
     -999.2500      -999.2500      -999.2500      -999.2500      -999.2500 
      0.256256      -999.2500     12429.6211      5359.4253      -999.2500 
     -999.2500       0.230631      1603.5703      -999.2500      -999.2500 
     -999.2500      -999.2500      5549.2588     15833.5928         1.7468 
     9064.3047      -999.2500      -999.2500
    3869.58840 
       40.8368      -999.2500        47.6189      -999.2500      1253.5580 
     -999.2500        63.7819       111.5514      -999.2500      -999.2500 
     -999.2500      -999.2500      -999.2500      -999.2500      -999.2500 
      0.257143      -999.2500     12430.2285      5359.4336      -999.2500 
     -999.2500       0.231429      1877.5397      -999.2500      -999.2500 
     -999.2500      -999.2500      5480.6641     15678.4277         1.7490 
     8964.4805      -999.2500      -999.2500
