~Version Information Block
VERS .                  2.0:  CWLS LOG ASCII STANDARD - VERSION 2.0
WRAP .                  YES:  Multiple lines per depth step
~Well Information Block
#MNEM.UNIT        Data Type   Information
#---------- ----------------  -----------
STRT .M          2656.78920:  START DEPTH
STOP .M          3640.98840:  STOP DEPTH
STEP .M             0.15240:  STEP
NULL .              -999.25:  NULL VALUE
COMP .                     :  COMPANY
WELL .       RAAG-98-07-214:  WELL
FLD  .                     :  FIELD
LOC  .                     :  LOCATION
CTRY .                     :  COUNTRY
STAT .                     :  STATE
CNTY .                     :  COUNTY
SRVC .                     :  SERVICE COMPANY
DATE .                     :  DATE
API  .                     :  API NUMBER
UWI  .                     :  UNIQUE WELL ID
~Curve Information Block
#MNEM.UNIT         API CODE   Curve Description
#---------- ----------------  -----------------
DEPTH.M                    :  
ANGLE_FAIL.DEG                  :  Fail Angle
BRIT_IND.                     :  Brittleness Index
BRIT_PR.                     :  Brittleness Index from Poisson's Ratio
BRIT_YM.                     :  Brittleness Index from Young's Modulus
CS   .M/MIN                 :  Compressive Strength
IP   .RAYL/M2                 :  P Impedence
IS   .RAYL/M2                 :  S Impedance
KBULK.                     :  Bulk Mudulus
LAMBDA.                     :  Lambda
LAMRHO.                     :  
MU   .CP                   :  Mu
MURHO.(GF/C3S)2                 :  Mu*Rho
PR   .                     :  Poisson's ratio
PRESS_FG.PSI                  :  Fracture Gradient Pressure
PRESS_OB.PSI                  :  Over-burden Pressure
PRESS_PP.PSI                  :  Pore Pressure
PRESS_SHMAX.PSI                  :  Horizontal Stress (Max)
PRESS_SHMIN.PSI                  :  Horizontal Stress (Min)
PR_STAT.                     :  Poisson's ratio (Static)
PZS  .PSI                  :  Processed Zone Stress
SHMAX_GRAD.                     :  Horizontal Stress Gradient (Max)
SHMIN_GRAD.                     :  Horizontal Stress Gradient (Min)
STRESS_CUM.PSI                  :  Cumulative stress (SHPZ)
UCS_BF.PSI                  :  Uniaxial Compressive Strength (BF)
UCS_LAL.PSI                  :  Uniaxial Compressive Strength (lal)
VP   .FT/S                 :  Compressional velocity
VPVS .                     :  Vp / Vs ratio
VS   .FT/S                 :  Shear velocity
YM   .                     :  Youngs' Modulus
YM_STAT.                     :  Youngs' Modulus (Static)
~Parameter Information Block
#MNEM.UNIT            Value   Description
#---------- ----------------  -----------
PROJECT.          RDG_13Jul21:  
SET  .              GEOMECH:  
~Other Information Block
~Ascii Log Data
# ...
    2786.32920 
       33.7995        30.3488        28.5708        32.1269       970.9241 
     8971.0918      4668.6860        14.4218        14.4218        36.8872 
        8.5218    0.000234617       0.314288      -999.2500      9182.3203 
     5021.2939      9311.2275      6604.1797       0.282859      2843.7803 
        2.4474         1.7358     12095.9199      1392.6542      3636.7188 
    11507.3135         1.9215      5988.5728         3.2489         1.7820
    2786.48160 
       33.4039        24.9247        22.0978        27.7515       956.4877 
     8834.1289      4413.3501        15.2634        15.2634        39.0865 
        7.6061    0.000209656       0.333707      -999.2500      9182.8867 
     5021.4077      9304.3965      6752.7041       0.300336      2855.1741 
        2.4454         1.7748     12415.7568      1276.8038      3553.0669 
    11318.0889         2.0017      5654.2856         2.9426         1.5876
    2786.63400 
       33.2905        22.6014        19.1640        26.0388       952.3748 
     8813.3525      4313.4541        15.7635        15.7635        40.4634 
        7.2484    0.000200272       0.342508      -999.2500      9183.4551 
     5021.5210      9301.4932      6822.6895       0.308257      2855.0828 
        2.4445         1.7931     12555.5439      1232.3474      3529.4185 
    11264.5938         2.0432      5513.1475         2.8227         1.5130
    2786.78640 
       33.4880        23.8984        20.4831        27.3136       959.5455 
     8875.3047      4384.8325        15.7263        15.7263        40.3175 
        7.4996    0.000206955       0.338551      -999.2500      9184.0215 
     5021.6348      9303.6475      6791.5068       0.304696      2849.2446 
        2.4449         1.7848     12481.5039      1265.3895      3570.7021 
    11357.9805         2.0241      5611.3950         2.9120         1.5684
    2786.93880 
       34.1124        27.1790        23.2581        31.1000       982.4368 
     9139.6553      4601.5215        16.0148        16.0148        41.1853 
        8.2334    0.000227915       0.330226      -999.2500      9184.5889 
     5021.7476      9307.4844      6726.6641       0.297203      2839.8918 
        2.4458         1.7676     12333.1123      1365.1692      3704.1497 
    11659.8467         1.9862      5870.3569         3.1770         1.7359
    2787.09120 
       34.9266        31.2978        26.6666        35.9291      1012.8004 
     9427.4141      4850.3613        16.3201        16.3201        41.8241 
        9.1801    0.000253232       0.320000      -999.2500      9185.1563 
     5021.8608      9311.9727      6648.8286       0.288000      2787.9602 
        2.4469         1.7471     12073.5771      1495.9884      3885.0686 
    12069.0957         1.9437      6209.4946         3.5150         1.9554
    2787.24360 
       35.7602        35.6594        30.0783        41.2406      1044.5146 
     9736.8369      5111.6885        16.6585        16.6585        42.5473 
       10.2304    0.000281254       0.309765      -999.2500      9185.7246 
     5021.9746      9316.3633      6572.9409       0.278789      2714.8420 
        2.4479         1.7270     11775.5664      1644.4819      4078.8276 
    12507.3906         1.9048      6566.1865         3.8868         2.2046
    2787.39600 
       36.6776        37.6571        29.8099        45.5042      1080.1980 
    10101.2559      5294.8599        18.0496        18.0496        45.9643 
       11.0092    0.000301772       0.310570      -999.2500      9186.2910 
     5022.0884      9316.6328      6579.4634       0.279513      2646.2502 
        2.4478         1.7287     11651.4268      1767.1737      4302.7300 
    13013.8711         1.9077      6821.5894         4.1853         2.4104
    2787.54840 
       37.2725        39.0046        29.3823        48.6270      1103.7900 
    10397.1875      5436.5552        19.1820        19.1820        48.9892 
       11.5729    0.000318140       0.311853      -999.2500      9186.8594 
     5022.2017      9316.7285      6589.4727       0.280668      2597.8110 
        2.4477         1.7312     11574.5674      1859.0092      4454.2104 
    13356.5293         1.9125      6983.9575         4.4039         2.5645
    2787.70080 
       37.3990        39.3938        29.3240        49.4637      1108.8589 
    10482.7627      5479.4492        19.4635        19.4635        49.8396 
       11.7252    0.000323180       0.312028      -999.2500      9187.4258 
     5022.3149      9317.2412      6591.1187       0.280825      2567.9614 
        2.4477         1.7315     11518.1602      1883.8987      4487.1167 
    13430.9639         1.9131      7020.5049         4.4625         2.6063
    2787.85320 
       37.2640        37.8286        27.6236        48.0336      1103.4531 
    10476.7695      5421.6367        19.8004        19.8004        50.9744 
       11.4178    0.000316396       0.317129      -999.2500      9187.9941 
     5022.4282      9315.9219      6629.4414       0.285416      2512.2776 
        2.4472         1.7415     11483.4375      1841.4297      4452.0278 
    13351.5918         1.9324      6909.3320         4.3624         2.5350
    2788.00560 
       36.4161        36.3036        28.4534        44.1537      1069.9387 
    10113.5410      5259.5923        18.2089        18.2089        46.9571 
       10.7272    0.000297765       0.314640      -999.2500      9188.5605 
     5022.5415      9317.4492      6610.7969       0.283176      2442.4185 
        2.4475         1.7365     11306.4307      1727.9747      4237.7144 
    12866.8018         1.9229      6691.4385         4.0908         2.3447
    2788.15800 
       34.4527        35.7356        33.8965        37.5746       995.0542 
     9301.5234      4986.8159        14.2570        14.2570        36.7817 
        9.6393    0.000267681       0.298310      -999.2500      9189.1279 
     5022.6548      9324.0342      6491.0068       0.268479      2374.2402 
        2.4491         1.7049     10930.4941      1541.4749      3778.7864 
    11828.6797         1.8652      6341.6973         3.6302         2.0317
    2788.31040 
       32.4109        35.3250        39.6567        30.9933       920.8229 
     8460.4619      4669.0767        10.9469        10.9469        27.9789 
        8.5295    0.000234656       0.281030      -999.2500      9189.6953 
     5022.7681      9330.7109      6369.3833       0.252927      2314.8208 
        2.4507         1.6729     10568.4082      1362.3243      3350.6926 
    10860.3057         1.8120      5993.4790         3.1695         1.7311
    2788.46280 
       31.5976        35.1493        42.0284        28.2702       892.1948 
     8087.3003      4512.7964         9.7668         9.7668        24.6738 
        8.0613    0.000219211       0.273915      -999.2500      9190.2627 
     5022.8813      9333.7295      6320.9180       0.246523      2256.4077 
        2.4513         1.6601     10354.6514      1290.3656      3192.6333 
    10502.7666         1.7921      5860.6514         2.9789         1.6103
    2788.61520 
       31.1241        33.9532        41.9455        25.9609       875.7556 
     7802.3315      4352.1313         9.2535         9.2535        22.9943 
        7.6224    0.000203880       0.274164      -999.2500      9190.8301 
     5022.9946      9334.2354      6322.7285       0.246747      2187.2590 
        2.4513         1.6605     10219.9746      1230.3373      3103.6223 
    10301.4180         1.7928      5746.1191         2.8173         1.5096
    2788.76760 
       31.1752        32.9725        40.2618        25.6833       877.5230 
     7823.2168      4329.7964         9.5353         9.5353        23.7084 
        7.5399    0.000201793       0.279215      -999.2500      9191.3975 
     5023.1079      9333.0977      6357.3940       0.251293      2097.1440 
        2.4509         1.6695     10109.0762      1223.1827      3113.1313 
    10322.9277         1.8068      5713.2734         2.7978         1.4976
