~Version Information Block
VERS .                  2.0:  CWLS LOG ASCII STANDARD - VERSION 2.0
WRAP .                  YES:  Multiple lines per depth step
~Well Information Block
#MNEM.UNIT        Data Type   Information
#---------- ----------------  -----------
STRT .M          2686.96440:  START DEPTH
STOP .M          3645.86520:  STOP DEPTH
STEP .M             0.15240:  STEP
NULL .              -999.25:  NULL VALUE
COMP .                     :  COMPANY
WELL .      RAAG-105-07-212:  WELL
FLD  .                     :  FIELD
LOC  .                     :  LOCATION
CTRY .                     :  COUNTRY
STAT .                     :  STATE
CNTY .                     :  COUNTY
SRVC .                     :  SERVICE COMPANY
DATE .                     :  DATE
API  .                     :  API NUMBER
UWI  .                     :  UNIQUE WELL ID
~Curve Information Block
#MNEM.UNIT         API CODE   Curve Description
#---------- ----------------  -----------------
DEPTH.M                    :  
ANGLE_FAIL.DEG                  :  Fail Angle
BRIT_IND.                     :  Brittleness Index
BRIT_PR.                     :  Brittleness Index from Poisson's Ratio
BRIT_YM.                     :  Brittleness Index from Young's Modulus
CS   .M/MIN                 :  Compressive Strength
DTCO .US/F                 :  Compressional slowness
DTSM .US/F                 :  Shear slowness
IP   .RAYL/M2                 :  P Impedence
IS   .RAYL/M2                 :  S Impedance
KBULK.                     :  Bulk Mudulus
LAMBDA.                     :  Lambda
LAMRHO.                     :  
MU   .CP                   :  Mu
MURHO.(GF/C3S)2                 :  Mu*Rho
PR   .                     :  Poisson's ratio
PRESS_FG.PSI                  :  Fracture Gradient Pressure
PRESS_OB.PSI                  :  Over-burden Pressure
PRESS_PP.PSI                  :  Pore Pressure
PRESS_SHMAX.PSI                  :  Horizontal Stress (Max)
PRESS_SHMIN.PSI                  :  Horizontal Stress (Min)
PR_STAT.                     :  Poisson's ratio (Static)
PZS  .PSI                  :  Processed Zone Stress
SHMAX_GRAD.                     :  Horizontal Stress Gradient (Max)
SHMIN_GRAD.                     :  Horizontal Stress Gradient (Min)
STRESS_CUM.PSI                  :  Cumulative stress (SHPZ)
UCS_BF.PSI                  :  Uniaxial Compressive Strength (BF)
UCS_LAL.PSI                  :  Uniaxial Compressive Strength (lal)
VP   .FT/S                 :  Compressional velocity
VPVS .                     :  Vp / Vs ratio
VS   .FT/S                 :  Shear velocity
YM   .                     :  Youngs' Modulus
YM_STAT.                     :  Youngs' Modulus (Static)
~Parameter Information Block
#MNEM.UNIT            Value   Description
#---------- ----------------  -----------
ALPHA.                 0.98:  Biot's Constant
CALIB_SHMINPZS.                 6800:  Calibration Factor for processing zones
EXT_FACT.                1e-06:  Extension Factor
PR_FAC.                  0.9:  Poisson's ratio factor
PR_MAX.                  0.4:  Maximum Poisson's ratio
PR_MIN.                  0.1:  Minimum Poisson's ratio
TECT_FACT.                 1.05:  Techtonic Factor
YM_MAX.                    8:  Maximum Youngs' Modulus
YM_MIN.                    1:  Minimum Youngs' Modulus
PROJECT.          RDG_13Jul21:  
SET  .              GEOMECH:  
~Other Information Block
~Ascii Log Data
# ...
    3513.58200 
       44.0694        73.3180        34.7969       111.8390      1404.0117 
       54.7338       101.6089     14538.0566      7831.2339        33.9758 
       33.9758        88.6986        23.4916    0.000660132       0.295609 
     -999.2500     11732.6680      5337.1553     11939.5029      7595.9624 
      0.266048      2786.2810         2.5163         1.6008     13964.4873 
     4076.7383      6626.4424     18270.2461         1.8564      9841.6572 
        8.8287         6.2859
    3513.73440 
       43.9624        73.6789        35.7897       111.5681      1398.7727 
       55.0189       101.6162     14466.9873      7832.9805        33.1555 
       33.1555        86.5826        23.4952    0.000660426       0.292631 
     -999.2500     11733.2686      5337.1855     11941.7373      7563.9038 
      0.263368      2678.8237         2.5166         1.5940     13685.4551 
     4065.7749      6584.5889     18175.5703         1.8469      9840.9502 
        8.8098         6.2675
    3513.88680 
       43.4026        75.2478        41.1061       109.3895      1371.6803 
       56.5256       101.7297     14041.7881      7802.2500        28.9630 
       28.9630        75.4216        23.3769    0.000655254       0.276682 
     -999.2500     11733.8701      5337.2163     11950.8115      7395.0308 
      0.249014      2623.1011         2.5184         1.5584     13236.2637 
     3978.0632      6370.4160     17691.0996         1.7997      9829.9717 
        8.6573         6.1203
    3514.03920 
       43.0293        75.3734        43.6583       107.0886      1353.8877 
       57.5454       102.3716     13790.4033      7751.8984        26.8826 
       26.8826        69.9913        23.0804    0.000646824       0.269025 
     -999.2500     11734.4717      5337.2466     11955.3838      7316.2280 
      0.242123      2588.6140         2.5193         1.5417     13009.6846 
     3886.3115      6231.8184     17377.5840         1.7790      9768.3350 
        8.4962         5.9664
    3514.19160 
       42.7637        74.4337        44.2307       104.6368      1341.3597 
       58.2783       103.4134     13633.2939      7683.0005        26.0135 
       26.0135        67.8097        22.6448    0.000635377       0.267308 
     -999.2500     11735.0732      5337.2773     11956.8896      7298.7437 
      0.240577      2583.7935         2.5195         1.5379     12965.0752 
     3789.5405      6135.2080     17159.0449         1.7745      9669.9268 
        8.3246         5.8040
    3514.34400 
       42.9020        72.5350        40.9576       104.1123      1347.8680 
       57.8960       104.2680     13782.7559      7653.0327        27.8176 
       27.8176        72.8265        22.3716    0.000630431       0.277127 
     -999.2500     11735.6738      5337.3071     11952.4648      7399.8540 
      0.249415      2655.2185         2.5184         1.5592     13310.1445 
     3768.9744      6185.2974     17272.3496         1.8010      9590.6699 
        8.2879         5.7695
    3514.49640 
       42.9125        71.3783        39.6327       103.1239      1348.3658 
       57.8669       104.8680     13789.4756      7609.1299        28.4007 
       28.4007        74.3519        22.1160    0.000623218       0.281102 
     -999.2500     11736.2764      5337.3379     11951.0137      7441.5303 
      0.252992      2603.1187         2.5180         1.5679     13289.2979 
     3730.3396      6189.1372     17281.0352         1.8122      9535.7979 
        8.2187         5.7046
    3514.64880 
       42.7543        71.4933        40.6170       102.3696      1340.9175 
       58.3044       105.1706     13708.2734      7599.5825        27.6138 
       27.6138        72.4094        22.0247    0.000621655       0.278149 
     -999.2500     11736.8770      5337.3687     11953.1826      7410.7822 
      0.250334      2540.7312         2.5183         1.5613     13103.0273 
     3700.9722      6131.8125     17151.3652         1.8038      9508.3613 
        8.1659         5.6554
    3514.80120 
       42.5512        72.6361        43.0924       102.1797      1331.4135 
       58.8691       104.9913     13587.4434      7618.5410        26.1155 
       26.1155        68.5343        22.1174    0.000624761       0.270723 
     -999.2500     11737.4785      5337.3989     11957.6416      7334.2227 
      0.243651      2484.2100         2.5192         1.5451     12836.8662 
     3693.5940      6059.0806     16986.8398         1.7835      9524.5986 
        8.1526         5.6430
    3514.95360 
       42.5528        72.7772        43.3173       102.2371      1331.4886 
       58.8646       104.8776     13572.9473      7618.0815        26.0005 
       26.0005        68.1546        22.1400    0.000624685       0.270048 
     -999.2500     11738.0811      5337.4297     11958.6084      7327.5322 
      0.243043      2481.6179         2.5192         1.5436     12818.2998 
     3695.8203      6059.6543     16988.1387         1.7817      9534.9238 
        8.1566         5.6467
    3515.10600 
       42.6459        71.5522        41.6526       101.4519      1335.8347 
       58.6055       105.2069     13572.8848      7560.7749        26.7815 
       26.7815        69.8926        21.9047    0.000615322       0.275042 
     -999.2500     11738.6816      5337.4595     11956.6621      7379.0791 
      0.247538      2617.1477         2.5187         1.5544     13192.4541 
     3665.3696      6092.8574     17063.2441         1.7952      9505.0801 
        8.1016         5.5956
    3515.25840 
       42.9423        69.3992        38.0430       100.7554      1349.7686 
       57.7850       105.5275     13650.3555      7474.6943        28.8229 
       28.8229        74.5901        21.5895    0.000601391       0.285871 
     -999.2500     11739.2832      5337.4902     11951.6055      7492.8335 
      0.257284      2822.2820         2.5175         1.5783     13830.2305 
     3638.4458      6199.9648     17305.5293         1.8262      9476.2031 
        8.0529         5.5504
    3515.41080 
       42.7801        69.2742        38.7939        99.7546      1342.1296 
       58.2329       105.9572     13560.8574      7452.8970        28.1011 
       28.1011        72.8055        21.4393    0.000597889       0.283618 
     -999.2500     11739.8838      5337.5205     11953.4229      7469.0977 
      0.255257      2840.7102         2.5178         1.5732     13819.6162 
     3599.9055      6141.1221     17172.4238         1.8195      9437.7734 
        7.9828         5.4858
    3515.56320 
       42.2226        70.5406        43.5215        97.5597      1316.1667 
       59.7904       106.4301     13215.3027      7424.1055        24.8460 
       24.8460        64.4096        21.2615    0.000593278       0.269435 
     -999.2500     11740.4863      5337.5508     11961.4248      7321.7227 
      0.242492      2725.9792         2.5194         1.5421     13295.4033 
     3515.9790      5943.3687     16725.0918         1.7801      9395.8389 
        7.8292         5.3449
    3515.71560 
       42.0001        71.7128        45.4695        97.9560      1305.9285 
       60.4199       106.6370     13235.9697      7499.4229        23.9003 
       23.9003        62.7082        21.4356    0.000605377       0.263592 
     -999.2500     11741.0869      5337.5811     11965.0088      7262.6602 
      0.237232      2528.0830         2.5200         1.5296     12781.4863 
     3531.0740      5866.3350     16550.8398         1.7649      9377.6084 
        7.8569         5.3703
    3515.86800 
       41.6664        72.3977        48.0711        96.7243      1290.7156 
       61.3717       107.1352     13089.2500      7498.0918        22.3430 
       22.3430        58.8857        21.3321    0.000605162       0.255787 
     -999.2500     11741.6885      5337.6113     11969.5322      7184.8110 
      0.230208      2281.6282         2.5209         1.5132     12132.8789 
     3484.2544      5752.8618     16294.1553         1.7457      9334.0010 
        7.7707         5.2917
