~Version Information Block
VERS .                  2.0:  CWLS LOG ASCII STANDARD - VERSION 2.0
WRAP .                  YES:  Multiple lines per depth step
~Well Information Block
#MNEM.UNIT        Data Type   Information
#---------- ----------------  -----------
STRT .M          2784.04320:  START DEPTH
STOP .M          3715.96920:  STOP DEPTH
STEP .M             0.15240:  STEP
NULL .              -999.25:  NULL VALUE
COMP .                     :  COMPANY
WELL .      RAAG-101-02-104:  WELL
FLD  .                     :  FIELD
LOC  .                     :  LOCATION
CTRY .                     :  COUNTRY
STAT .                     :  STATE
CNTY .                     :  COUNTY
SRVC .                     :  SERVICE COMPANY
DATE .                     :  DATE
API  .                     :  API NUMBER
UWI  .                     :  UNIQUE WELL ID
~Curve Information Block
#MNEM.UNIT         API CODE   Curve Description
#---------- ----------------  -----------------
DEPTH.M                    :  
ANGLE_FAIL.DEG                  :  Fail Angle
BRIT_IND.                     :  Brittleness Index
BRIT_PR.                     :  Brittleness Index from Poisson's Ratio
BRIT_YM.                     :  Brittleness Index from Young's Modulus
CS   .M/MIN                 :  Compressive Strength
DTCO .US/F                 :  Compressional slowness
DTSM .US/F                 :  Fast Shear slowness
IP   .RAYL/M2                 :  P Impedence
IS   .RAYL/M2                 :  S Impedance
KBULK.                     :  Bulk Mudulus
LAMBDA.                     :  Lambda
LAMRHO.                     :  
MU   .CP                   :  Mu
MURHO.(GF/C3S)2                 :  Mu*Rho
PR   .                     :  Poisson's ratio
PRESS_FG.PSI                  :  Fracture Gradient Pressure
PRESS_OB.PSI                  :  Over-burden Pressure
PRESS_PP.PSI                  :  Pore Pressure
PRESS_SHMAX.PSI                  :  Horizontal Stress (Max)
PRESS_SHMIN.PSI                  :  Horizontal Stress (Min)
PR_STAT.                     :  Poisson's ratio (Static)
PZS  .PSI                  :  Processed Zone Stress
SHMAX_GRAD.                     :  Horizontal Stress Gradient (Max)
SHMIN_GRAD.                     :  Horizontal Stress Gradient (Min)
STRESS_CUM.PSI                  :  Cumulative stress (SHPZ)
UCS_BF.PSI                  :  Uniaxial Compressive Strength (BF)
UCS_LAL.PSI                  :  Uniaxial Compressive Strength (lal)
VP   .FT/S                 :  Compressional velocity
VPVS .                     :  Vp / Vs ratio
VS   .FT/S                 :  Shear velocity
YM   .                     :  Youngs' Modulus
YM_STAT.                     :  Youngs' Modulus (Static)
~Parameter Information Block
#MNEM.UNIT            Value   Description
#---------- ----------------  -----------
PROJECT.          RDG_13Jul21:  
SET  .              GEOMECH:  
~Other Information Block
~Ascii Log Data
# ...
    2893.77120 
       43.7877        83.4831        41.2987       125.6675      1390.2661 
       55.4861        99.7698     15576.9678      8662.9941        32.6370 
       32.6370        92.5470        26.4657         0.0008       0.276104 
     -999.2500      9799.5898      5133.0391      9958.7178      6617.0200 
      0.248494      3316.1050         2.4675         1.6395     13066.2500 
     4653.0469      6516.9341     18022.5313         1.7981     10023.0732 
        9.7967         7.2529
    2893.92360 
       43.7662        82.1404        40.1516       124.1292      1389.2205 
       55.5439       100.4107     15546.1592      8599.6250        33.1015 
       33.1015        93.7760        26.1044         0.0008       0.279545 
     -999.2500      9800.1719      5133.1333      9958.0088      6643.4316 
      0.251591      3008.9048         2.4672         1.6460     12504.6729 
     4587.3218      6508.6431     18003.7773         1.8078      9959.0986 
        9.6890         7.1427
    2894.07600 
       43.6137        81.5365        40.7517       122.3213      1381.8392 
       55.9542       100.8677     15391.2041      8537.9414        32.2411 
       32.2411        91.0963        25.7998         0.0008       0.277745 
     -999.2500      9800.7539      5133.2275      9959.3057      6629.7271 
      0.249970      3078.8862         2.4673         1.6425     12617.2266 
     4510.5923      6450.2813     17871.7578         1.8027      9913.9766 
        9.5625         7.0139
    2894.22840 
       43.4947        82.3383        42.6705       122.0061      1376.1027 
       56.2759       100.5572     15242.7275      8530.4512        30.8438 
       30.8438        86.8036        25.8567         0.0008       0.271988 
     -999.2500      9801.3359      5133.3218      9962.0898      6586.2544 
      0.244790      3078.5459         2.4679         1.6316     12529.6006 
     4497.2720      6405.1172     17769.5957         1.7869      9944.5898 
        9.5404         6.9916
    2894.38080 
       43.4244        82.2678        43.0759       121.4598      1372.7246 
       56.4665       100.7138     15192.0654      8517.6289        30.4496 
       30.4496        85.6989        25.7777         0.0008       0.270772 
     -999.2500      9801.9180      5133.4160      9963.1484      6577.2988 
      0.243695      2911.0754         2.4680         1.6293     12176.7480 
     4474.2241      6378.6016     17709.6152         1.7836      9929.1260 
        9.5022         6.9529
    2894.53320 
       43.3946        80.1547        41.2917       119.0176      1371.2954 
       56.5474       101.6814     15121.3467      8409.3350        31.0910 
       31.0910        87.2213        25.2078         0.0008       0.276125 
     -999.2500      9802.4990      5133.5103      9961.7334      6617.8218 
      0.248512      2651.1509         2.4675         1.6393     11737.9453 
     4371.8271      6367.4004     17684.2773         1.7982      9834.6406 
        9.3312         6.7811
    2894.68560 
       43.4646        78.3716        39.0783       117.6650      1374.6564 
       56.3574       102.4040     15153.7334      8339.7617        32.3108 
       32.3108        90.5324        24.8229         0.0007       0.282765 
     -999.2500      9803.0811      5133.6045      9959.7891      6668.9282 
      0.254489      2886.3589         2.4669         1.6518     12310.5742 
     4315.5498      6393.7573     17743.8984         1.8170      9765.2441 
        9.2365         6.6866
    2894.83800 
       43.5871        78.4109        38.3142       118.5075      1380.5532 
       56.0261       102.1797     15246.3018      8359.6914        33.0712 
       33.0712        92.6808        24.9368         0.0008       0.285057 
     -999.2500      9803.6631      5133.6987      9959.4932      6687.0547 
      0.256552      2967.5437         2.4667         1.6562     12509.1973 
     4350.5659      6440.1421     17848.8242         1.8238      9786.6797 
        9.2955         6.7454
    2894.99040 
       43.6583        79.8763        39.1247       120.6280      1383.9940 
       55.8340       101.4303     15344.9258      8446.8701        33.0025 
       33.0025        92.7675        25.3830         0.0008       0.282626 
     -999.2500      9804.2441      5133.7930      9961.0244      6668.6479 
      0.254363      2860.0676         2.4670         1.6516     12257.4307 
     4439.2324      6467.2900     17910.2344         1.8166      9858.9873 
        9.4440         6.8942
    2895.14280 
       43.6717        80.0461        39.5963       120.4959      1384.6388 
       55.7981       101.1364     15267.8477      8423.4453        32.6291 
       32.6291        91.1983        25.3862         0.0008       0.281211 
     -999.2500      9804.8271      5133.8872      9962.1709      6657.9648 
      0.253090      2795.2026         2.4671         1.6488     12106.3359 
     4433.6899      6472.3843     17921.7578         1.8125      9887.6367 
        9.4347         6.8849
    2895.29520 
       43.5296        78.5390        39.5574       117.5206      1377.7797 
       56.1816       101.8504     15037.6406      8294.8975        31.9361 
       31.9361        88.5200        24.8235         0.0007       0.281328 
     -999.2500      9805.4092      5133.9814      9962.7373      6658.8447 
      0.253195      2638.6089         2.4671         1.6490     11794.9072 
     4309.5630      6418.3027     17799.4238         1.8129      9818.3223 
        9.2264         6.6766
    2895.44760 
       43.0561        77.4734        42.2032       112.7435      1355.1541 
       57.4720       102.9124     14554.3691      8127.9683        29.0425 
       29.0425        79.7019        24.0729         0.0007       0.273390 
     -999.2500      9805.9912      5134.0757      9966.3906      6598.0039 
      0.246051      2585.6306         2.4679         1.6338     11567.2695 
     4113.4336      6241.6299     17399.7773         1.7907      9717.0020 
        8.8920         6.3475
    2895.60000 
       42.5238        78.1110        46.4933       109.7288      1330.1354 
       58.9456       103.5810     14177.6338      8068.1694        25.8275 
       25.8275        70.8146        23.7416         0.0007       0.260520 
     -999.2500      9806.5732      5134.1699      9971.8008      6502.0317 
      0.234468      2754.5015         2.4691         1.6100     11713.0664 
     3991.6716      6049.3350     16964.7949         1.7572      9654.2803 
        8.6810         6.1432
    2895.75240 
       42.3588        78.5005        48.0784       108.9226      1322.4634 
       59.4076       103.7034     14062.0215      8055.5791        24.7943 
       24.7943        67.9557        23.6766         0.0007       0.255765 
     -999.2500      9807.1553      5134.2642      9974.1396      6467.4766 
      0.230188      2861.0044         2.4696         1.6013     11856.9619 
     3959.3718      5991.0112     16832.8633         1.7456      9642.8848 
        8.6246         6.0890
    2895.90480 
       42.7149        77.5649        44.5409       110.5890      1339.0701 
       58.4136       103.5125     14320.3975      8081.2075        27.1319 
       27.1319        74.4620        23.7957         0.0007       0.266377 
     -999.2500      9807.7373      5134.3579      9970.8291      6545.9058 
      0.239739      2872.6196         2.4686         1.6207     12037.0508 
     4026.2542      6117.6382     17119.3008         1.7721      9660.6689 
        8.7412         6.2012
    2896.05720 
       43.3345        75.9278        38.5461       113.3095      1368.4154 
       56.7109       103.3119     14803.1211      8125.8628        31.6140 
       31.6140        87.0731        23.9736         0.0007       0.284362 
     -999.2500      9808.3203      5134.4517      9964.5732      6683.2490 
      0.255925      2974.0452         2.4669         1.6546     12514.5889 
     4136.4653      6344.8618     17633.2949         1.8217      9679.4277 
        8.9317         6.3861
