~Version Information Block
VERS .                  2.0:  CWLS LOG ASCII STANDARD - VERSION 2.0
WRAP .                  YES:  Multiple lines per depth step
~Well Information Block
#MNEM.UNIT        Data Type   Information
#---------- ----------------  -----------
STRT .M          2682.11640:  START DEPTH
STOP .M          3633.09240:  STOP DEPTH
STEP .M             0.15240:  STEP
NULL .              -999.25:  NULL VALUE
COMP .                     :  COMPANY
WELL .       RAAG-94-07-216:  WELL
FLD  .                     :  FIELD
LOC  .                     :  LOCATION
CTRY .                     :  COUNTRY
STAT .                     :  STATE
CNTY .                     :  COUNTY
SRVC .                     :  SERVICE COMPANY
DATE .                     :  DATE
API  .                     :  API NUMBER
UWI  .                     :  UNIQUE WELL ID
~Curve Information Block
#MNEM.UNIT         API CODE   Curve Description
#---------- ----------------  -----------------
DEPTH.M                    :  
ANGLE_FAIL.DEG                  :  Fail Angle
BRIT_IND.                     :  Brittleness Index
BRIT_PR.                     :  Brittleness Index from Poisson's Ratio
BRIT_YM.                     :  Brittleness Index from Young's Modulus
CS   .M/MIN                 :  Compressive Strength
IP   .RAYL/M2                 :  P Impedence
IS   .RAYL/M2                 :  S Impedance
KBULK.                     :  Bulk Mudulus
LAMBDA.                     :  Lambda
LAMRHO.                     :  
MU   .CP                   :  Mu
MURHO.(GF/C3S)2                 :  Mu*Rho
PR   .                     :  Poisson's ratio
PRESS_FG.PSI                  :  Fracture Gradient Pressure
PRESS_OB.PSI                  :  Over-burden Pressure
PRESS_PP.PSI                  :  Pore Pressure
PRESS_SHMAX.PSI                  :  Horizontal Stress (Max)
PRESS_SHMIN.PSI                  :  Horizontal Stress (Min)
PR_STAT.                     :  Poisson's ratio (Static)
PZS  .PSI                  :  Processed Zone Stress
SHMAX_GRAD.                     :  Horizontal Stress Gradient (Max)
SHMIN_GRAD.                     :  Horizontal Stress Gradient (Min)
STRESS_CUM.PSI                  :  Cumulative stress (SHPZ)
UCS_BF.PSI                  :  Uniaxial Compressive Strength (BF)
UCS_LAL.PSI                  :  Uniaxial Compressive Strength (lal)
VP   .FT/S                 :  Compressional velocity
VPVS .                     :  Vp / Vs ratio
VS   .FT/S                 :  Shear velocity
YM   .                     :  Youngs' Modulus
YM_STAT.                     :  Youngs' Modulus (Static)
~Parameter Information Block
#MNEM.UNIT            Value   Description
#---------- ----------------  -----------
PROJECT.          RDG_13Jul21:  
SET  .              GEOMECH:  
~Other Information Block
~Ascii Log Data
    2682.11640 
       29.1529        24.0863        31.7514        16.4212       809.0246 
     6974.0620      3695.8491         8.8641         8.8641        21.3189 
        5.6793         0.0001       0.304746      -999.2500      -999.2500 
     -999.2500      -999.2500      -999.2500       0.274271      1464.9402 
     -999.2500      -999.2500      -999.2500       992.0287      2755.3027 
     9513.4990         1.8870      5041.6035         2.1495         1.1097
    2682.26880 
       29.3109        26.3257        34.8347        17.8167       814.2757 
     7059.4565      3803.4736         8.6405         8.6405        20.9031 
        5.9798         0.0002       0.295496      -999.2500      -999.2500 
     -999.2500      -999.2500      -999.2500       0.265946      1465.7446 
     -999.2500      -999.2500      -999.2500      1025.9166      2781.9619 
     9573.8027         1.8561      5158.1460         2.2472         1.1666
    2682.42120 
       29.6115        26.3673        34.0742        18.6605       824.3153 
     7202.8232      3865.2725         9.0210         9.0210        22.0000 
        6.1262         0.0002       0.297778      -999.2500      -999.2500 
     -999.2500      -999.2500      -999.2500       0.268000      1480.6411 
     -999.2500      -999.2500      -999.2500      1046.5675      2833.2869 
     9689.9033         1.8635      5199.9219         2.3062         1.2013
    2682.57360 
       30.0009        26.7863        33.8876        19.6850       837.4055 
     7322.6831      3925.7166         9.3408         9.3408        22.7992 
        6.3140         0.0002       0.298337      -999.2500      8803.7637 
     4941.9312      8929.0215      6298.5981       0.268503      1518.7493 
        2.4378         1.7196      8834.6943      1071.8074      2900.9092 
     9842.8691         1.8653      5276.7974         2.3779         1.2436
    2682.72600 
       30.5592        26.5284        32.3231        20.7337       856.3581 
     7478.5635      3975.6726         9.9777         9.9777        24.3170 
        6.4855         0.0002       0.303031      -999.2500      8804.3271 
     4942.0576      8928.0234      6330.4058       0.272728      1583.6478 
        2.4374         1.7282      9028.1074      1097.8284      3000.2300 
    10067.5381         1.8811      5351.9951         2.4514         1.2873
    2682.87840 
       31.1312        26.7819        31.4504        22.1133       876.0013 
     7652.5210      4048.6340        10.5800        10.5800        25.7782 
        6.7275         0.0002       0.305649      -999.2500      8804.8906 
     4942.1836      8927.7109      6348.4858       0.275084      1604.5343 
        2.4372         1.7331      9106.0400      1132.3472      3104.9438 
    10304.4072         1.8901      5451.6382         2.5479         1.3452
    2683.03080 
       31.5578        25.4100        28.2991        22.5210       890.8053 
     7827.7983      4067.1685        11.5100        11.5100        28.1907 
        6.7539         0.0002       0.315103      -999.2500      8805.4541 
     4942.3101      8925.0400      6413.7334       0.283592      1553.8892 
        2.4363         1.7508      9135.2451      1142.6099      3185.0601 
    10485.6348         1.9246      5448.1274         2.5765         1.3624
    2683.18320 
       31.4972        24.1044        26.3911        21.8177       888.6956 
     7842.6714      4028.1926        11.8110        11.8110        29.0548 
        6.5961         0.0002       0.320827      -999.2500      8806.0176 
     4942.4360      8923.6152      6454.0645       0.288744      1437.9603 
        2.4358         1.7617      8984.0498      1124.9227      3173.5798 
    10459.6660         1.9469      5372.3467         2.5272         1.3327
    2683.33560 
       31.3753        23.4898        25.8070        21.1725       884.4549 
     7787.0059      3985.1421        11.7629        11.7629        28.8748 
        6.4697         0.0002       0.322579      -999.2500      8806.5820 
     4942.5620      8923.5752      6466.7129       0.290321      1276.9724 
        2.4356         1.7650      8687.3701      1108.7734      3150.5662 
    10407.6084         1.9540      5326.2827         2.4821         1.3056
    2683.48800 
       30.9670        23.6674        27.2357        20.0990       870.3368 
     7568.9395      3907.7080        11.0254        11.0254        26.7485 
        6.2942         0.0002       0.318293      -999.2500      8807.1455 
     4942.6880      8925.6650      6436.7524       0.286464      1101.1846 
        2.4360         1.7567      8275.8740      1082.0579      3074.5615 
    10235.6816         1.9369      5284.4990         2.4069         1.2608
    2683.64040 
       29.9198        24.2535        30.6338        17.8731       834.6705 
     7153.1152      3767.1438         9.5249         9.5249        22.7843 
        5.9326         0.0002       0.308099      -999.2500      8807.7090 
     4942.8145      8929.7754      6366.3809       0.277289      1176.4536 
        2.4370         1.7374      8285.6689      1027.2928      2886.7146 
     9810.7598         1.8988      5166.7759         2.2511         1.1689
    2683.79280 
       28.4874        26.0680        36.5677        15.5683       787.0773 
     6691.6309      3637.4424         7.7292         7.7292        18.3159 
        5.5834         0.0001       0.290297      -999.2500      8808.2715 
     4942.9404      8936.3076      6247.5493       0.261267      1016.3566 
        2.4386         1.7049      7727.8115       971.4799      2645.2534 
     9264.5605         1.8397      5036.0381         2.0898         1.0753
    2683.94520 
       27.8383        26.3777        38.2761        14.4793       765.9382 
     6530.1304      3579.8665         7.1698         7.1698        17.0117 
        5.4012         0.0001       0.285172      -999.2500      8808.8359 
     4943.0664      8938.5547      6214.4585       0.256654       849.1552 
        2.4391         1.6958      7327.2271       945.4258      2541.3428 
     9029.5078         1.8241      4950.0439         2.0136         1.0315
    2684.09760 
       27.7486        26.0446        37.7692        14.3199       763.0358 
     6541.7324      3577.3176         7.2106         7.2106        17.1999 
        5.3649         0.0001       0.286692      -999.2500      8809.3994 
     4943.1929      8938.6406      6224.5674       0.258023       839.2289 
        2.4390         1.6984      7327.5933       941.6288      2527.2351 
     8997.5957         1.8287      4920.2959         2.0024         1.0252
    2684.25000 
       27.7584        27.4911        39.9314        15.0507       763.3522 
     6600.8164      3647.5530         7.0498         7.0498        16.9615 
        5.5299         0.0001       0.280206      -999.2500      8809.9629 
     4943.3184      8941.3037      6183.1494       0.252185       919.5146 
        2.4396         1.6870      7405.3281       959.0716      2528.7710 
     9001.0703         1.8097      4973.9121         2.0536         1.0544
    2684.40240 
       28.3074        28.9110        40.9550        16.8669       781.1892 
     6809.6206      3781.0747         7.3197         7.3197        17.7779 
        5.8863         0.0002       0.277135      -999.2500      8810.5273 
     4943.4443      8942.8545      6163.9863       0.249421      1054.4838 
        2.4399         1.6817      7636.9404      1002.8162      2616.1050 
     9198.6250         1.8010      5107.5811         2.1807         1.1278
    2684.55480 
       29.4593        31.9732        43.1622        20.7843       819.2249 
     7213.0923      4045.6790         7.8519         7.8519        19.2937 
        6.6611         0.0002       0.270514      -999.2500      8811.0908 
     4943.5708      8945.5029      6122.8315       0.243462      1189.7806 
        2.4404         1.6704      7825.2246      1099.0881      2807.2053 
     9630.9053         1.7829      5401.7817         2.4549         1.2894
