~Version Information Block
VERS .                  2.0:  CWLS LOG ASCII STANDARD - VERSION 2.0
WRAP .                  YES:  Multiple lines per depth step
~Well Information Block
#MNEM.UNIT        Data Type   Information
#---------- ----------------  -----------
STRT .M          2738.62800:  START DEPTH
STOP .M          3798.57000:  STOP DEPTH
STEP .M             0.15240:  STEP
NULL .              -999.25:  NULL VALUE
COMP .                     :  COMPANY
WELL .      RAAG-106-07-211:  WELL
FLD  .                     :  FIELD
LOC  .                     :  LOCATION
CTRY .                     :  COUNTRY
STAT .                     :  STATE
CNTY .                     :  COUNTY
SRVC .                     :  SERVICE COMPANY
DATE .                     :  DATE
API  .                     :  API NUMBER
UWI  .                     :  UNIQUE WELL ID
~Curve Information Block
#MNEM.UNIT         API CODE   Curve Description
#---------- ----------------  -----------------
DEPTH.M                    :  
ANGLE_FAIL.DEG                  :  Fail Angle
BRIT_IND.                     :  Brittleness Index
BRIT_PR.                     :  Brittleness Index from Poisson's Ratio
BRIT_YM.                     :  Brittleness Index from Young's Modulus
CS   .M/MIN                 :  Compressive Strength
DTCO .US/F                 :  Compressional slowness
DTSM .US/F                 :  Fast Shear Slowness
IP   .RAYL/M2                 :  P Impedence
IS   .RAYL/M2                 :  S Impedance
KBULK.                     :  Bulk Mudulus
LAMBDA.                     :  Lambda
LAMRHO.                     :  
MU   .CP                   :  Mu
MURHO.(GF/C3S)2                 :  Mu*Rho
PR   .                     :  Poisson's ratio
PRESS_FG.PSI                  :  Fracture Gradient Pressure
PRESS_OB.PSI                  :  Over-burden Pressure
PRESS_PP.PSI                  :  Pore Pressure
PRESS_SHMAX.PSI                  :  Horizontal Stress (Max)
PRESS_SHMIN.PSI                  :  Horizontal Stress (Min)
PR_STAT.                     :  Poisson's ratio (Static)
PZS  .PSI                  :  Processed Zone Stress
SHMAX_GRAD.                     :  Horizontal Stress Gradient (Max)
SHMIN_GRAD.                     :  Horizontal Stress Gradient (Min)
STRESS_CUM.PSI                  :  Cumulative stress (SHPZ)
UCS_BF.PSI                  :  Uniaxial Compressive Strength (BF)
UCS_LAL.PSI                  :  Uniaxial Compressive Strength (lal)
VP   .FT/S                 :  Compressional velocity
VPVS .                     :  Vp / Vs ratio
VS   .FT/S                 :  Shear velocity
YM   .                     :  Youngs' Modulus
YM_STAT.                     :  Youngs' Modulus (Static)
~Parameter Information Block
#MNEM.UNIT            Value   Description
#---------- ----------------  -----------
PROJECT.          RDG_13Jul21:  
SET  .              GEOMECH:  
~Other Information Block
~Ascii Log Data
# ...
    3789.57840 
       39.8544        59.4102        40.8273        77.9930      1210.7435 
       66.7173       120.2277     12390.1738      6875.6113        21.7429 
       21.7429        58.9683        17.4310    0.000508853       0.277518 
     -999.2500     12428.5820      5360.6558     12667.6260      7647.7070 
      0.249766      3009.8972         2.5362         1.5311     14515.2080 
     2804.2461      5175.7153     14988.6162         1.8020      8317.5508 
        6.4595         4.1506
    3789.73080 
       39.9406        60.4779        41.5707        79.3851      1214.4501 
       66.4562       119.3452     12463.5742      6940.2188        21.7142 
       21.7142        59.0074        17.7249    0.000518461       0.275288 
     -999.2500     12429.1816      5360.6636     12669.5166      7622.4834 
      0.247759      2983.1521         2.5364         1.5260     14411.2715 
     2852.7173      5201.7490     15047.5049         1.7958      8379.0557 
        6.5570         4.2320
    3789.88320 
       39.8993        61.7509        43.3116        80.1902      1212.6732 
       66.5812       118.6291     12447.9580      6986.4814        21.0836 
       21.0836        57.3298        17.9507    0.000525396       0.270065 
     -999.2500     12429.7813      5360.6714     12673.0967      7563.4731 
      0.243059      3027.0596         2.5370         1.5141     14381.0654 
     2880.9026      5189.2603     15019.2539         1.7817      8429.6348 
        6.6133         4.2793
    3790.03560 
       39.7827        63.1116        45.5312        80.6920      1207.6664 
       66.9351       118.1045     12403.0898      7029.3853        20.1971 
       20.1971        55.0121        18.1412    0.000531869       0.263407 
     -999.2500     12430.3809      5360.6797     12677.4404      7489.1904 
      0.237066      3032.9736         2.5378         1.4992     14244.3281 
     2898.5266      5154.1553     14939.8457         1.7645      8467.0781 
        6.6484         4.3089
    3790.18800 
       39.6863        64.3182        47.4123        81.2241      1203.5417 
       67.2285       117.6805     12384.4600      7074.9927        19.4992 
       19.4992        53.2638        18.3247    0.000538793       0.257763 
     -999.2500     12430.9814      5360.6875     12681.1719      7427.1689 
      0.231987      2967.1074         2.5384         1.4867     13988.5527 
     2917.2610      5125.3311     14874.6436         1.7505      8497.5850 
        6.6857         4.3403
    3790.34040 
       39.6998        65.1067        48.1291        82.0842      1204.1182 
       67.1874       117.2595     12435.5859      7125.3477        19.3721 
       19.3721        53.1026        18.5214    0.000546490       0.255613 
     -999.2500     12431.5801      5360.6958     12682.9639      7403.9155 
      0.230051      2882.3196         2.5387         1.4820     13772.4707 
     2947.6455      5129.3535     14883.7432         1.7453      8528.0938 
        6.7459         4.3913
    3790.49280 
       39.8147        65.2943        47.8634        82.7253      1209.0408 
       66.8377       116.7773     12472.6045      7138.7178        19.6133 
       19.6133        53.6433        18.6327    0.000548543       0.256410 
     -999.2500     12432.1797      5360.7036     12683.1455      7412.8501 
      0.230769      2828.8975         2.5386         1.4837     13683.4951 
     2970.3745      5163.7793     14961.6172         1.7472      8563.3086 
        6.7908         4.4294
    3790.64520 
       39.9194        65.5433        47.8002        83.2863      1213.5383 
       66.5203       116.2532     12489.8242      7146.7017        19.7538 
       19.7538        53.8450        18.7377    0.000549770       0.256600 
     -999.2500     12432.7793      5360.7109     12683.6611      7415.1519 
      0.230940      2835.6660         2.5386         1.4841     13701.6357 
     2990.3250      5195.3384     15033.0039         1.7476      8601.9141 
        6.8300         4.4629
    3790.79760 
       39.9652        66.3038        48.6194        83.9883      1215.5098 
       66.3818       115.6205     12493.5234      7172.9717        19.5466 
       19.5466        53.1851        18.9095    0.000553820       0.254142 
     -999.2500     12433.3799      5360.7192     12685.6191      7388.6016 
      0.228728      2893.5059         2.5389         1.4788     13764.2148 
     3015.3621      5209.2046     15064.3701         1.7418      8648.9854 
        6.8792         4.5049
    3790.95000 
       40.0420        67.7914        49.8753        85.7074      1218.8228 
       66.1499       114.6322     12577.2686      7257.8657        19.3561 
       19.3561        52.8345        19.2982    0.000567006       0.250374 
     -999.2500     12433.9795      5360.7271     12688.2715      7348.1392 
      0.225337      2854.9839         2.5393         1.4706     13606.2461 
     3077.0315      5232.5508     15117.1807         1.7329      8723.5518 
        6.9995         4.6084
    3791.10240 
       40.1990        69.9120        51.3614        88.4625      1225.6196 
       65.6775       113.1456     12726.7207      7387.4648        19.2611 
       19.2611        52.8201        19.9009    0.000587437       0.245916 
     -999.2500     12434.5791      5360.7349     12691.2715      7300.7368 
      0.221324      2675.9189         2.5398         1.4610     13153.3115 
     3176.9221      5280.6196     15225.9150         1.7227      8838.1689 
        7.1924         4.7760
    3791.25480 
       40.3462        72.7210        53.8813        91.5607      1232.0216 
       65.2366       111.3043     12850.9512      7532.0757        18.7903 
       18.7903        51.6826        20.6261    0.000610660       0.238356 
     -999.2500     12435.1787      5360.7432     12695.8770      7221.2144 
      0.214520      2413.2866         2.5406         1.4451     12469.0010 
     3290.8027      5326.1104     15328.8174         1.7062      8984.3789 
        7.4092         4.9671
    3791.40720 
       40.4019        76.1968        57.9718        94.4218      1234.4514 
       65.0703       109.3758     12905.3896      7677.7271        17.6596 
       17.6596        48.6541        21.3957    0.000634506       0.226084 
     -999.2500     12435.7793      5360.7510     12702.8311      7094.7363 
      0.203476      2172.0820         2.5419         1.4197     11733.6367 
     3397.4292      5343.4297     15367.9951         1.6809      9142.7900 
        7.6095         5.1460
    3791.55960 
       40.3939      -999.2500        63.0189      -999.2500      1234.1002 
       65.0943       107.5488      -999.2500      -999.2500      -999.2500 
     -999.2500      -999.2500      -999.2500 -999.250000000       0.210943 
     -999.2500     12436.3779      5360.7583      -999.2500      -999.2500 
      0.189849      2000.7524      -999.2500      -999.2500      -999.2500 
     -999.2500      5340.9243     15362.3281         1.6522      9298.1045 
     -999.2500      -999.2500
    3791.71200 
       40.4071      -999.2500        67.6819      -999.2500      1234.6797 
       65.0547       105.8997      -999.2500      -999.2500      -999.2500 
     -999.2500      -999.2500      -999.2500 -999.250000000       0.196954 
     -999.2500     12436.9775      5360.7661      -999.2500      -999.2500 
      0.177259      1899.1454      -999.2500      -999.2500      -999.2500 
     -999.2500      5345.0581     15371.6787         1.6279      9442.8984 
     -999.2500      -999.2500
    3791.86440 
       40.5185      -999.2500        70.6011      -999.2500      1239.5507 
       64.7231       104.4346      -999.2500      -999.2500      -999.2500 
     -999.2500      -999.2500      -999.2500 -999.250000000       0.188197 
     -999.2500     12437.5771      5360.7739      -999.2500      -999.2500 
      0.169377      1853.7303      -999.2500      -999.2500      -999.2500 
     -999.2500      5379.8740     15450.4346         1.6136      9575.3711 
     -999.2500      -999.2500
