~Version Information Block
VERS .                  2.0:  CWLS LOG ASCII STANDARD - VERSION 2.0
WRAP .                   NO:  One line per depth step
~Well Information Block
#MNEM.UNIT        Data Type   Information
#---------- ----------------  -----------
STRT .M          2889.76360:  START DEPTH
STOP .M          3614.73040:  STOP DEPTH
STEP .M             0.15240:  STEP
NULL .              -999.25:  NULL VALUE
COMP .                     :  COMPANY
WELL .       RAAG-89-05-105:  WELL
FLD  .                     :  FIELD
LOC  .                     :  LOCATION
CTRY .                     :  COUNTRY
STAT .                     :  STATE
CNTY .                     :  COUNTY
SRVC .                     :  SERVICE COMPANY
DATE .                     :  DATE
API  .                     :  API NUMBER
UWI  .                     :  UNIQUE WELL ID
~Curve Information Block
#MNEM.UNIT         API CODE   Curve Description
#---------- ----------------  -----------------
DEPTH.M                    :  
PRESS_PP.PSI                  :  Pore Pressure
PZS  .PSI                  :  Processed Zone Stress
~Parameter Information Block
#MNEM.UNIT            Value   Description
#---------- ----------------  -----------
PROJECT.          RDG_13Jul21:  
SET  .              GEOMECH:  
~Other Information Block
# 
~A       DEPTH       PRESS_PP            PZS 
    2889.76360      -999.2500      2163.0420
    2889.91600      -999.2500      2137.6274
    2890.06840      5104.4639      2112.4521
    2890.22080      5104.5640      2083.0061
    2890.37320      5104.6631      2078.5054
    2890.52560      5104.7632      2074.0122
    2890.67800      5104.8623      2062.8135
    2890.83040      5104.9619      2085.2595
    2890.98280      5105.0615      2094.2925
    2891.13520      5105.1611      2071.7686
    2891.28760      5105.2603      2058.3474
    2891.44000      5105.3604      2083.0061
    2891.59240      5105.4595      2126.1545
    2891.74480      5105.5591      2184.0151
    2891.89720      5105.6582      2191.0422
    2892.04960      5105.7578      2153.7727
    2892.20200      5105.8569      2094.2925
    2892.35440      5105.9565      2049.4387
    2892.50680      5106.0557      1955.6041
    2892.65920      5106.1548      1904.7460
    2892.81160      5106.2544      1854.9514
    2892.96400      5106.3540      1796.1782
    2893.11640      5106.4526      1780.2301
    2893.26880      5106.5522      1812.2406
    2893.42120      5106.6509      1780.2301
    2893.57360      5106.7505      1660.4332
    2893.72600      5106.8496      1486.0220
    2893.87840      5106.9482      1351.8944
    2894.03080      5107.0479      1289.3323
    2894.18320      5107.1470      1318.7537
    2894.33560      5107.2456      1384.0732
    2894.48800      5107.3447      1458.7188
    2894.64040      5107.4434      1586.6317
    2894.79280      5107.5425      1524.2300
    2894.94520      5107.6416      1470.6140
    2895.09760      5107.7407      1457.0256
    2895.25000      5107.8394      1480.8717
    2895.40240      5107.9380      1475.7357
    2895.55480      5108.0371      1403.6727
    2895.70720      5108.1362      1272.5403
    2895.85960      5108.2349      1125.0085
    2896.01200      5108.3335       993.9789
    2896.16440      5108.4321       891.3284
    2896.31680      5108.5313       906.2756
    2896.46920      5108.6299       971.7487
    2896.62160      5108.7285      1033.2168
    2896.77400      5108.8276      1040.9524
    2896.92640      5108.9263       958.3606
    2897.07880      5109.0249       916.7404
    2897.23120      5109.1235       919.0791
    2897.38360      5109.2222       952.3240
    2897.53600      5109.3203       991.4890
    2897.68840      5109.4194       980.3459
    2897.84080      5109.5181       921.4225
    2897.99320      5109.6162       955.9423
    2898.14560      5109.7148      1095.0609
    2898.29800      5109.8130      1325.0155
    2898.45040      5109.9111      1561.4304
    2898.60280      5110.0098      1572.1915
    2898.75520      5110.1084      1477.4462
    2898.90760      5110.2065      1347.1196
    2899.06000      5110.3047      1226.1569
    2899.21240      5110.4033      1138.8361
    2899.36480      5110.5020      1089.6851
    2899.51720      5110.6001      1148.5957
    2899.66960      5110.6982      1236.5103
    2899.82200      5110.7964      1312.5155
    2899.97440      5110.8945      1433.4878
    2900.12680      5110.9927      1561.4304
    2900.27920      5111.0908      1750.6326
    2900.43160      5111.1890      1867.3013
    2900.58400      5111.2876      1830.4478
    2900.73640      5111.3857      1717.5660
    2900.88880      5111.4834      1688.8064
    2901.04120      5111.5820      1603.0037
    2901.19360      5111.6802      1470.6140
    2901.34600      5111.7778      1345.5310
    2901.49840      5111.8760      1331.3011
    2901.65080      5111.9736      1522.4763
    2901.80320      5112.0718      1731.1206
    2901.95560      5112.1699      1834.5137
    2902.10800      5112.2676      1782.2174
    2902.26040      5112.3652      1656.6792
    2902.41280      5112.4634      1717.5660
    2902.56520      5112.5610      1814.2565
    2902.71760      5112.6587      1826.3892
    2902.87000      5112.7568      1719.4972
    2903.02240      5112.8545      1575.7916
    2903.17480      5112.9521      1224.6833
    2903.32720      5113.0503      1131.9054
    2903.47960      5113.1475      1212.9471
    2903.63200      5113.2456      1392.2130
    2903.78440      5113.3433      1520.7244
    2903.93680      5113.4404      1499.8260
    2904.08920      5113.5386      1418.5176
    2904.24160      5113.6362      1380.8280
    2904.39400      5113.7334      1418.5176
    2904.54640      5113.8315      1451.9561
    2904.69880      5113.9287      1511.9886
    2904.85120      5114.0264      1583.0118
    2905.00360      5114.1235      1673.6262
    2905.15600      5114.2212      1780.2301
    2905.30840      5114.3184      1869.3660
    2905.46080      5114.4155      1869.3660
    2905.61320      5114.5132      1760.4543
    2905.76560      5114.6108      1593.8915
    2905.91800      5114.7080      1440.1815
    2906.07040      5114.8052      1387.3245
    2906.22280      5114.9028      1463.8073
    2906.37520      5115.0005      1540.0852
    2906.52760      5115.0972      1556.0721
    2906.68000      5115.1948      1511.9886
    2906.83240      5115.2920      1496.3655
    2906.98480      5115.3887      1601.1780
    2907.13720      5115.4863      1669.8483
    2907.28960      5115.5835      1675.5177
    2907.44200      5115.6802      1610.3232
    2907.59440      5115.7773      1475.7357
    2907.74680      5115.8745      1369.5178
    2907.89920      5115.9717      1281.6777
    2908.05160      5116.0684      1223.2115
    2908.20400      5116.1655      1195.5117
    2908.35640      5116.2627      1195.5117
    2908.50880      5116.3594      1254.4219
    2908.66120      5116.4561      1339.1917
    2908.81360      5116.5532      1494.6376
    2908.96600      5116.6504      1694.5272
    2909.11840      5116.7471      1725.3011
    2909.27080      5116.8442      1723.3647
    2909.42320      5116.9409      1706.0155
    2909.57560      5117.0371      1623.1970
    2909.72800      5117.1343      1462.1095
    2909.88040      5117.2310      1266.4777
    2910.03280      5117.3281      1130.5233
    2910.18520      5117.4248      1097.7568
    2910.33760      5117.5215      1171.1553
    2910.49000      5117.6182      1356.6827
    2910.64240      5117.7148      1649.1914
    2910.79480      5117.8115      1704.0966
    2910.94720      5117.9082      1630.5902
    2911.09960      5118.0044      1599.3539
    2911.25200      5118.1011      1667.9618
    2911.40440      5118.1978      1719.4972
    2911.55680      5118.2939      1725.3011
    2911.70920      5118.3906      1690.7117
    2911.86160      5118.4868      1679.3059
    2912.01400      5118.5840      1733.0640
    2912.16640      5118.6802      1881.7925
    2912.31880      5118.7764      1917.3601
    2912.47120      5118.8726      1970.6406
    2912.62360      5118.9688      2044.9961
    2912.77600      5119.0654      2135.3289
    2912.92840      5119.1621      2243.1287
    2913.08080      5119.2583      2252.7043
    2913.23320      5119.3540      2158.4033
    2913.38560      5119.4507      2051.6631
    2913.53800      5119.5469      1996.6324
    2913.69040      5119.6431      2029.5071
    2913.84280      5119.7388      2089.7720
    2913.99520      5119.8354      2042.7776
    2914.14760      5119.9312      1942.7889
    2914.30000      5120.0273      1828.4176
    2914.45240      5120.1235      1681.2026
    2914.60480      5120.2197      1654.8047
    2914.75720      5120.3154      1702.1792
    2914.90960      5120.4116      1768.3435
    2915.06200      5120.5073      1814.2565
    2915.21440      5120.6035      1842.6671
    2915.36680      5120.6992      1927.9230
    2915.51920      5120.7954      1987.9381
    2915.67160      5120.8911      2033.9230
    2915.82400      5120.9873      2056.1174
    2915.97640      5121.0830      1970.6406
    2916.12880      5121.1787      1934.2830
    2916.28120      5121.2744      1977.1130
    2916.43360      5121.3706      2007.5430
    2916.58600      5121.4663      1977.1130
    2916.73840      5121.5620      1921.5796
