~Version Information Block
VERS .                  2.0:  CWLS LOG ASCII STANDARD - VERSION 2.0
WRAP .                   NO:  One line per depth step
~Well Information Block
#MNEM.UNIT        Data Type   Information
#---------- ----------------  -----------
STRT .M                0.00:  START DEPTH
STOP .M             3613.00:  STOP DEPTH
STEP .M                0.50:  STEP
NULL .              -999.25:  NULL VALUE
COMP .                     :  COMPANY
WELL .      RAAG-100-07-213:  WELL
FLD  .                     :  FIELD
LOC  .                     :  LOCATION
CTRY .                     :  COUNTRY
STAT .                     :  STATE
CNTY .                     :  COUNTY
SRVC .                     :  SERVICE COMPANY
DATE .                     :  DATE
API  .                     :  API NUMBER
UWI  .                     :  UNIQUE WELL ID
~Curve Information Block
#MNEM.UNIT         API CODE   Curve Description
#---------- ----------------  -----------------
DEPTH.M                    :  
OBG  .G/CC                 :  2.174+0.00008962*TVDSS
PP   .G/CC                 :  2.1087-0.00029524*TVDSS
~Parameter Information Block
#MNEM.UNIT            Value   Description
#---------- ----------------  -----------
PROJECT.          RDG_13Jul21:  
SET  .              GEOMECH:  
~Other Information Block
# 
~A       DEPTH            OBG             PP 
# ...
       2581.00         2.3974         1.3728
       2581.50         2.3974         1.3726
       2582.00         2.3975         1.3725
       2582.50         2.3975         1.3723
       2583.00         2.3976         1.3722
       2583.50         2.3976         1.3721
       2584.00         2.3977         1.3719
       2584.50         2.3977         1.3718
       2585.00         2.3977         1.3716
       2585.50         2.3978         1.3715
       2586.00         2.3978         1.3713
       2586.50         2.3979         1.3712
       2587.00         2.3979         1.3710
       2587.50         2.3980         1.3709
       2588.00         2.3980         1.3707
       2588.50         2.3981         1.3706
       2589.00         2.3981         1.3704
       2589.50         2.3981         1.3703
       2590.00         2.3982         1.3701
       2590.50         2.3982         1.3700
       2591.00         2.3983         1.3698
       2591.50         2.3983         1.3697
       2592.00         2.3984         1.3695
       2592.50         2.3984         1.3694
       2593.00         2.3985         1.3692
       2593.50         2.3985         1.3691
       2594.00         2.3986         1.3690
       2594.50         2.3986         1.3688
       2595.00         2.3986         1.3687
       2595.50         2.3987         1.3685
       2596.00         2.3987         1.3684
       2596.50         2.3988         1.3682
       2597.00         2.3988         1.3681
       2597.50         2.3989         1.3679
       2598.00         2.3989         1.3678
       2598.50         2.3990         1.3676
       2599.00         2.3990         1.3675
       2599.50         2.3990         1.3673
       2600.00         2.3991         1.3672
       2600.50         2.3991         1.3670
       2601.00         2.3992         1.3669
       2601.50         2.3992         1.3667
       2602.00         2.3993         1.3666
       2602.50         2.3993         1.3664
       2603.00         2.3994         1.3663
       2603.50         2.3994         1.3661
       2604.00         2.3994         1.3660
       2604.50         2.3995         1.3659
       2605.00         2.3995         1.3657
       2605.50         2.3996         1.3656
       2606.00         2.3996         1.3654
       2606.50         2.3997         1.3653
       2607.00         2.3997         1.3651
       2607.50         2.3998         1.3650
       2608.00         2.3998         1.3648
       2608.50         2.3999         1.3647
       2609.00         2.3999         1.3645
       2609.50         2.3999         1.3644
       2610.00         2.4000         1.3642
       2610.50         2.4000         1.3641
       2611.00         2.4001         1.3639
       2611.50         2.4001         1.3638
       2612.00         2.4002         1.3636
       2612.50         2.4002         1.3635
       2613.00         2.4003         1.3633
       2613.50         2.4003         1.3632
       2614.00         2.4003         1.3630
       2614.50         2.4004         1.3629
       2615.00         2.4004         1.3628
       2615.50         2.4005         1.3626
       2616.00         2.4005         1.3625
       2616.50         2.4006         1.3623
       2617.00         2.4006         1.3622
       2617.50         2.4007         1.3620
       2618.00         2.4007         1.3619
       2618.50         2.4007         1.3617
       2619.00         2.4008         1.3616
       2619.50         2.4008         1.3614
       2620.00         2.4009         1.3613
       2620.50         2.4009         1.3611
       2621.00         2.4010         1.3610
       2621.50         2.4010         1.3608
       2622.00         2.4011         1.3607
       2622.50         2.4011         1.3605
       2623.00         2.4011         1.3604
       2623.50         2.4012         1.3602
       2624.00         2.4012         1.3601
       2624.50         2.4013         1.3599
       2625.00         2.4013         1.3598
       2625.50         2.4014         1.3597
       2626.00         2.4014         1.3595
       2626.50         2.4015         1.3594
       2627.00         2.4015         1.3592
       2627.50         2.4016         1.3591
       2628.00         2.4016         1.3589
       2628.50         2.4016         1.3588
       2629.00         2.4017         1.3586
       2629.50         2.4017         1.3585
       2630.00         2.4018         1.3583
       2630.50         2.4018         1.3582
       2631.00         2.4019         1.3580
       2631.50         2.4019         1.3579
       2632.00         2.4020         1.3577
       2632.50         2.4020         1.3576
       2633.00         2.4020         1.3574
       2633.50         2.4021         1.3573
       2634.00         2.4021         1.3571
       2634.50         2.4022         1.3570
       2635.00         2.4022         1.3568
       2635.50         2.4023         1.3567
       2636.00         2.4023         1.3566
       2636.50         2.4024         1.3564
       2637.00         2.4024         1.3563
       2637.50         2.4024         1.3561
       2638.00         2.4025         1.3560
       2638.50         2.4025         1.3558
       2639.00         2.4026         1.3557
       2639.50         2.4026         1.3555
       2640.00         2.4027         1.3554
       2640.50         2.4027         1.3552
       2641.00         2.4028         1.3551
       2641.50         2.4028         1.3549
       2642.00         2.4029         1.3548
       2642.50         2.4029         1.3546
       2643.00         2.4029         1.3545
       2643.50         2.4030         1.3543
       2644.00         2.4030         1.3542
       2644.50         2.4031         1.3540
       2645.00         2.4031         1.3539
       2645.50         2.4032         1.3537
       2646.00         2.4032         1.3536
       2646.50         2.4033         1.3535
       2647.00         2.4033         1.3533
       2647.50         2.4033         1.3532
       2648.00         2.4034         1.3530
       2648.50         2.4034         1.3529
       2649.00         2.4035         1.3527
       2649.50         2.4035         1.3526
       2650.00         2.4036         1.3524
       2650.50         2.4036         1.3523
       2651.00         2.4037         1.3521
       2651.50         2.4037         1.3520
       2652.00         2.4037         1.3518
       2652.50         2.4038         1.3517
       2653.00         2.4038         1.3515
       2653.50         2.4039         1.3514
       2654.00         2.4039         1.3512
       2654.50         2.4040         1.3511
       2655.00         2.4040         1.3509
       2655.50         2.4041         1.3508
       2656.00         2.4041         1.3506
       2656.50         2.4042         1.3505
       2657.00         2.4042         1.3504
       2657.50         2.4042         1.3502
       2658.00         2.4043         1.3501
       2658.50         2.4043         1.3499
       2659.00         2.4044         1.3498
       2659.50         2.4044         1.3496
       2660.00         2.4045         1.3495
       2660.50         2.4045         1.3493
       2661.00         2.4046         1.3492
       2661.50         2.4046         1.3490
       2662.00         2.4046         1.3489
       2662.50         2.4047         1.3487
       2663.00         2.4047         1.3486
       2663.50         2.4048         1.3484
       2664.00         2.4048         1.3483
       2664.50         2.4049         1.3481
       2665.00         2.4049         1.3480
       2665.50         2.4050         1.3478
       2666.00         2.4050         1.3477
       2666.50         2.4050         1.3475
       2667.00         2.4051         1.3474
       2667.50         2.4051         1.3473
       2668.00         2.4052         1.3471
       2668.50         2.4052         1.3470
       2669.00         2.4053         1.3468
       2669.50         2.4053         1.3467
