~Version Information Block
VERS .                  2.0:  CWLS LOG ASCII STANDARD - VERSION 2.0
WRAP .                  YES:  Multiple lines per depth step
~Well Information Block
#MNEM.UNIT        Data Type   Information
#---------- ----------------  -----------
STRT .M          2776.00000:  START DEPTH
STOP .M          3750.44560:  STOP DEPTH
STEP .M             0.15240:  STEP
NULL .              -999.25:  NULL VALUE
COMP .                     :  COMPANY
WELL .      RAAG-102-07-105:  WELL
FLD  .                     :  FIELD
LOC  .                     :  LOCATION
CTRY .                     :  COUNTRY
STAT .                     :  STATE
CNTY .                     :  COUNTY
SRVC .                     :  SERVICE COMPANY
DATE .                     :  DATE
API  .                     :  API NUMBER
UWI  .                     :  UNIQUE WELL ID
~Curve Information Block
#MNEM.UNIT         API CODE   Curve Description
#---------- ----------------  -----------------
DEPTH.M                    :  
ANGLE_FAIL.DEG                  :  Fail Angle
BRIT_IND.                     :  Brittleness Index
BRIT_PR.                     :  Brittleness Index from Poisson's Ratio
BRIT_YM.                     :  Brittleness Index from Young's Modulus
CS   .M/MIN                 :  Compressive Strength
DTCO .US/F                 :  Compressional slowness
DTSM .US/F                 :  Fast Shear Slowness
IP   .RAYL/M2                 :  P Impedence
IS   .RAYL/M2                 :  S Impedance
KBULK.                     :  Bulk Mudulus
LAMBDA.                     :  Lambda
LAMRHO.                     :  
MU   .CP                   :  Mu
MURHO.(GF/C3S)2                 :  Mu*Rho
PR   .                     :  Poisson's ratio
PRESS_FG.PSI                  :  Fracture Gradient Pressure
PRESS_OB.PSI                  :  Over-burden Pressure
PRESS_PP.PSI                  :  Pore Pressure
PRESS_SHMAX.PSI                  :  Horizontal Stress (Max)
PRESS_SHMIN.PSI                  :  Horizontal Stress (Min)
PR_STAT.                     :  Poisson's ratio (Static)
PZS  .PSI                  :  Processed Zone Stress
SHMAX_GRAD.                     :  Horizontal Stress Gradient (Max)
SHMIN_GRAD.                     :  Horizontal Stress Gradient (Min)
STRESS_CUM.PSI                  :  Cumulative stress (SHPZ)
UCS_BF.PSI                  :  Uniaxial Compressive Strength (BF)
UCS_LAL.PSI                  :  Uniaxial Compressive Strength (lal)
VP   .FT/S                 :  Compressional velocity
VPVS .                     :  Vp / Vs ratio
VS   .FT/S                 :  Shear velocity
YM   .                     :  Youngs' Modulus
YM_STAT.                     :  Youngs' Modulus (Static)
~Parameter Information Block
#MNEM.UNIT            Value   Description
#---------- ----------------  -----------
PROJECT.          RDG_13Jul21:  
SET  .              GEOMECH:  
~Other Information Block
~Ascii Log Data
# ...
    3061.29280 
       38.3826        41.2921        25.0350        57.5492      1148.8379 
       71.2851       139.9701     11797.7168      6008.4365        24.2765 
       24.2765        66.9835        13.0840    0.000388591       0.324895 
     -999.2500      9776.6758      5129.3071      9915.8164      6993.8555 
      0.292406      2780.3293         2.4620         1.7365     12748.3701 
     2130.5913      4751.1289     14028.1758         1.9635      7144.3838 
        5.0284         3.0203
    3061.44520 
       38.3543        45.3016        29.8141        60.7891      1147.6709 
       71.3751       136.1624     11780.8857      6175.4341        22.6616 
       22.6616        62.5173        13.8237    0.000410492       0.310558 
     -999.2500      9777.2568      5129.4023      9922.4160      6874.0771 
      0.279502      2844.1936         2.4636         1.7067     12636.5420 
     2232.5820      4743.3096     14010.4883         1.9077      7344.1714 
        5.2552         3.1914
    3061.59760 
       38.5068        45.9390        30.1404        61.7376      1153.9619 
       70.8917       134.9879     11813.5762      6204.1450        22.7750 
       22.7750        62.5777        14.0088    0.000414318       0.309579 
     -999.2500      9777.8398      5129.4976      9923.4131      6866.3721 
      0.278621      2822.1323         2.4637         1.7047     12577.0088 
     2262.7791      4785.5435     14106.0244         1.9041      7408.0718 
        5.3216         3.2421
    3061.75000 
       38.4968        46.1760        30.6664        61.6856      1153.5515 
       70.9231       134.6452     11754.5977      6191.6245        22.4844 
       22.4844        61.4981        14.0161    0.000412648       0.308001 
     -999.2500      9778.4209      5129.5928      9924.6572      6853.7002 
      0.277201      2702.2114         2.4638         1.7015     12311.8232 
     2261.1204      4782.7822     14099.7783         1.8985      7426.9258 
        5.3180         3.2393
    3061.90240 
       38.1546        46.3713        32.4164        60.3262      1139.4746 
       72.0114       135.3903     11542.3105      6139.1240        21.2131 
       21.2131        57.8472        13.8208    0.000405679       0.302751 
     -999.2500      9779.0029      5129.6875      9927.3955      6811.1523 
      0.272476      2516.1333         2.4644         1.6908     11854.5713 
     2217.8992      4688.5815     13886.6895         1.8801      7386.0532 
        5.2228         3.1668
    3062.05480 
       37.8535        46.4093        33.7893        59.0293      1127.2007 
       72.9782       136.1981     11361.2930      6087.6523        20.2041 
       20.2041        54.9599        13.6237    0.000398905       0.298632 
     -999.2500      9779.5840      5129.7822      9929.6533      6778.1997 
      0.268769      2407.9661         2.4648         1.6825     11572.3311 
     2176.9607      4607.2539     13702.7207         1.8663      7342.2456 
        5.1320         3.0981
    3062.20720 
       37.6479        45.9091        34.0572        57.7610      1118.8735 
       73.6438       137.2454     11241.6094      6032.0767        19.7347 
       19.7347        53.6019        13.3963    0.000391655       0.297828 
     -999.2500      9780.1660      5129.8774      9930.5762      6771.9541 
      0.268046      2388.7261         2.4649         1.6809     11521.3604 
     2137.2039      4552.5044     13578.8760         1.8636      7286.2183 
        5.0433         3.0313
    3062.35960 
       37.3354        44.6627        33.7441        55.5813      1106.3087 
       74.6632       139.3762     11081.1113      5936.1011        19.2736 
       19.2736        52.3164        12.9816    0.000379291       0.298768 
     -999.2500      9780.7471      5129.9727      9930.8057      6779.5830 
      0.268891      2450.5483         2.4648         1.6827     11660.2627 
     2069.5186      4470.5454     13393.4785         1.8667      7174.8262 
        4.8907         2.9178
    3062.51200 
       37.1068        42.0448        31.4371        52.6526      1097.1810 
       75.4153       142.5567     10937.6260      5786.2192        19.4627 
       19.4627        52.6710        12.3715    0.000360379       0.305689 
     -999.2500      9781.3291      5130.0674      9928.6182      6835.5581 
      0.275120      2529.3132         2.4642         1.6965     11929.7432 
     1979.8575      4411.4976     13259.9092         1.8903      7014.7529 
        4.6857         2.7673
    3062.66440 
       36.9129        38.9799        28.3913        49.5684      1089.4851 
       76.0571       146.3020     10820.6631      5625.2695        19.9250 
       19.9250        53.7994        11.7195    0.000340609       0.314826 
     -999.2500      9781.9111      5130.1626      9925.4600      6910.9248 
      0.283343      2556.3076         2.4632         1.7151     12134.4648 
     1887.0231      4362.0327     13148.0166         1.9236      6835.1768 
        4.4698         2.6115
    3062.81680 
       36.7686        36.7190        26.1194        47.3187      1083.7832 
       76.5372       149.2642     10742.5820      5508.4014        20.2845 
       20.2845        54.7181        11.2482    0.000326604       0.321642 
     -999.2500      9782.4922      5130.2578      9923.1992      6968.3657 
      0.289478      2607.9031         2.4626         1.7293     12352.5381 
     1820.3298      4325.5723     13065.5420         1.9502      6699.5298 
        4.3123         2.4996
    3062.96920 
       36.7102        35.5898        24.8235        46.3561      1081.4781 
       76.7324       150.8687     10744.2080      5464.5459        20.5986 
       20.5986        55.7155        11.0400    0.000321424       0.325529 
     -999.2500      9783.0742      5130.3525      9922.1416      7001.7271 
      0.292976      2679.6274         2.4622         1.7375     12562.7090 
     1792.0598      4310.8789     13032.3047         1.9662      6628.2803 
        4.2449         2.4522
    3063.12160 
       36.5565        35.2487        24.8672        45.6303      1075.4390 
       77.2469       151.8381     10681.9131      5434.3716        20.3306 
       20.3306        55.0385        10.9090    0.000317884       0.325399 
     -999.2500      9783.6563      5130.4478      9922.7969      7000.8521 
      0.292859      2730.9978         2.4622         1.7372     12663.6992 
     1770.8486      4272.5063     12945.5029         1.9656      6585.9619 
        4.1941         2.4166
    3063.27400 
       36.4696        35.2498        25.1070        45.3926      1072.0334 
       77.5390       152.1803     10653.0674      5427.9575        20.1332 
       20.1332        54.5624        10.8716    0.000317134       0.324679 
     -999.2500      9784.2383      5130.5425      9923.7012      6994.9741 
      0.292211      2736.8467         2.4623         1.7356     12663.6416 
     1763.9215      4250.9473     12896.7354         1.9626      6571.1528 
        4.1775         2.4050
    3063.42640 
       36.4757        35.2295        25.1140        45.3450      1072.2720 
       77.5185       152.1333     10640.9756      5422.0376        20.1138 
       20.1138        54.4334        10.8631    0.000316443       0.324658 
     -999.2500      9784.8193      5130.6367      9924.3066      6995.0854 
      0.292192      2725.4346         2.4623         1.7355     12641.0400 
     1762.5349      4252.4551     12900.1465         1.9625      6573.1826 
        4.1741         2.4027
    3063.57880 
       36.5205        35.0162        24.7497        45.2827      1074.0251 
       77.3680       152.1901     10649.7090      5413.9312        20.2701 
       20.2701        54.7950        10.8428    0.000315497       0.325751 
     -999.2500      9785.4023      5130.7319      9924.4355      7004.7354 
      0.293176      2717.4824         2.4622         1.7378     12644.4355 
     1760.7224      4263.5488     12925.2412         1.9671      6570.7295 
        4.1698         2.3996
