~Version Information Block
VERS .                  2.0:  CWLS LOG ASCII STANDARD - VERSION 2.0
WRAP .                  YES:  Multiple lines per depth step
~Well Information Block
#MNEM.UNIT        Data Type   Information
#---------- ----------------  -----------
STRT .M          2682.11640:  START DEPTH
STOP .M          3633.09240:  STOP DEPTH
STEP .M             0.15240:  STEP
NULL .              -999.25:  NULL VALUE
COMP .                     :  COMPANY
WELL .       RAAG-94-07-216:  WELL
FLD  .                     :  FIELD
LOC  .                     :  LOCATION
CTRY .                     :  COUNTRY
STAT .                     :  STATE
CNTY .                     :  COUNTY
SRVC .                     :  SERVICE COMPANY
DATE .                     :  DATE
API  .                     :  API NUMBER
UWI  .                     :  UNIQUE WELL ID
~Curve Information Block
#MNEM.UNIT         API CODE   Curve Description
#---------- ----------------  -----------------
DEPTH.M                    :  
ANGLE_FAIL.DEG                  :  Fail Angle
BRIT_IND.                     :  Brittleness Index
BRIT_PR.                     :  Brittleness Index from Poisson's Ratio
BRIT_YM.                     :  Brittleness Index from Young's Modulus
CS   .M/MIN                 :  Compressive Strength
IP   .RAYL/M2                 :  P Impedence
IS   .RAYL/M2                 :  S Impedance
KBULK.                     :  Bulk Mudulus
LAMBDA.                     :  Lambda
LAMRHO.                     :  
MU   .CP                   :  Mu
MURHO.(GF/C3S)2                 :  Mu*Rho
PR   .                     :  Poisson's ratio
PRESS_FG.PSI                  :  Fracture Gradient Pressure
PRESS_OB.PSI                  :  Over-burden Pressure
PRESS_PP.PSI                  :  Pore Pressure
PRESS_SHMAX.PSI                  :  Horizontal Stress (Max)
PRESS_SHMIN.PSI                  :  Horizontal Stress (Min)
PR_STAT.                     :  Poisson's ratio (Static)
PZS  .PSI                  :  Processed Zone Stress
SHMAX_GRAD.                     :  Horizontal Stress Gradient (Max)
SHMIN_GRAD.                     :  Horizontal Stress Gradient (Min)
STRESS_CUM.PSI                  :  Cumulative stress (SHPZ)
UCS_BF.PSI                  :  Uniaxial Compressive Strength (BF)
UCS_LAL.PSI                  :  Uniaxial Compressive Strength (lal)
VP   .FT/S                 :  Compressional velocity
VPVS .                     :  Vp / Vs ratio
VS   .FT/S                 :  Shear velocity
YM   .                     :  Youngs' Modulus
YM_STAT.                     :  Youngs' Modulus (Static)
~Parameter Information Block
#MNEM.UNIT            Value   Description
#---------- ----------------  -----------
PROJECT.          RDG_13Jul21:  
SET  .              GEOMECH:  
~Other Information Block
~Ascii Log Data
# ...
    3376.45080 
       41.7217        83.7831        67.1303       100.4358      1293.2255 
    12333.8770      7563.8433        15.2203        15.2203        37.7011 
       23.0969         0.0006       0.198609      -999.2500     11426.0928 
     5319.5176     11668.7900      6572.1328       0.178748      2491.6301 
        2.5170         1.4176     11327.5264      3626.1213      5771.5015 
    16336.3193         1.6306     10018.3711         8.0305         5.5298
    3376.60320 
       41.5906        80.4931        64.2158        96.7703      1287.2814 
    12148.4551      7381.6494        15.7275        15.7275        38.6075 
       22.1971         0.0006       0.207352      -999.2500     11426.6816 
     5319.5576     11665.7520      6645.2642       0.186617      2486.5942 
        2.5162         1.4333     11463.7168      3485.9993      5727.4097 
    16236.5801         1.6458      9865.6787         7.7739         5.2946
    3376.75560 
       41.7489        76.9095        59.1478        94.6713      1294.4592 
    12087.7979      7221.0439        17.2520        17.2520        41.8279 
       21.5067         0.0006       0.222557      -999.2500     11427.2695 
     5319.5972     11659.8281      6776.0991       0.200301      2474.9553 
        2.5148         1.4615     11702.1094      3406.7932      5780.6763 
    16357.0723         1.6740      9771.4365         7.6270         5.1617
    3376.90800 
       42.2123        75.3847        55.2150        95.5544      1315.6885 
    12146.8193      7154.8364        18.9444        18.9444        45.1618 
       21.4738         0.0006       0.234355      -999.2500     11427.8584 
     5319.6367     11655.2012      6881.0083       0.210919      2550.4150 
        2.5137         1.4840     12062.8457      3440.0261      5939.7583 
    16716.9258         1.6977      9846.7646         7.6888         5.2175
    3377.06040 
       42.5937        76.4859        55.2042        97.7676      1333.3964 
    12170.7891      7168.6689        19.3306        19.3306        45.3485 
       21.9059         0.0006       0.234387      -999.2500     11428.4473 
     5319.6768     11655.7861      6881.6650       0.210949      2535.3638 
        2.5137         1.4841     12034.0576      3523.8940      6074.2168 
    17021.0781         1.6978     10025.5195         7.8437         5.3582
    3377.21280 
       42.6494        78.4090        58.0897        98.7283      1335.9990 
    12075.0889      7186.7554        18.3121        18.3121        42.5089 
       22.2497         0.0006       0.225731      -999.2500     11429.0371 
     5319.7163     11660.2471      6804.8418       0.203158      2427.5898 
        2.5145         1.4675     11664.8633      3560.5613      6094.1147 
    17066.0898         1.6802     10157.2588         7.9110         5.4197
    3377.36520 
       42.4574        78.5563        59.9699        97.1427      1327.0431 
    11912.9590      7136.8472        17.3290        17.3290        40.0494 
       22.0390         0.0005       0.220090      -999.2500     11429.6260 
     5319.7559     11663.3340      6755.4683       0.198081      2225.4753 
        2.5151         1.4568     11161.8877      3500.1296      6025.7910 
    16911.5371         1.6692     10131.4092         7.8000         5.3183
    3377.51760 
       42.0855        77.5178        61.0448        93.9908      1309.8491 
    11725.8311      7050.5303        16.4466        16.4466        38.0751 
       21.4723         0.0005       0.216866      -999.2500     11430.2148 
     5319.7954     11665.3545      6727.4146       0.195179      1950.4602 
        2.5154         1.4506     10555.7490      3381.2754      5895.7710 
    16617.4238         1.6631      9991.7568         7.5794         5.1189
    3377.67000 
       41.4846        77.5245        64.6310        90.4179      1282.4888 
    11491.4443      6991.7891        14.6915        14.6915        34.2831 
       20.9490         0.0005       0.206107      -999.2500     11430.8047 
     5319.8354     11670.5742      6635.4014       0.185496      1654.0616 
        2.5164         1.4307      9778.9268      3248.6079      5691.9907 
    16156.4609         1.6436      9830.1455         7.3293         4.8963
    3377.82240 
       40.9183        77.4035        66.7427        88.0644      1257.1670 
    11438.9893      7006.5854        13.6981        13.6981        32.6660 
       20.5862         0.0005       0.199772      -999.2500     11431.3936 
     5319.8750     11673.8486      6582.2813       0.179795      1512.9855 
        2.5170         1.4192      9390.5342      3162.4084      5506.7935 
    15737.5342         1.6326      9639.5205         7.1645         4.7516
    3377.97480 
       40.5814        74.8830        63.3869        86.3792      1242.3062 
    11577.2354      7015.6255        14.5207        14.5207        35.5944 
       20.0788         0.0005       0.209839      -999.2500     11431.9814 
     5319.9146     11670.2275      6667.0679       0.188855      1421.2900 
        2.5161         1.4374      9376.7158      3101.2688      5399.6230 
    15495.1074         1.6502      9389.7949         7.0465         4.6491
    3378.12720 
       40.3199        71.3745        58.6177        84.1312      1230.8751 
    11692.9717      6972.2681        15.7644        15.7644        39.5005 
       19.4010         0.0005       0.224147      -999.2500     11432.5703 
     5319.9546     11664.6572      6790.8325       0.201732      1409.4323 
        2.5148         1.4640      9600.5293      3020.4695      5317.9478 
    15310.3535         1.6771      9129.2354         6.8892         4.5135
    3378.27960 
       40.0096        69.0360        57.1526        80.9194      1217.4270 
    11551.0498      6851.9863        15.7442        15.7442        39.5273 
       18.7007         0.0005       0.228542      -999.2500     11433.1592 
     5319.9941     11663.3369      6829.5996       0.205688      1464.9965 
        2.5144         1.4723      9789.1924      2906.5251      5222.7085 
    15094.9170         1.6858      8954.1787         6.6644         4.3223
    3378.43200 
       39.6469        68.5260        59.5251        77.5268      1201.8571 
    11202.0020      6700.6455        14.4180        14.4180        35.6876 
       18.1394         0.0005       0.221425      -999.2500     11433.7490 
     5320.0332     11667.0947      6766.8423       0.199282      1388.8057 
        2.5151         1.4587      9511.2949      2788.0879      5113.5825 
    14848.0674         1.6718      8881.5938         6.4269         4.1235
    3378.58440 
       39.4875        68.2532        61.2079        75.2984      1195.0685 
    10928.5938      6574.7886        13.5587        13.5587        32.9785 
       17.7726         0.0005       0.216376      -999.2500     11434.3379 
     5320.0728     11669.9053      6722.9937       0.194739      1204.0157 
        2.5156         1.4492      9054.0186      2711.3618      5066.3853 
    14741.3037         1.6622      8868.5664         6.2709         3.9948
    3378.73680 
       39.6400        67.7022        60.2648        75.1396      1201.5647 
    10878.4922      6523.7080        13.8176        13.8176        33.2241 
       17.6999         0.0005       0.219206      -999.2500     11434.9268 
     5320.1123     11669.2891      6747.6782       0.197285       988.0735 
        2.5153         1.4545      8671.5039      2705.9255      5111.5449 
    14843.4580         1.6675      8901.4541         6.2598         3.9857
    3378.88920 
       39.8451        68.7697        60.5886        76.9508      1210.3444 
    10980.4551      6592.1367        13.9978        13.9978        33.6579 
       18.0728         0.0005       0.218234      -999.2500     11435.5156 
     5320.1519     11670.3145      6739.5425       0.196411       798.2513 
        2.5154         1.4527      8275.5879      2768.1731      5172.9160 
    14982.2842         1.6657      8994.6416         6.3866         4.0901
