~Version Information Block
VERS .                  2.0:  CWLS LOG ASCII STANDARD - VERSION 2.0
WRAP .                  YES:  Multiple lines per depth step
~Well Information Block
#MNEM.UNIT        Data Type   Information
#---------- ----------------  -----------
STRT .M          2676.97280:  START DEPTH
STOP .M          3838.10840:  STOP DEPTH
STEP .M             0.15240:  STEP
NULL .              -999.25:  NULL VALUE
COMP .                     :  COMPANY
WELL .      RAAG-107-07-210:  WELL
FLD  .                     :  FIELD
LOC  .                     :  LOCATION
CTRY .                     :  COUNTRY
STAT .                     :  STATE
CNTY .                     :  COUNTY
SRVC .                     :  SERVICE COMPANY
DATE .                     :  DATE
API  .                     :  API NUMBER
UWI  .                     :  UNIQUE WELL ID
~Curve Information Block
#MNEM.UNIT         API CODE   Curve Description
#---------- ----------------  -----------------
DEPTH.M                    :  
ANGLE_FAIL.DEG                  :  Fail Angle
BRIT_IND.                     :  Brittleness Index
BRIT_PR.                     :  Brittleness Index from Poisson's Ratio
BRIT_YM.                     :  Brittleness Index from Young's Modulus
CS   .M/MIN                 :  Compressive Strength
DTCO .US/F                 :  Compressional slowness
DTSM .US/F                 :  Fast Shear Slowness
IP   .RAYL/M2                 :  P Impedence
IS   .RAYL/M2                 :  S Impedance
KBULK.                     :  Bulk Mudulus
LAMBDA.                     :  Lambda
LAMRHO.                     :  
MU   .CP                   :  Mu
MURHO.(GF/C3S)2                 :  Mu*Rho
PR   .                     :  Poisson's ratio
PRESS_FG.PSI                  :  Fracture Gradient Pressure
PRESS_OB.PSI                  :  Over-burden Pressure
PRESS_PP.PSI                  :  Pore Pressure
PRESS_SHMAX.PSI                  :  Horizontal Stress (Max)
PRESS_SHMIN.PSI                  :  Horizontal Stress (Min)
PR_STAT.                     :  Poisson's ratio (Static)
PZS  .PSI                  :  Processed Zone Stress
SHMAX_GRAD.                     :  Horizontal Stress Gradient (Max)
SHMIN_GRAD.                     :  Horizontal Stress Gradient (Min)
STRESS_CUM.PSI                  :  Cumulative stress (SHPZ)
UCS_BF.PSI                  :  Uniaxial Compressive Strength (BF)
UCS_LAL.PSI                  :  Uniaxial Compressive Strength (lal)
VP   .FT/S                 :  Compressional velocity
VPVS .                     :  Vp / Vs ratio
VS   .FT/S                 :  Shear velocity
YM   .                     :  Youngs' Modulus
YM_STAT.                     :  Youngs' Modulus (Static)
~Parameter Information Block
#MNEM.UNIT            Value   Description
#---------- ----------------  -----------
PROJECT.          RDG_13Jul21:  
SET  .              GEOMECH:  
~Other Information Block
~Ascii Log Data
# ...
    3469.45280 
       41.4959        73.1303        44.1269       102.1338      1283.0027 
       61.8619       109.8226     14176.5068      7985.4751        25.5236 
       25.5236        73.4377        22.1628    0.000686391       0.267619 
     -999.2500     10971.5742      5282.3735     11169.0166      7022.7197 
      0.240857      2544.8545         2.4995         1.5716     12335.1484 
     3691.8088      5695.7827     16165.0381         1.7753      9105.5938 
        8.1494         5.6400
    3469.60520 
       41.8155        73.0820        42.1291       104.0349      1297.4949 
       60.9451       109.1684     14383.0303      8029.5688        27.0954 
       27.0954        77.9236        22.4187    0.000693992       0.273613 
     -999.2500     10972.1582      5282.4287     11166.8760      7077.7925 
      0.246252      2471.3943         2.4989         1.5838     12298.3730 
     3765.9426      5803.2827     16408.2109         1.7913      9160.1592 
        8.2824         5.7644
    3469.75760 
       42.0919        73.5583        41.0757       106.0408      1310.1431 
       60.1597       108.2853     14542.9756      8079.5918        28.1975 
       28.1975        80.9385        22.7423    0.000702666       0.276773 
     -999.2500     10972.7422      5282.4829     11166.0117      7107.3477 
      0.249096      2404.9746         2.4985         1.5904     12224.6445 
     3844.8313      5897.9810     16622.4238         1.8000      9234.8633 
        8.4229         5.8968
    3469.91000 
       42.2115        74.8317        41.7182       107.9452      1315.6527 
       59.8218       107.3580     14625.3066      8149.4824        28.2435 
       28.2435        81.0715        23.1372    0.000714875       0.274845 
     -999.2500     10973.3271      5282.5371     11167.4961      7089.9365 
      0.247361      2324.4985         2.4988         1.5864     12028.8701 
     3920.3643      5939.4878     16716.3125         1.7946      9314.6299 
        8.5562         6.0235
    3470.06240 
       42.2356        76.3309        43.2251       109.4368      1316.7665 
       59.7538       106.5058     14638.1787      8212.5742        27.6626 
       27.6626        79.3835        23.5029    0.000725987       0.270325 
     -999.2500     10973.9111      5282.5918     11170.1650      7048.8413 
      0.243292      2211.5127         2.4992         1.5771     11720.7070 
     3979.9592      5947.8975     16735.3359         1.7824      9389.1602 
        8.6606         6.1235
    3470.21480 
       42.2828        77.3363        44.2195       110.4530      1318.9465 
       59.6210       105.8012     14630.5908      8244.6172        27.2924 
       27.2924        78.1068        23.7517    0.000731663       0.267342 
     -999.2500     10974.4951      5282.6465     11172.1182      7022.0386 
      0.240607      2328.5996         2.4995         1.5710     11901.2773 
     4020.7808      5964.3765     16772.6152         1.7746      9451.6885 
        8.7317         6.1920
    3470.36720 
       42.4393        77.6401        43.6085       111.6717      1326.2013 
       59.1819       105.3062     14722.9014      8274.2451        27.9280 
       27.9280        79.8376        23.9491    0.000736931       0.269175 
     -999.2500     10975.0801      5282.7017     11171.8838      7039.0107 
      0.242257      2685.2021         2.4994         1.5748     12648.4258 
     4069.9644      6019.3901     16897.0566         1.7794      9496.1172 
        8.8170         6.2745
    3470.51960 
       42.6830        77.6162        41.8089       113.4235      1337.5745 
       58.5022       104.9461     14934.4775      8325.2246        29.4508 
       29.4508        84.4199        24.1793    0.000746040       0.274573 
     -999.2500     10975.6641      5282.7559     11170.0059      7088.8315 
      0.247116      2939.9038         2.4988         1.5858     13257.4707 
     4141.1128      6106.1763     17093.3750         1.7939      9528.7012 
        8.9396         6.3939
    3470.67200 
       42.8661        77.2679        40.1013       114.4344      1346.1755 
       57.9951       104.8668     15100.6787      8351.2168        30.8170 
       30.8170        88.5449        24.2732    0.000750705       0.279696 
     -999.2500     10976.2500      5282.8105     11168.2295      7136.6631 
      0.251726      2882.2312         2.4983         1.5965     13237.7881 
     4182.4072      6172.2500     17242.8379         1.8082      9535.9072 
        9.0104         6.4632
    3470.82440 
       42.8938        76.6055        39.1893       114.0217      1347.4818 
       57.9186       105.1846     15131.2803      8331.8525        31.3418 
       31.3418        90.1161        24.1437    0.000747228       0.282432 
     -999.2500     10976.8340      5282.8647     11167.5518      7162.4766 
      0.254189      2669.8955         2.4980         1.6022     12864.7441 
     4165.5259      6182.3184     17265.6113         1.8161      9507.0957 
        8.9815         6.4349
    3470.97680 
       42.7352        75.9909        39.5829       112.3988      1340.0220 
       58.3573       105.7818     15010.2598      8280.8027        30.6779 
       30.6779        88.1645        23.8603    0.000738100       0.281251 
     -999.2500     10977.4180      5282.9194     11168.7148      7151.4834 
      0.253126      2558.0520         2.4982         1.5996     12619.0713 
     4099.4331      6124.9395     17135.8164         1.8127      9453.4219 
        8.8679         6.3240
    3471.12920 
       42.4978        75.5972        40.7119       110.4824      1328.9227 
       59.0183       106.4111     14831.2676      8225.7979        29.4727 
       29.4727        84.6390        23.5617    0.000728327       0.277864 
     -999.2500     10978.0029      5282.9731     11170.9063      7119.9399 
      0.250078      2552.6008         2.4986         1.5925     12545.0820 
     4021.9634      6040.0967     16943.8984         1.8030      9397.5156 
        8.7338         6.1940
    3471.28160 
       42.2997        75.1208        41.4765       108.7651      1319.7279 
       59.5735       107.0314     14686.6035      8174.5396        28.5838 
       28.5838        82.0501        23.2791    0.000719278       0.275570 
     -999.2500     10978.5879      5283.0273     11172.5791      7098.7563 
      0.248013      2631.3140         2.4988         1.5877     12660.1406 
     3953.0747      5970.2881     16785.9863         1.7966      9343.0527 
        8.6136         6.0784
    3471.43400 
       42.1356        74.6893        42.0050       107.3736      1312.1536 
       60.0361       107.6011     14580.5566      8135.2305        27.9356 
       27.9356        80.2287        23.0445    0.000712377       0.273985 
     -999.2500     10979.1729      5283.0820     11173.9199      7084.2354 
      0.246587      2760.5327         2.4990         1.5844     12889.5352 
     3897.6284      5913.1094     16656.6445         1.7923      9293.5850 
        8.5162         5.9853
    3471.58640 
       42.0049        74.7102        42.6545       106.7659      1306.1514 
       60.4061       107.9451     14533.4346      8132.9131        27.4044 
       27.4044        78.9322        22.9646    0.000711971       0.272036 
     -999.2500     10979.7568      5283.1362     11175.4199      7066.5044 
      0.244833      2849.5486         2.4992         1.5803     13032.1064 
     3873.5173      5868.0063     16554.6191         1.7870      9263.9688 
        8.4736         5.9449
    3471.73880 
       41.9143        75.0461        43.3506       106.7417      1302.0031 
       60.6636       108.0668     14525.3379      8153.8389        26.9861 
       26.9861        78.0153        22.9977    0.000715640       0.269948 
     -999.2500     10980.3408      5283.1909     11176.9766      7047.6333 
      0.242954      2695.2856         2.4994         1.5760     12685.8379 
     3872.5579      5836.9419     16484.3496         1.7814      9253.5352 
        8.4719         5.9433
