~Version Information Block
VERS .                  2.0:  CWLS LOG ASCII STANDARD - VERSION 2.0
WRAP .                  YES:  Multiple lines per depth step
~Well Information Block
#MNEM.UNIT        Data Type   Information
#---------- ----------------  -----------
STRT .M          2738.62800:  START DEPTH
STOP .M          3798.57000:  STOP DEPTH
STEP .M             0.15240:  STEP
NULL .              -999.25:  NULL VALUE
COMP .                     :  COMPANY
WELL .      RAAG-106-07-211:  WELL
FLD  .                     :  FIELD
LOC  .                     :  LOCATION
CTRY .                     :  COUNTRY
STAT .                     :  STATE
CNTY .                     :  COUNTY
SRVC .                     :  SERVICE COMPANY
DATE .                     :  DATE
API  .                     :  API NUMBER
UWI  .                     :  UNIQUE WELL ID
~Curve Information Block
#MNEM.UNIT         API CODE   Curve Description
#---------- ----------------  -----------------
DEPTH.M                    :  
ANGLE_FAIL.DEG                  :  Fail Angle
BRIT_IND.                     :  Brittleness Index
BRIT_PR.                     :  Brittleness Index from Poisson's Ratio
BRIT_YM.                     :  Brittleness Index from Young's Modulus
CS   .M/MIN                 :  Compressive Strength
DTCO .US/F                 :  Compressional slowness
DTSM .US/F                 :  Fast Shear Slowness
IP   .RAYL/M2                 :  P Impedence
IS   .RAYL/M2                 :  S Impedance
KBULK.                     :  Bulk Mudulus
LAMBDA.                     :  Lambda
LAMRHO.                     :  
MU   .CP                   :  Mu
MURHO.(GF/C3S)2                 :  Mu*Rho
PR   .                     :  Poisson's ratio
PRESS_FG.PSI                  :  Fracture Gradient Pressure
PRESS_OB.PSI                  :  Over-burden Pressure
PRESS_PP.PSI                  :  Pore Pressure
PRESS_SHMAX.PSI                  :  Horizontal Stress (Max)
PRESS_SHMIN.PSI                  :  Horizontal Stress (Min)
PR_STAT.                     :  Poisson's ratio (Static)
PZS  .PSI                  :  Processed Zone Stress
SHMAX_GRAD.                     :  Horizontal Stress Gradient (Max)
SHMIN_GRAD.                     :  Horizontal Stress Gradient (Min)
STRESS_CUM.PSI                  :  Cumulative stress (SHPZ)
UCS_BF.PSI                  :  Uniaxial Compressive Strength (BF)
UCS_LAL.PSI                  :  Uniaxial Compressive Strength (lal)
VP   .FT/S                 :  Compressional velocity
VPVS .                     :  Vp / Vs ratio
VS   .FT/S                 :  Shear velocity
YM   .                     :  Youngs' Modulus
YM_STAT.                     :  Youngs' Modulus (Static)
~Parameter Information Block
#MNEM.UNIT            Value   Description
#---------- ----------------  -----------
PROJECT.          RDG_13Jul21:  
SET  .              GEOMECH:  
~Other Information Block
~Ascii Log Data
# ...
    3362.85840 
       39.5942        53.4495        36.1888        70.7101      1199.6082 
       67.5099       124.4330     11950.9229      6483.8560        22.1926 
       22.1926        58.7438        15.8823    0.000452519       0.291434 
     -999.2500     10773.1055      5263.8413     10953.7686      7159.8574 
      0.262290      2034.6716         2.4917         1.6287     11589.0586 
     2556.0630      5097.9214     14812.6416         1.8432      8036.4531 
        5.9497         3.7342
    3363.01080 
       38.7386        55.3540        42.8210        67.8869      1163.5763 
       70.1612       125.2832     11446.1387      6410.0757        18.5353 
       18.5353        48.8359        15.5950    0.000442279       0.271537 
     -999.2500     10773.6875      5263.9028     10963.4023      6979.3950 
      0.244383      2059.2542         2.4938         1.5876     11277.2988 
     2462.2957      4850.4702     14252.8916         1.7856      7981.9160 
        5.7521         3.5769
    3363.16320 
       37.2192        58.2579        54.7732        61.7426      1101.6638 
       75.0447       127.6124     10570.7881      6216.3364        13.2389 
       13.2389        34.4559        14.8476    0.000415948       0.235680 
     -999.2500     10774.2695      5263.9634     10979.2529      6674.6079 
      0.212112      2130.0222         2.4973         1.5182     10809.2598 
     2262.9414      4440.4453     13325.3916         1.7005      7836.2290 
        5.3220         3.2423
    3363.31560 
       35.7050        59.8121        65.4485        54.1758      1042.3956 
       80.1426       131.3757      9698.0225      5916.0464         9.4325 
        9.4325        24.0524        13.7256    0.000376733       0.203655 
     -999.2500     10774.8525      5264.0244     10992.4648      6422.6143 
      0.183289      2057.5928         2.5002         1.4608     10160.4141 
     2026.3058      4065.7280     12477.7578         1.6393      7611.7578 
        4.7923         2.8453
    3363.46800 
       34.8110        58.2773        67.9558        48.5988      1008.4507 
       83.2650       135.4293      9168.5264      5637.0176         8.1887 
        8.1887        20.5099        12.6868    0.000342034       0.196133 
     -999.2500     10775.4346      5264.0854     10995.9121      6365.8843 
      0.176519      1757.4233         2.5008         1.4478      9446.6152 
     1858.1731      3858.8767     12009.8486         1.6265      7383.9258 
        4.4019         2.5631
    3363.62040 
       34.6572        54.5552        63.6651        45.4454      1002.6852 
       83.8108       138.1796      8911.1240      5404.9106         8.5631 
        8.5631        20.9820        11.9223    0.000314447       0.209005 
     -999.2500     10776.0176      5264.1465     10991.6563      6463.2397 
      0.188104      1357.8141         2.4997         1.4699      8842.1074 
     1765.4586      3824.3013     11931.6367         1.6487      7236.9585 
        4.1812         2.4076
    3363.77280 
       35.0272        51.6185        58.0441        45.1929      1016.5903 
       82.5022       138.6414      8949.7246      5325.7681         9.6471 
        9.6471        23.3700        11.7086    0.000305305       0.225868 
     -999.2500     10776.5996      5264.2075     10985.6660      6595.2651 
      0.203281      1025.8296         2.4982         1.4998      8442.1895 
     1758.1086      3907.9651     12120.8896         1.6805      7212.8530 
        4.1635         2.3952
    3363.92520 
       35.7153        50.2648        53.4518        47.0779      1042.7880 
       80.1074       136.8982      9168.7236      5365.1743        10.9952 
       10.9952        26.4953        11.9454    0.000309840       0.239645 
     -999.2500     10777.1816      5264.2681     10980.6855      6707.1040 
      0.215680       884.5593         2.4970         1.5252      8383.3271 
     1813.2450      4068.1519     12483.2422         1.7089      7304.6978 
        4.2955         2.4877
    3364.07760 
       36.6200        50.1505        49.5521        50.7489      1077.9292 
       77.0342       133.6673      9543.4824      5500.0327        12.6772 
       12.6772        30.5773        12.5417    0.000325612       0.251344 
     -999.2500     10777.7646      5264.3291     10976.3994      6805.0679 
      0.226209      1134.0793         2.4959         1.5474      9078.2939 
     1922.3630      4288.3076     12981.2471         1.7352      7481.2617 
        4.5524         2.6708
    3364.23000 
       37.6177        50.9671        46.3405        55.5936      1117.6558 
       73.7418       129.6653     10003.3887      5689.0151        14.6014 
       14.6014        35.3380        13.3730    0.000348373       0.260978 
     -999.2500     10778.3467      5264.3901     10972.8662      6887.9438 
      0.234881      1684.4299         2.4950         1.5662     10344.7471 
     2069.9004      4544.5269     13560.8291         1.7584      7712.1636 
        4.8916         2.9184
    3364.38240 
       38.5121        52.9756        44.8382        61.1130      1154.1815 
       70.8749       125.4318     10471.3301      5916.7969        16.2766 
       16.2766        39.6318        14.3779    0.000376828       0.265485 
     -999.2500     10778.9287      5264.4507     10971.4893      6927.7104 
      0.238937      2304.3018         2.4945         1.5751     11664.0244 
     2242.8770      4787.0215     14109.3672         1.7698      7972.4600 
        5.2779         3.2087
    3364.53480 
       39.1615        55.8748        45.5196        66.2300      1181.2750 
       68.8421       121.4754     10814.8457      6128.9502        17.1261 
       17.1261        41.8328        15.3785    0.000404336       0.263441 
     -999.2500     10779.5117      5264.5117     10972.9629      6910.4805 
      0.237097      2706.5198         2.4948         1.5711     12434.0010 
     2407.9001      4971.2021     14525.9941         1.7646      8232.1191 
        5.6361         3.4856
    3364.68720 
       39.5533        58.9838        47.7585        70.2091      1197.8650 
       67.6351       118.2219     10999.8232      6293.0313        17.1217 
       17.1217        41.7916        16.2247    0.000426275       0.256725 
     -999.2500     10780.0938      5264.5728     10976.4463      6853.0332 
      0.231052      2811.2126         2.4954         1.5580     12528.4912 
     2539.3218      5085.8003     14785.2217         1.7479      8458.6689 
        5.9146         3.7061
    3364.83960 
       39.7263        61.8676        50.8104        72.9249      1205.2526 
       67.1066       115.8583     11070.4648      6412.1538        16.5442 
       16.5442        40.3238        16.8691    0.000442566       0.247569 
     -999.2500     10780.6768      5264.6333     10980.9160      6775.8867 
      0.222812      2805.5833         2.4963         1.5404     12362.9395 
     2630.5752      5137.2764     14901.6641         1.7265      8631.2334 
        6.1047         3.8592
    3364.99200 
       39.7054        64.3799        54.3937        74.3661      1204.3595 
       67.1702       114.3834     11053.5850      6491.0771        15.5643 
       15.5643        37.9136        17.2969    0.000453527       0.236819 
     -999.2500     10781.2588      5264.6943     10985.9619      6687.1968 
      0.213137      2847.3435         2.4973         1.5201     12269.0811 
     2679.5151      5131.0391     14887.5547         1.7029      8742.5273 
        6.2056         3.9413
    3365.14440 
       39.5089        66.4128        58.4206        74.4051      1195.9791 
       67.7709       113.7351     10943.4209      6520.8140        14.2677 
       14.2677        34.7164        17.4752    0.000457692       0.224738 
     -999.2500     10781.8408      5264.7544     10991.4346      6589.9482 
      0.202264      2863.7686         2.4985         1.4980     12107.4336 
     2680.8428      5072.7031     14755.5967         1.6782      8792.3604 
        6.2084         3.9436
