~Version Information Block
VERS .                  2.0:  CWLS LOG ASCII STANDARD - VERSION 2.0
WRAP .                  YES:  Multiple lines per depth step
~Well Information Block
#MNEM.UNIT        Data Type   Information
#---------- ----------------  -----------
STRT .M          2682.11640:  START DEPTH
STOP .M          3633.09240:  STOP DEPTH
STEP .M             0.15240:  STEP
NULL .              -999.25:  NULL VALUE
COMP .                     :  COMPANY
WELL .       RAAG-94-07-216:  WELL
FLD  .                     :  FIELD
LOC  .                     :  LOCATION
CTRY .                     :  COUNTRY
STAT .                     :  STATE
CNTY .                     :  COUNTY
SRVC .                     :  SERVICE COMPANY
DATE .                     :  DATE
API  .                     :  API NUMBER
UWI  .                     :  UNIQUE WELL ID
~Curve Information Block
#MNEM.UNIT         API CODE   Curve Description
#---------- ----------------  -----------------
DEPTH.M                    :  
ANGLE_FAIL.DEG                  :  Fail Angle
BRIT_IND.                     :  Brittleness Index
BRIT_PR.                     :  Brittleness Index from Poisson's Ratio
BRIT_YM.                     :  Brittleness Index from Young's Modulus
CS   .M/MIN                 :  Compressive Strength
IP   .RAYL/M2                 :  P Impedence
IS   .RAYL/M2                 :  S Impedance
KBULK.                     :  Bulk Mudulus
LAMBDA.                     :  Lambda
LAMRHO.                     :  
MU   .CP                   :  Mu
MURHO.(GF/C3S)2                 :  Mu*Rho
PR   .                     :  Poisson's ratio
PRESS_FG.PSI                  :  Fracture Gradient Pressure
PRESS_OB.PSI                  :  Over-burden Pressure
PRESS_PP.PSI                  :  Pore Pressure
PRESS_SHMAX.PSI                  :  Horizontal Stress (Max)
PRESS_SHMIN.PSI                  :  Horizontal Stress (Min)
PR_STAT.                     :  Poisson's ratio (Static)
PZS  .PSI                  :  Processed Zone Stress
SHMAX_GRAD.                     :  Horizontal Stress Gradient (Max)
SHMIN_GRAD.                     :  Horizontal Stress Gradient (Min)
STRESS_CUM.PSI                  :  Cumulative stress (SHPZ)
UCS_BF.PSI                  :  Uniaxial Compressive Strength (BF)
UCS_LAL.PSI                  :  Uniaxial Compressive Strength (lal)
VP   .FT/S                 :  Compressional velocity
VPVS .                     :  Vp / Vs ratio
VS   .FT/S                 :  Shear velocity
YM   .                     :  Youngs' Modulus
YM_STAT.                     :  Youngs' Modulus (Static)
~Parameter Information Block
#MNEM.UNIT            Value   Description
#---------- ----------------  -----------
PROJECT.          RDG_13Jul21:  
SET  .              GEOMECH:  
~Other Information Block
~Ascii Log Data
# ...
    3565.57920 
       44.2326        78.2331        39.4892       116.9769      1412.0361 
    14481.4277      7985.4854        31.8522        31.8522        82.1758 
       24.7172         0.0007       0.281532      -999.2500     12161.2871 
     5354.2964     12389.2256      7602.5176       0.253379      2900.1143 
        2.5278         1.5511     14205.2637      4287.0425      6690.8223 
    18415.8789         1.8135     10155.0566         9.1884         6.6388
    3565.73160 
       44.2131        80.2466        41.6198       118.8734      1411.0732 
    14486.0098      8068.2124        30.8350        30.8350        79.6524 
       25.2000         0.0007       0.275141      -999.2500     12161.8818 
     5354.3125     12393.3750      7532.0283       0.247627      2832.0002 
        2.5285         1.5367     13928.0566      4365.8120      6683.0796 
    18398.3633         1.7954     10247.2598         9.3211         6.7710
    3565.88400 
       44.1482        83.7488        45.7540       121.7436      1407.8822 
    14450.2813      8197.4629        28.7873        28.7873        74.4138 
       25.9960         0.0007       0.262738      -999.2500     12162.4775 
     5354.3291     12400.7012      7397.9976       0.236464      2636.8232 
        2.5299         1.5093     13269.6416      4486.1904      6657.4541 
    18340.3965         1.7628     10404.2764         9.5220         6.9730
    3566.03640 
       44.1207        87.5241        50.0518       124.9964      1406.5313 
    14445.2471      8341.6943        26.8588        26.8588        69.4974 
       26.8922         0.0007       0.249845      -999.2500     12163.0723 
     5354.3447     12408.0879      7262.7598       0.224860      2533.3228 
        2.5313         1.4816     12792.1650      4624.3252      6646.6206 
    18315.8906         1.7317     10576.8740         9.7498         7.2048
    3566.18880 
       44.1370        90.3210        52.9963       127.6458      1407.3325 
    14476.2871      8456.2930        25.6830        25.6830        66.5451 
       27.5988         0.0008       0.241011      -999.2500     12163.6670 
     5354.3608     12413.2256      7172.5078       0.216910      2567.3218 
        2.5322         1.4631     12679.6592      4738.1694      6653.0444 
    18330.4219         1.7119     10707.6768         9.9352         7.3958
    3566.34120 
       44.1685        91.5266        53.9791       129.0741      1408.8777 
    14525.8789      8516.8975        25.3960        25.3960        65.9261 
       27.9429         0.0008       0.238063      -999.2500     12164.2637 
     5354.3774     12415.3291      7142.9541       0.214256      2691.7434 
        2.5325         1.4570     12869.3955      4800.0420      6665.4424 
    18358.4668         1.7055     10764.0430        10.0352         7.4996
    3566.49360 
       44.2202        91.4037        53.3144       129.4930      1411.4276 
    14581.3057      8527.9600        25.8390        25.8390        67.1623 
       27.9795         0.0008       0.240057      -999.2500     12164.8584 
     5354.3936     12414.9346      7163.3418       0.216051      2858.1101 
        2.5323         1.4611     13242.9043      4818.2544      6685.9287 
    18404.8066         1.7098     10764.1563        10.0645         7.5302
    3566.64600 
       44.3270        90.5054        51.6834       129.3274      1416.6996 
    14614.1152      8493.7109        26.7350        26.7350        69.2861 
       27.8374         0.0008       0.244950      -999.2500     12165.4531 
     5354.4092     12413.0557      7213.4077       0.220455      3058.7156 
        2.5318         1.4713     13744.2471      4811.0508      6728.3911 
    18500.8594         1.7206     10752.6836        10.0529         7.5181
    3566.79840 
       44.5321        89.9964        49.5191       130.4737      1426.8800 
    14759.1348      8504.7529        28.2381        28.2381        73.1704 
       27.9141         0.0008       0.251443      -999.2500     12166.0488 
     5354.4258     12410.3105      7280.8018       0.226298      3079.2886 
        2.5312         1.4850     13920.1807      4861.0127      6810.7939 
    18687.2598         1.7354     10768.2832        10.1332         7.6019
    3566.95080 
       44.8003        90.3821        47.6210       133.1432      1440.3038 
    14998.7988      8575.9629        29.9633        29.9633        77.8697 
       28.3001         0.0008       0.257137      -999.2500     12166.6436 
     5354.4419     12407.9287      7340.9409       0.231423      3079.2881 
        2.5306         1.4972     14040.4580      4978.2305      6920.2725 
    18934.9082         1.7489     10826.5371        10.3200         7.7986
    3567.10320 
       44.9662        91.6304        47.3118       135.9491      1448.6648 
    15187.8291      8672.8594        30.7386        30.7386        80.2332 
       28.8174         0.0008       0.258065      -999.2500     12167.2393 
     5354.4580     12408.0400      7351.2070       0.232258      3078.2612 
        2.5305         1.4992     14058.9355      5102.7500      6988.9326 
    19090.2227         1.7512     10901.2822        10.5164         8.0076
    3567.25560 
       44.9311        92.6558        48.5391       136.7725      1446.8945 
    15187.3799      8716.7441        30.0975        30.0975        78.6933 
       29.0604         0.0008       0.254383      -999.2500     12167.8340 
     5354.4736     12410.5908      7312.6943       0.228945      3033.5945 
        2.5309         1.4913     13892.5771      5139.5435      6974.3647 
    19057.2676         1.7423     10937.8525        10.5741         8.0693
    3567.40800 
       44.8694        92.3499        48.8604       135.8395      1443.7789 
    15111.5059      8684.5859        29.7046        29.7046        77.5135 
       28.9031         0.0008       0.253419      -999.2500     12168.4287 
     5354.4897     12411.7158      7302.6924       0.228077      2791.5566 
        2.5310         1.4892     13388.4980      5097.8579      6948.7656 
    18999.3594         1.7400     10918.9375        10.5088         7.9993
    3567.56040 
       44.8617        92.2199        48.9264       135.5133      1443.3947 
    15078.6045      8668.0098        29.5978        29.5978        77.0955 
       28.8449         0.0008       0.253221      -999.2500     12169.0244 
     5354.5059     12412.4365      7300.7729       0.227899      2814.2563 
        2.5311         1.4887     13430.0576      5083.3198      6945.6123 
    18992.2285         1.7396     10917.7754        10.4859         7.9749
    3567.71280 
       44.8106        93.9688        51.4534       136.4842      1440.8206 
    15001.7246      8711.1689        28.2071        28.2071        73.2828 
       29.2085         0.0008       0.245640      -999.2500     12169.6191 
     5354.5220     12416.9785      7222.4312       0.221076      2947.7908 
        2.5319         1.4727     13540.4443      5126.6484      6924.5049 
    18944.4805         1.7221     11000.6406        10.5539         8.0477
    3567.86520 
       44.6846        97.0102        55.9049       138.1154      1434.4948 
    14913.6650      8806.8506        25.8948        25.8948        67.2962 
       29.8445         0.0008       0.232285      -999.2500     12170.2148 
     5354.5376     12424.3477      7087.5547       0.209057      3050.7622 
        2.5333         1.4451     13476.6338      5199.8062      6872.7817 
    18827.4805         1.6934     11118.0459        10.6681         8.1704
    3568.01760 
       44.5274        98.9864        59.8287       138.1442      1426.6479 
    14760.5068      8838.4717        23.7788        23.7788        61.6354 
       30.1380         0.0008       0.220514      -999.2500     12170.8105 
     5354.5537     12430.7568      6971.8965       0.198463      3040.5127 
        2.5345         1.4215     13224.8184      5201.1016      6808.9092 
    18682.9980         1.6700     11187.2266        10.6701         8.1726
