~Version Information Block
VERS .                  2.0:  CWLS LOG ASCII STANDARD - VERSION 2.0
WRAP .                  YES:  Multiple lines per depth step
~Well Information Block
#MNEM.UNIT        Data Type   Information
#---------- ----------------  -----------
STRT .M          2738.62800:  START DEPTH
STOP .M          3798.57000:  STOP DEPTH
STEP .M             0.15240:  STEP
NULL .              -999.25:  NULL VALUE
COMP .                     :  COMPANY
WELL .      RAAG-106-07-211:  WELL
FLD  .                     :  FIELD
LOC  .                     :  LOCATION
CTRY .                     :  COUNTRY
STAT .                     :  STATE
CNTY .                     :  COUNTY
SRVC .                     :  SERVICE COMPANY
DATE .                     :  DATE
API  .                     :  API NUMBER
UWI  .                     :  UNIQUE WELL ID
~Curve Information Block
#MNEM.UNIT         API CODE   Curve Description
#---------- ----------------  -----------------
DEPTH.M                    :  
ANGLE_FAIL.DEG                  :  Fail Angle
BRIT_IND.                     :  Brittleness Index
BRIT_PR.                     :  Brittleness Index from Poisson's Ratio
BRIT_YM.                     :  Brittleness Index from Young's Modulus
CS   .M/MIN                 :  Compressive Strength
DTCO .US/F                 :  Compressional slowness
DTSM .US/F                 :  Fast Shear Slowness
IP   .RAYL/M2                 :  P Impedence
IS   .RAYL/M2                 :  S Impedance
KBULK.                     :  Bulk Mudulus
LAMBDA.                     :  Lambda
LAMRHO.                     :  
MU   .CP                   :  Mu
MURHO.(GF/C3S)2                 :  Mu*Rho
PR   .                     :  Poisson's ratio
PRESS_FG.PSI                  :  Fracture Gradient Pressure
PRESS_OB.PSI                  :  Over-burden Pressure
PRESS_PP.PSI                  :  Pore Pressure
PRESS_SHMAX.PSI                  :  Horizontal Stress (Max)
PRESS_SHMIN.PSI                  :  Horizontal Stress (Min)
PR_STAT.                     :  Poisson's ratio (Static)
PZS  .PSI                  :  Processed Zone Stress
SHMAX_GRAD.                     :  Horizontal Stress Gradient (Max)
SHMIN_GRAD.                     :  Horizontal Stress Gradient (Min)
STRESS_CUM.PSI                  :  Cumulative stress (SHPZ)
UCS_BF.PSI                  :  Uniaxial Compressive Strength (BF)
UCS_LAL.PSI                  :  Uniaxial Compressive Strength (lal)
VP   .FT/S                 :  Compressional velocity
VPVS .                     :  Vp / Vs ratio
VS   .FT/S                 :  Shear velocity
YM   .                     :  Youngs' Modulus
YM_STAT.                     :  Youngs' Modulus (Static)
~Parameter Information Block
#MNEM.UNIT            Value   Description
#---------- ----------------  -----------
PROJECT.          RDG_13Jul21:  
SET  .              GEOMECH:  
~Other Information Block
~Ascii Log Data
# ...
    3667.65840 
       42.2325        73.9211        46.7118       101.1303      1316.6239 
       59.7625       104.9195     13359.7393      7609.7524        23.9232 
       23.9232        62.6660        22.1070    0.000623320       0.259865 
     -999.2500     11950.7617      5348.1553     12183.4639      7296.7344 
      0.233878      2884.4495         2.5258         1.5127     13562.3682 
     3652.9272      5946.8203     16732.9004         1.7556      9531.1162 
        8.0791         5.5747
    3667.81080 
       41.9347        71.9635        46.4191        97.5079      1302.9370 
       60.6055       106.5313     13146.3506      7478.9390        23.3198 
       23.3198        60.9575        21.3982    0.000602074       0.260743 
     -999.2500     11951.3564      5348.1782     12183.6406      7305.6792 
      0.234668      2990.3335         2.5257         1.5145     13792.0254 
     3514.0095      5843.9282     16500.1523         1.7578      9386.9121 
        7.8256         5.3416
    3667.96320 
       41.8306        70.5805        45.1358        96.0251      1298.1816 
       60.9021       107.6431     13139.5303      7434.0576        23.6599 
       23.6599        62.1168        21.0501    0.000594870       0.264593 
     -999.2500     11951.9512      5348.2017     12182.2656      7345.6631 
      0.238133      2975.3818         2.5253         1.5227     13842.0889 
     3457.7925      5808.4043     16419.7949         1.7675      9289.9590 
        7.7218         5.2473
    3668.11560 
       41.9693        69.7411        42.8725        96.6097      1304.5215 
       60.5071       108.0193     13316.9883      7459.5215        24.9860 
       24.9860        66.0532        21.0487    0.000598952       0.271382 
     -999.2500     11952.5459      5348.2246     12179.3135      7417.1973 
      0.244244      2935.7310         2.5246         1.5375     13905.8564 
     3479.9114      5855.7905     16526.9863         1.7852      9257.6055 
        7.7627         5.2844
    3668.26800 
       42.2408        69.6287        40.8013        98.4560      1317.0042 
       59.7393       107.6661     13556.9219      7522.1543        26.5796 
       26.5796        70.6245        21.2950    0.000609052       0.277596 
     -999.2500     11953.1406      5348.2476     12176.6064      7483.8198 
      0.249837      2953.3687         2.5239         1.5512     14074.3770 
     3550.1521      5949.6934     16739.4004         1.8023      9287.9746 
        7.8919         5.4023
    3668.42040 
       42.4216        70.4493        40.5544       100.3443      1325.3816 
       59.2313       106.8739     13690.4326      7587.4663        27.1717 
       27.1717        72.2887        21.6391    0.000619674       0.278337 
     -999.2500     11953.7363      5348.2710     12176.8145      7492.1587 
      0.250503      3010.2864         2.5238         1.5529     14204.8906 
     3622.5925      6013.1602     16882.9648         1.8043      9356.8213 
        8.0241         5.5238
    3668.57280 
       42.3755        72.2924        42.7339       101.8509      1323.2418 
       59.3605       106.0386     13694.7285      7666.3213        26.2462 
       26.2462        70.0006        22.0363    0.000632622       0.271798 
     -999.2500     11954.3301      5348.2939     12180.9131      7422.6709 
      0.244618      3047.5981         2.5246         1.5384     14140.5381 
     3680.8306      5996.9155     16846.2188         1.7863      9430.5283 
        8.1296         5.6216
    3668.72520 
       42.2080        74.0549        45.8284       102.2814      1315.4906 
       59.8317       105.4362     13581.8857      7707.2891        24.6289 
       24.6289        65.6630        22.2806    0.000639401       0.262515 
     -999.2500     11954.9258      5348.3169     12186.3916      7325.6055 
      0.236263      2974.5254         2.5256         1.5182     13800.2617 
     3697.5447      5938.2651     16713.5488         1.7622      9484.4082 
        8.1597         5.6496
    3668.87760 
       42.1222        74.8765        47.4691       102.2840      1311.5382 
       60.0739       105.1318     13502.0635      7715.2827        23.7695 
       23.7695        63.2545        22.3683    0.000640728       0.257593 
     -999.2500     11955.5205      5348.3403     12189.5430      7275.0645 
      0.231833      2648.6450         2.5261         1.5077     13047.4189 
     3697.6426      5908.4766     16646.1641         1.7500      9511.8701 
        8.1599         5.6498
    3669.03000 
       42.1702        74.7132        47.2412       102.1853      1313.7500 
       59.9382       104.9942     13478.4736      7694.4771        23.8668 
       23.8668        63.2593        22.3372    0.000637277       0.258277 
     -999.2500     11956.1152      5348.3633     12189.8076      7282.2666 
      0.232449      2383.3345         2.5261         1.5091     12531.2021 
     3693.8081      5925.1362     16683.8516         1.7517      9524.3350 
        8.1530         5.6433
    3669.18240 
       42.2380        74.7141        46.7717       102.6565      1316.8779 
       59.7470       104.8658     13527.9844      7707.5317        24.2082 
       24.2082        64.1943        22.4025    0.000639441       0.259685 
     -999.2500     11956.7100      5348.3862     12189.6963      7296.9858 
      0.233716      2361.1506         2.5260         1.5121     12516.2734 
     3712.1289      5948.7393     16737.2422         1.7552      9535.9971 
        8.1860         5.6741
    3669.33480 
       42.2517        75.1197        47.0068       103.2327      1317.5078 
       59.7086       104.6948     13566.6494      7737.2095        24.2040 
       24.2040        64.3251        22.5255    0.000644375       0.258980 
     -999.2500     11957.3057      5348.4092     12190.6719      7289.9736 
      0.233082      2577.2119         2.5260         1.5106     12934.3711 
     3734.5835      5953.4980     16748.0059         1.7534      9551.5723 
        8.2263         5.7118
    3669.48720 
       42.2928        75.5743        47.1244       104.0242      1319.4103 
       59.5928       104.4402     13621.9102      7772.5601        24.3050 
       24.3050        64.7310        22.6836    0.000650277       0.258627 
     -999.2500     11957.8994      5348.4321     12191.4639      7286.6089 
      0.232764      2830.8281         2.5261         1.5098     13434.8740 
     3765.5232      5967.8853     16780.5508         1.7526      9574.8574 
        8.2817         5.7637
    3669.63960 
       42.4606        76.0278        46.0415       106.0141      1327.1917 
       59.1223       104.0912     13832.3916      7856.5986        25.3003 
       25.3003        67.8828        23.0057    0.000664415       0.261875 
     -999.2500     11958.4951      5348.4556     12190.3955      7320.4961 
      0.235688      2941.6372         2.5258         1.5168     13724.2666 
     3843.7749      6026.9204     16914.0918         1.7606      9606.9600 
        8.4210         5.8950
    3669.79200 
       42.6933        76.3919        44.1972       108.5865      1338.0536 
       58.4738       103.7756     14136.3906      7965.3457        26.8971 
       26.8971        72.9441        23.3951    0.000682935       0.267408 
     -999.2500     11959.0898      5348.4785     12188.1133      7378.6094 
      0.240668      2924.9517         2.5252         1.5287     13807.1221 
     3945.9419      6109.8467     17101.6758         1.7747      9636.1768 
        8.6011         6.0664
    3669.94440 
       42.8128        76.6905        43.0560       110.3250      1343.6667 
       58.1424       103.7122     14361.7051      8051.3574        27.9641 
       27.9641        76.6098        23.6622    0.000697764       0.270832 
     -999.2500     11959.6836      5348.5015     12186.9160      7415.0498 
      0.243749      2875.8250         2.5248         1.5362     13781.7490 
     4015.6267      6152.9385     17199.1523         1.7838      9642.0674 
        8.7227         6.1834
