~Version Information Block
VERS .                  2.0:  CWLS LOG ASCII STANDARD - VERSION 2.0
WRAP .                   NO:  One line per depth step
~Well Information Block
#MNEM.UNIT        Data Type   Information
#---------- ----------------  -----------
STRT .M          2889.76360:  START DEPTH
STOP .M          3614.73040:  STOP DEPTH
STEP .M             0.15240:  STEP
NULL .              -999.25:  NULL VALUE
COMP .                     :  COMPANY
WELL .       RAAG-89-05-105:  WELL
FLD  .                     :  FIELD
LOC  .                     :  LOCATION
CTRY .                     :  COUNTRY
STAT .                     :  STATE
CNTY .                     :  COUNTY
SRVC .                     :  SERVICE COMPANY
DATE .                     :  DATE
API  .                     :  API NUMBER
UWI  .                     :  UNIQUE WELL ID
~Curve Information Block
#MNEM.UNIT         API CODE   Curve Description
#---------- ----------------  -----------------
DEPTH.M                    :  
PRESS_PP.PSI                  :  Pore Pressure
PZS  .PSI                  :  Processed Zone Stress
~Parameter Information Block
#MNEM.UNIT            Value   Description
#---------- ----------------  -----------
PROJECT.          RDG_13Jul21:  
SET  .              GEOMECH:  
~Other Information Block
# 
~A       DEPTH       PRESS_PP            PZS 
# ...
    3405.18040      5329.2007      2982.0117
    3405.33280      5329.2354      2910.6750
    3405.48520      5329.2700      2826.3049
    3405.63760      5329.3047      2846.4888
    3405.79000      5329.3398      2982.0117
    3405.94240      5329.3745      3021.2324
    3406.09480      5329.4092      3048.6260
    3406.24720      5329.4434      3051.6819
    3406.39960      5329.4780      2982.0117
    3406.55200      5329.5127      2866.7876
    3406.70440      5329.5474      2820.5593
    3406.85680      5329.5820      2809.0959
    3407.00920      5329.6167      2829.1814
    3407.16160      5329.6509      2803.3782
    3407.31400      5329.6855      2699.2693
    3407.46640      5329.7207      2571.5071
    3407.61880      5329.7549      2777.7639
    3407.77120      5329.7891      2904.7925
    3407.92360      5329.8237      2898.9194
    3408.07600      5329.8579      2772.0972
    3408.22840      5329.8921      2571.5071
    3408.38080      5329.9268      2746.7119
    3408.53320      5329.9609      2834.9412
    3408.68560      5329.9956      2907.7327
    3408.83800      5330.0298      3000.0627
    3408.99040      5330.0645      2997.0481
    3409.14280      5330.0986      2946.1707
    3409.29520      5330.1328      2910.6750
    3409.44760      5330.1675      2913.6199
    3409.60000      5330.2017      2931.3391
    3409.75240      5330.2358      2849.3813
    3409.90480      5330.2695      2774.9294
    3410.05720      5330.3037      2693.7312
    3410.20960      5330.3379      2611.7449
    3410.36200      5330.3726      2568.8423
    3410.51440      5330.4067      2655.2185
    3410.66680      5330.4404      2721.5129
    3410.81920      5330.4746      2674.4194
    3410.97160      5330.5088      2492.5195
    3411.12400      5330.5425      2271.9541
    3411.27640      5330.5767      2279.2065
    3411.42880      5330.6104      2335.4263
    3411.58120      5330.6450      2451.1936
    3411.73360      5330.6787      2579.5146
    3411.88600      5330.7124      2657.9548
    3412.03840      5330.7471      2609.0466
    3412.19080      5330.7808      2382.7004
    3412.34320      5330.8145      2243.1287
    3412.49560      5330.8486      2139.9280
    3412.64800      5330.8823      2049.4387
    3412.80040      5330.9160      2003.1730
    3412.95280      5330.9497      1992.2815
    3413.10520      5330.9834      1957.7466
    3413.25760      5331.0176      1917.3601
    3413.41000      5331.0513      1904.7460
    3413.56240      5331.0850      1962.0371
    3413.71480      5331.1187      2022.8977
    3413.86720      5331.1523      2000.9910
    3414.01960      5331.1860      1915.2532
    3414.17200      5331.2197      1869.3660
    3414.32440      5331.2529      2103.3567
    3414.47680      5331.2866      2392.7500
    3414.62920      5331.3208      2587.5422
    3414.78160      5331.3540      2671.6697
    3414.93400      5331.3882      2633.4099
    3415.08640      5331.4219      2469.2056
    3415.23880      5331.4551      2428.1899
    3415.39120      5331.4888      2357.7249
    3415.54360      5331.5220      2367.6899
    3415.69600      5331.5557      2489.9204
    3415.84840      5331.5889      2598.2766
    3416.00080      5331.6221      2633.4099
    3416.15320      5331.6558      2627.9802
    3416.30560      5331.6895      2474.3713
    3416.45800      5331.7227      2274.3696
    3416.61040      5331.7559      2433.2869
    3416.76280      5331.7891      2526.5054
    3416.91520      5331.8223      2617.1477
    3417.06760      5331.8560      2715.9382
    3417.22000      5331.8896      2794.8193
    3417.37240      5331.9229      2757.9712
    3417.52480      5331.9561      2609.0466
    3417.67720      5331.9893      2598.2766
    3417.82960      5332.0220      2743.9028
    3417.98200      5332.0557      2964.0479
    3418.13440      5332.0889      2967.0359
    3418.28680      5332.1221      2766.4399
    3418.43920      5332.1553      2619.8523
    3418.59160      5332.1880      2563.5195
    3418.74400      5332.2212      2587.5422
    3418.89640      5332.2539      2587.5422
    3419.04880      5332.2871      2464.0486
    3419.20120      5332.3208      2448.6292
    3419.35360      5332.3535      2582.1882
    3419.50600      5332.3867      2809.0959
    3419.65840      5332.4194      2840.7102
    3419.81080      5332.4526      2814.8230
    3419.96320      5332.4858      2863.8806
    3420.11560      5332.5186      2800.5229
    3420.26800      5332.5513      2603.6572
    3420.42040      5332.5840      2537.0371
    3420.57280      5332.6172      2721.5129
    3420.72520      5332.6499      2729.8918
    3420.87760      5332.6831      2774.9294
    3421.03000      5332.7158      2949.1443
    3421.18240      5332.7485      3073.1423
    3421.33480      5332.7813      3079.2959
    3421.48720      5332.8140      3079.2959
    3421.63960      5332.8467      2979.0117
    3421.79200      5332.8794      2797.6699
    3421.94440      5332.9116      2743.9028
    3422.09680      5332.9448      2760.7917
    3422.24920      5332.9775      2817.6899
    3422.40160      5333.0103      2901.8547
    3422.55400      5333.0435      2994.0359
    3422.70640      5333.0757      3076.2180
    3422.85880      5333.1084      2928.3799
    3423.01120      5333.1406      2943.1995
    3423.16360      5333.1733      3021.2324
    3423.31600      5333.2056      3060.8645
    3423.46840      5333.2383      2976.0142
    3423.62080      5333.2705      3054.7402
    3423.77320      5333.3037      2811.9583
    3423.92560      5333.3359      2674.4194
    3424.07800      5333.3682      2757.9712
    3424.23040      5333.4009      2696.4993
    3424.38280      5333.4331      2738.2915
    3424.53520      5333.4653      2766.4399
    3424.68760      5333.4976      2840.7102
    3424.84000      5333.5298      2982.0117
    3424.99240      5333.5620      3076.2180
    3425.14480      5333.5947      2777.7639
    3425.29720      5333.6270      2614.4451
    3425.44960      5333.6597      2576.8433
    3425.60200      5333.6919      2647.0234
    3425.75440      5333.7241      2855.1741
    3425.90680      5333.7563      2946.1707
    3426.05920      5333.7886      2860.9761
    3426.21160      5333.8203      2682.6824
    3426.36400      5333.8525      2547.6035
    3426.51640      5333.8848      2688.2021
    3426.66880      5333.9165      2789.1248
    3426.82120      5333.9492      2964.0479
    3426.97360      5333.9814      3079.2959
    3427.12600      5334.0132      3076.2180
    3427.27840      5334.0454      3057.8013
    3427.43080      5334.0771      3030.3416
    3427.58320      5334.1089      3054.7402
    3427.73560      5334.1416      3079.2959
    3427.88800      5334.1733      3039.4727
    3428.04040      5334.2051      2855.1741
    3428.19280      5334.2373      2846.4888
    3428.34520      5334.2690      2860.9761
    3428.49760      5334.3013      2946.1707
    3428.65000      5334.3330      3079.2959
    3428.80240      5334.3647      3079.2959
    3428.95480      5334.3965      3079.2959
    3429.10720      5334.4282      3079.2959
    3429.25960      5334.4600      3079.2959
    3429.41200      5334.4917      3079.2959
    3429.56440      5334.5234      3079.2959
    3429.71680      5334.5557      3079.2959
    3429.86920      5334.5874      3079.2959
    3430.02160      5334.6191      3079.2959
    3430.17400      5334.6504      3079.2959
    3430.32640      5334.6826      3079.2959
    3430.47880      5334.7144      3027.3027
    3430.63120      5334.7461      3048.6260
    3430.78360      5334.7773      3079.2959
    3430.93600      5334.8091      3079.2959
    3431.08840      5334.8403      3079.2959
    3431.24080      5334.8721      3073.1423
    3431.39320      5334.9038      3076.2180
    3431.54560      5334.9355      3079.2959
    3431.69800      5334.9668      3057.8013
    3431.85040      5334.9980      2961.0623
    3432.00280      5335.0298      3027.3027
    3432.15520      5335.0610      3066.9985
