~Version Information Block
VERS .                  2.0:  CWLS LOG ASCII STANDARD - VERSION 2.0
WRAP .                  YES:  Multiple lines per depth step
~Well Information Block
#MNEM.UNIT        Data Type   Information
#---------- ----------------  -----------
STRT .M          2776.00000:  START DEPTH
STOP .M          3750.44560:  STOP DEPTH
STEP .M             0.15240:  STEP
NULL .              -999.25:  NULL VALUE
COMP .                     :  COMPANY
WELL .      RAAG-102-07-105:  WELL
FLD  .                     :  FIELD
LOC  .                     :  LOCATION
CTRY .                     :  COUNTRY
STAT .                     :  STATE
CNTY .                     :  COUNTY
SRVC .                     :  SERVICE COMPANY
DATE .                     :  DATE
API  .                     :  API NUMBER
UWI  .                     :  UNIQUE WELL ID
~Curve Information Block
#MNEM.UNIT         API CODE   Curve Description
#---------- ----------------  -----------------
DEPTH.M                    :  
ANGLE_FAIL.DEG                  :  Fail Angle
BRIT_IND.                     :  Brittleness Index
BRIT_PR.                     :  Brittleness Index from Poisson's Ratio
BRIT_YM.                     :  Brittleness Index from Young's Modulus
CS   .M/MIN                 :  Compressive Strength
DTCO .US/F                 :  Compressional slowness
DTSM .US/F                 :  Fast Shear Slowness
IP   .RAYL/M2                 :  P Impedence
IS   .RAYL/M2                 :  S Impedance
KBULK.                     :  Bulk Mudulus
LAMBDA.                     :  Lambda
LAMRHO.                     :  
MU   .CP                   :  Mu
MURHO.(GF/C3S)2                 :  Mu*Rho
PR   .                     :  Poisson's ratio
PRESS_FG.PSI                  :  Fracture Gradient Pressure
PRESS_OB.PSI                  :  Over-burden Pressure
PRESS_PP.PSI                  :  Pore Pressure
PRESS_SHMAX.PSI                  :  Horizontal Stress (Max)
PRESS_SHMIN.PSI                  :  Horizontal Stress (Min)
PR_STAT.                     :  Poisson's ratio (Static)
PZS  .PSI                  :  Processed Zone Stress
SHMAX_GRAD.                     :  Horizontal Stress Gradient (Max)
SHMIN_GRAD.                     :  Horizontal Stress Gradient (Min)
STRESS_CUM.PSI                  :  Cumulative stress (SHPZ)
UCS_BF.PSI                  :  Uniaxial Compressive Strength (BF)
UCS_LAL.PSI                  :  Uniaxial Compressive Strength (lal)
VP   .FT/S                 :  Compressional velocity
VPVS .                     :  Vp / Vs ratio
VS   .FT/S                 :  Shear velocity
YM   .                     :  Youngs' Modulus
YM_STAT.                     :  Youngs' Modulus (Static)
~Parameter Information Block
#MNEM.UNIT            Value   Description
#---------- ----------------  -----------
PROJECT.          RDG_13Jul21:  
SET  .              GEOMECH:  
~Other Information Block
~Ascii Log Data
# ...
    2873.53600 
       30.1046        13.5466        13.3747        13.7186       840.9109 
      101.1722       216.2405      7535.4790      3525.6162        12.7630 
       12.7630        31.9235         4.9695    0.000133795       0.359876 
     -999.2500      9064.4531      4997.2720      9172.9229      6895.0518 
      0.323888      3033.8962         2.4395         1.8337     13057.8955 
      927.3462      2919.1531      9884.1377         2.1374      4624.4810 
        1.9603         1.0012
    2873.68840 
       29.4294        10.9625        10.6829        11.2422       818.2270 
      103.9569       227.4373      7351.6733      3360.2983        12.5484 
       12.5484        31.4639         4.5033    0.000121542       0.367951 
     -999.2500      9065.0273      4997.3916      9170.1670      6962.2383 
      0.331156      3009.4661         2.4386         1.8515     13143.4092 
      869.1739      2802.1062      9619.3711         2.1878      4396.8159 
        1.7870         0.9036
    2873.84080 
       29.9025         9.4069         7.7551        11.0587       834.0880 
      101.9999       229.3590      7516.8628      3342.8787        13.5773 
       13.5773        34.1536         4.4424    0.000120285       0.376735 
     -999.2500      9065.6016      4997.5103      9167.0254      7037.1191 
      0.339061      3009.9729         2.4377         1.8713     13294.1846 
      864.9070      2883.6958      9803.9316         2.2486      4359.9771 
        1.7741         0.8964
    2873.99320 
       30.8360        11.1638         8.8057        13.5219       865.8345 
       98.2193       218.6380      7800.7432      3504.3477        14.4370 
       14.4370        36.2907         4.8854    0.000132186       0.373583 
     -999.2500      9066.1758      4997.6299      9168.9512      7010.6582 
      0.336225      3047.8140         2.4380         1.8641     13316.9443 
      922.6877      3050.5205     10181.2988         2.2260      4573.7705 
        1.9465         0.9934
    2874.14560 
       30.7024        11.4178         9.4494        13.3861       861.2532 
       98.7539       218.5041      7722.0269      3490.0044        14.0970 
       14.0970        35.2694         4.8683    0.000131106       0.371652 
     -999.2500      9066.7510      4997.7485      9170.3584      6994.5938 
      0.334487      3079.2891         2.4383         1.8598     13347.7656 
      919.4750      3026.1550     10126.1826         2.2126      4576.5732 
        1.9370         0.9880
    2874.29800 
       29.8219         8.4096         6.6741        10.1450       831.3755 
      102.3313       232.5847      7409.5259      3260.0012        13.5253 
       13.5253        33.6459         4.2722    0.000114395       0.379978 
     -999.2500      9067.3252      4997.8677      9167.3857      7066.1069 
      0.341980      3079.2891         2.4373         1.8787     13490.7920 
      843.7373      2869.6599      9772.1807         2.2729      4299.5093 
        1.7102         0.8609
    2874.45040 
       28.4600         7.3743         7.1026         7.6460       786.1790 
      108.0558       244.5440      6970.1714      3079.8853        11.9837 
       11.9837        29.6119         3.8388    0.000102103       0.378692 
     -999.2500      9067.8994      4997.9873      9168.5342      7055.1909 
      0.340823      3078.8774         2.4375         1.8757     13468.1367 
      786.5680      2640.7961      9254.4775         2.2631      4089.2437 
        1.5352         0.7650
    2874.60280 
       27.9439         6.4951         6.5381         6.4522       769.3578 
      110.2874       251.0124      6795.1846      2985.6023        11.5290 
       11.5290        28.3469         3.6254    0.000095948       0.380386 
     -999.2500      9068.4746      4998.1060      9168.3906      7070.1421 
      0.342347      3066.9368         2.4373         1.8795     13474.1572 
      759.6349      2558.0137      9067.2188         2.2760      3983.8667 
        1.4517         0.7198
    2874.75520 
       27.5311         6.4108         6.9063         5.9153       756.0186 
      112.0976       254.1887      6683.5801      2947.4688        11.1044 
       11.1044        27.2951         3.5343    0.000093512       0.379281 
     -999.2500      9069.0488      4998.2251      9169.4561      7060.8921 
      0.341353      3027.7026         2.4375         1.8770     13377.1895 
      747.6020      2493.2844      8920.7979         2.2676      3934.0850 
        1.4141         0.6996
    2874.90760 
       27.3982         6.7829         7.5202         6.0455       751.7471 
      112.6850       253.9694      6688.9751      2967.8660        10.9692 
       10.9692        27.1259         3.5619    0.000094811       0.377439 
     -999.2500      9069.6230      4998.3442      9170.8359      7045.3521 
      0.339695      2984.0518         2.4377         1.8727     13258.8076 
      750.5150      2472.7273      8874.2959         2.2538      3937.4822 
        1.4232         0.7045
    2875.06000 
       27.4863         6.4486         6.8618         6.0354       754.5765 
      112.2955       254.7509      6740.5415      2971.2654        11.1856 
       11.1856        27.7781         3.5550    0.000095028       0.379415 
     -999.2500      9070.1982      4998.4629      9170.5693      7062.7617 
      0.341473      2987.9863         2.4375         1.8772     13301.4961 
      750.2899      2486.3345      8905.0762         2.2686      3925.4031 
        1.4225         0.7041
    2875.21240 
       27.7503         6.4907         6.6168         6.3646       763.0904 
      111.1334       252.7367      6808.7168      2993.9294        11.4526 
       11.4526        28.4314         3.6107    0.000096484       0.380150 
     -999.2500      9070.7725      4998.5820      9170.8350      7069.5068 
      0.342135      3037.1780         2.4374         1.8789     13413.3691 
      757.6688      2527.5000      8998.1953         2.2742      3956.6870 
        1.4455         0.7165
    2875.36480 
       28.2534         6.5867         6.1897         6.9837       779.4269 
      108.9448       248.8369      6928.2119      3033.2827        11.9525 
       11.9525        29.5985         3.7155    0.000099037       0.381431 
     -999.2500      9071.3467      4998.7012      9170.8623      7081.0361 
      0.343288      3044.0652         2.4373         1.8819     13450.2021 
      771.5953      2607.4116      9178.9600         2.2841      4018.6965 
        1.4889         0.7398
    2875.51720 
       28.4573         6.8826         6.3670         7.3983       786.0928 
      108.0671       246.3863      6983.7593      3063.1355        12.1188 
       12.1188        30.0073         3.7893    0.000100996       0.380899 
     -999.2500      9071.9209      4998.8198      9171.6777      7076.7866 
      0.342809      3062.4751         2.4374         1.8806     13478.5234 
      780.9592      2640.3684      9253.5107         2.2799      4058.6672 
        1.5179         0.7556
    2875.66960 
       28.4016         7.1295         6.7565         7.5025       784.2687 
      108.3064       245.9612      6983.6001      3075.1541        12.0319 
       12.0319        29.8575         3.8108    0.000101790       0.379731 
     -999.2500      9072.4951      4998.9390      9172.7695      7067.0005 
      0.341757      3077.5222         2.4375         1.8779     13489.0449 
      783.3184      2631.3301      9233.0654         2.2710      4065.6819 
        1.5252         0.7595
    2875.82200 
       28.0822         6.9562         6.8705         7.0419       773.8508 
      109.6858       248.8090      6908.9214      3045.7522        11.7365 
       11.7365        29.1800         3.7312    0.000099853       0.379389 
     -999.2500      9073.0693      4999.0581      9173.5039      7064.3643 
      0.341450      3058.5056         2.4376         1.8771     13445.7402 
      772.9092      2579.9988      9116.9502         2.2684      4019.1470 
        1.4929         0.7421
