~Version Information Block
VERS .                  2.0:  CWLS LOG ASCII STANDARD - VERSION 2.0
WRAP .                  YES:  Multiple lines per depth step
~Well Information Block
#MNEM.UNIT        Data Type   Information
#---------- ----------------  -----------
STRT .M          2888.43720:  START DEPTH
STOP .M          3831.03120:  STOP DEPTH
STEP .M             0.15240:  STEP
NULL .              -999.25:  NULL VALUE
COMP .                     :  COMPANY
WELL .       RAAG-99-02-105:  WELL
FLD  .                     :  FIELD
LOC  .                     :  LOCATION
CTRY .                     :  COUNTRY
STAT .                     :  STATE
CNTY .                     :  COUNTY
SRVC .                     :  SERVICE COMPANY
DATE .                     :  DATE
API  .                     :  API NUMBER
UWI  .                     :  UNIQUE WELL ID
~Curve Information Block
#MNEM.UNIT         API CODE   Curve Description
#---------- ----------------  -----------------
DEPTH.M                    :  
ANGLE_FAIL.DEG                  :  Fail Angle
BRIT_IND.                     :  Brittleness Index
BRIT_PR.                     :  Brittleness Index from Poisson's Ratio
BRIT_YM.                     :  Brittleness Index from Young's Modulus
CS   .M/MIN                 :  Compressive Strength
DTCO .US/F                 :  Compressional slowness
DTSM .US/F                 :  Fast Shear Slowness
IP   .RAYL/M2                 :  P Impedence
IS   .RAYL/M2                 :  S Impedance
KBULK.                     :  Bulk Mudulus
LAMBDA.                     :  Lambda
LAMRHO.                     :  
MU   .CP                   :  Mu
MURHO.(GF/C3S)2                 :  Mu*Rho
PR   .                     :  Poisson's ratio
PRESS_FG.PSI                  :  Fracture Gradient Pressure
PRESS_OB.PSI                  :  Over-burden Pressure
PRESS_PP.PSI                  :  Pore Pressure
PRESS_SHMAX.PSI                  :  Horizontal Stress (Max)
PRESS_SHMIN.PSI                  :  Horizontal Stress (Min)
PR_STAT.                     :  Poisson's ratio (Static)
PZS  .PSI                  :  Processed Zone Stress
SHMAX_GRAD.                     :  Horizontal Stress Gradient (Max)
SHMIN_GRAD.                     :  Horizontal Stress Gradient (Min)
STRESS_CUM.PSI                  :  Cumulative stress (SHPZ)
UCS_BF.PSI                  :  Uniaxial Compressive Strength (BF)
UCS_LAL.PSI                  :  Uniaxial Compressive Strength (lal)
VP   .FT/S                 :  Compressional velocity
VPVS .                     :  Vp / Vs ratio
VS   .FT/S                 :  Shear velocity
YM   .                     :  Youngs' Modulus
YM_STAT.                     :  Youngs' Modulus (Static)
~Parameter Information Block
#MNEM.UNIT            Value   Description
#---------- ----------------  -----------
PROJECT.          RDG_13Jul21:  
SET  .              GEOMECH:  
~Other Information Block
~Ascii Log Data
# ...
    3568.75080 
       43.1161       100.1004        66.5641       133.6366      1358.0020 
       57.3074        93.6126     14920.0811      9133.7168        19.8770 
       19.8770        55.7592        29.7391    0.000897977       0.200308 
     -999.2500     11416.0654      5318.2944     11657.5723      6585.9258 
      0.180277      2595.7410         2.5176         1.4223     11563.3330 
     5000.0254      6263.7231     17449.7539         1.6335     10682.3223 
       10.3546         7.8352
    3568.90320 
       42.6769        91.0595        61.0358       121.0832      1337.2863 
       58.5193        97.3272     14256.3418      8571.8184        20.5659 
       20.5659        56.2911        26.8444    0.000790890       0.216893 
     -999.2500     11416.6641      5318.3354     11651.2217      6725.5244 
      0.195203      2472.3064         2.5161         1.4524     11595.6621 
     4458.3672      6103.9688     17088.3789         1.6632     10274.6201 
        9.4758         6.9263
    3569.05560 
       41.5882        79.5250        56.0296       103.0204      1287.1715 
       61.5963       104.2608     13304.5771      7860.2188        19.8780 
       19.8780        53.4457        22.9789    0.000665027       0.231911 
     -999.2500     11417.2617      5318.3760     11645.3252      6856.0029 
      0.208720      2385.5701         2.5147         1.4805     11683.1465 
     3726.3069      5726.5967     16234.7412         1.6926      9591.3320 
        8.2114         5.6979
    3569.20800 
       40.2729        68.3810        50.3451        86.4170      1228.8302 
       65.4559       113.2170     12500.7959      7227.2788        19.2966 
       19.2966        51.8028        19.4571    0.000562237       0.248965 
     -999.2500     11417.8604      5318.4170     11638.2471      7010.1157 
      0.224068      2392.2219         2.5131         1.5137     12004.6758 
     3102.6355      5303.4067     15277.4619         1.7297      8832.5957 
        7.0492         4.6513
    3569.36040 
       39.4862        61.2538        45.4442        77.0633      1195.0104 
       67.8408       119.7474     12097.1914      6853.4526        19.4621 
       19.4621        52.4024        17.4445    0.000505579       0.263667 
     -999.2500     11418.4590      5318.4575     11631.9590      7148.4634 
      0.237301      2364.6724         2.5116         1.5435     12226.2715 
     2772.0583      5065.9824     14740.3926         1.7651      8350.9121 
        6.3944         4.0966
    3569.51280 
       39.3141        58.2072        42.3000        74.1143      1187.7166 
       68.3701       122.3732     12041.1641      6727.4180        20.1681 
       20.1681        54.4733        16.7563    0.000487155       0.273100 
     -999.2500     11419.0566      5318.4980     11628.0039      7240.1152 
      0.245790      2454.5762         2.5106         1.5632     12589.3828 
     2670.9397      5015.5342     14626.2754         1.7899      8171.7241 
        6.1880         3.9270
    3569.66520 
       39.4539        59.8500        43.4975        76.2024      1193.6389 
       67.9399       120.9496     12151.0127      6825.4766        20.1121 
       20.1121        54.4729        17.2006    0.000501460       0.269508 
     -999.2500     11419.6553      5318.5391     11630.3711      7205.3408 
      0.242557      2560.5510         2.5110         1.5557     12731.7832 
     2742.3853      5056.4766     14718.8906         1.7802      8267.9063 
        6.3342         4.0468
    3569.81760 
       39.6485        66.6867        51.1066        82.2667      1201.9260 
       67.3439       116.1324     12279.7324      7120.8818        18.1995 
       18.1995        49.3779        18.6894    0.000545805       0.246680 
     -999.2500     11420.2529      5318.5801     11641.7939      6989.4390 
      0.222012      2648.3230         2.5134         1.5090     12475.5234 
     2954.1091      5114.0630     14849.1553         1.7245      8610.8613 
        6.7587         4.4021
    3569.97000 
       39.8275        70.7502        55.3924        86.1080      1209.5876 
       66.7990       113.3311     12386.6553      7300.8750        17.2487 
       17.2487        46.8237        19.6354    0.000573746       0.233823 
     -999.2500     11420.8516      5318.6206     11648.2500      6872.8877 
      0.210440      2759.5645         2.5147         1.4837     12464.9043 
     3091.4744      5167.6108     14970.2832         1.6966      8823.7031 
        7.0276         4.6326
    3570.12240 
       39.9803        68.9246        52.2761        85.5730      1216.1628 
       66.3360       113.8745     12431.7109      7241.9194        18.3532 
       18.3532        49.6566        19.3839    0.000564518       0.243172 
     -999.2500     11421.4502      5318.6616     11644.6318      6957.8057 
      0.218854      2879.5193         2.5138         1.5020     12874.6494 
     3072.1936      5213.8027     15074.7705         1.7166      8781.5977 
        6.9901         4.6003
    3570.27480 
       40.0020        65.4078        47.4693        83.3463      1217.0979 
       66.2705       115.9760     12474.9961      7128.4082        19.9079 
       19.9079        53.9971        18.7344    0.000546960       0.257592 
     -999.2500     11422.0479      5318.7026     11638.5381      7092.2358 
      0.231833      2876.4551         2.5123         1.5309     13137.3828 
     2992.4587      5220.3892     15089.6709         1.7500      8622.4746 
        6.8342         4.4665
    3570.42720 
       39.9468        62.1346        43.5748        80.6945      1214.7191 
       66.4373       118.2339     12465.8350      7004.7290        21.0750 
       21.0750        57.2646        18.0578    0.000528145       0.269276 
     -999.2500     11422.6455      5318.7427     11633.5518      7204.5195 
      0.242348      2858.7910         2.5111         1.5551     13326.6211 
     2898.6130      5203.6411     15051.7852         1.7796      8457.8115 
        6.6486         4.3090
    3570.57960 
       39.8188        60.3816        42.1479        78.6153      1209.2159 
       66.8253       119.6911     12381.0498      6912.5220        21.2655 
       21.2655        57.7245        17.6031    0.000514332       0.273556 
     -999.2500     11423.2441      5318.7837     11632.0811      7246.5034 
      0.246201      2869.5215         2.5107         1.5641     13432.0498 
     2825.8743      5165.0063     14964.3916         1.7911      8354.8398 
        6.5031         4.1869
    3570.73200 
       39.5834        58.7946        41.6286        75.9605      1199.1470 
       67.5430       121.2646     12199.4463      6794.9526        20.8938 
       20.8938        56.4837        17.0792    0.000496985       0.275114 
     -999.2500     11423.8418      5318.8247     11631.9395      7261.8848 
      0.247603      2884.6887         2.5105         1.5673     13493.1465 
     2734.0715      5094.7129     14805.3828         1.7954      8246.4297 
        6.3172         4.0329
    3570.88440 
       39.3462        56.6210        40.4766        72.7654      1189.0724 
       68.2713       123.2302     11989.9707      6642.6157        20.6698 
       20.6698        55.5107        16.4300    0.000474950       0.278570 
     -999.2500     11424.4404      5318.8647     11630.8545      7296.1602 
      0.250713      2858.7222         2.5102         1.5747     13509.7646 
     2625.1824      5024.8916     14647.4424         1.8050      8114.8940 
        6.0936         3.8502
    3571.03680 
       39.1298        54.6537        39.4838        69.8236      1179.9421 
       68.9403       125.0243     11781.3936      6496.4395        20.4124 
       20.4124        54.3938        15.8378    0.000454277       0.281549 
     -999.2500     11425.0391      5318.9058     11629.9932      7325.9517 
      0.253394      2841.4297         2.5099         1.5810     13534.7627 
     2526.4702      4962.0552     14505.3047         1.8135      7998.4448 
        5.8876         3.6845
