~Version Information Block
VERS .                  2.0:  CWLS LOG ASCII STANDARD - VERSION 2.0
WRAP .                  YES:  Multiple lines per depth step
~Well Information Block
#MNEM.UNIT        Data Type   Information
#---------- ----------------  -----------
STRT .M          2738.62800:  START DEPTH
STOP .M          3798.57000:  STOP DEPTH
STEP .M             0.15240:  STEP
NULL .              -999.25:  NULL VALUE
COMP .                     :  COMPANY
WELL .      RAAG-106-07-211:  WELL
FLD  .                     :  FIELD
LOC  .                     :  LOCATION
CTRY .                     :  COUNTRY
STAT .                     :  STATE
CNTY .                     :  COUNTY
SRVC .                     :  SERVICE COMPANY
DATE .                     :  DATE
API  .                     :  API NUMBER
UWI  .                     :  UNIQUE WELL ID
~Curve Information Block
#MNEM.UNIT         API CODE   Curve Description
#---------- ----------------  -----------------
DEPTH.M                    :  
ANGLE_FAIL.DEG                  :  Fail Angle
BRIT_IND.                     :  Brittleness Index
BRIT_PR.                     :  Brittleness Index from Poisson's Ratio
BRIT_YM.                     :  Brittleness Index from Young's Modulus
CS   .M/MIN                 :  Compressive Strength
DTCO .US/F                 :  Compressional slowness
DTSM .US/F                 :  Fast Shear Slowness
IP   .RAYL/M2                 :  P Impedence
IS   .RAYL/M2                 :  S Impedance
KBULK.                     :  Bulk Mudulus
LAMBDA.                     :  Lambda
LAMRHO.                     :  
MU   .CP                   :  Mu
MURHO.(GF/C3S)2                 :  Mu*Rho
PR   .                     :  Poisson's ratio
PRESS_FG.PSI                  :  Fracture Gradient Pressure
PRESS_OB.PSI                  :  Over-burden Pressure
PRESS_PP.PSI                  :  Pore Pressure
PRESS_SHMAX.PSI                  :  Horizontal Stress (Max)
PRESS_SHMIN.PSI                  :  Horizontal Stress (Min)
PR_STAT.                     :  Poisson's ratio (Static)
PZS  .PSI                  :  Processed Zone Stress
SHMAX_GRAD.                     :  Horizontal Stress Gradient (Max)
SHMIN_GRAD.                     :  Horizontal Stress Gradient (Min)
STRESS_CUM.PSI                  :  Cumulative stress (SHPZ)
UCS_BF.PSI                  :  Uniaxial Compressive Strength (BF)
UCS_LAL.PSI                  :  Uniaxial Compressive Strength (lal)
VP   .FT/S                 :  Compressional velocity
VPVS .                     :  Vp / Vs ratio
VS   .FT/S                 :  Shear velocity
YM   .                     :  Youngs' Modulus
YM_STAT.                     :  Youngs' Modulus (Static)
~Parameter Information Block
#MNEM.UNIT            Value   Description
#---------- ----------------  -----------
PROJECT.          RDG_13Jul21:  
SET  .              GEOMECH:  
~Other Information Block
~Ascii Log Data
# ...
    3299.46000 
       41.6671        70.8070        43.3344        98.2796      1290.7456 
       61.3698       109.3327     13668.4639      7672.2783        25.1081 
       25.1081        69.0992        21.3889    0.000633605       0.269997 
     -999.2500     10531.5723      5236.8413     10714.5283      6872.4482 
      0.242997      2909.8518         2.4875         1.5955     12764.6006 
     3543.4165      5753.0845     16294.6602         1.7815      9146.3945 
        7.8796         5.3910
    3299.61240 
       41.6363        73.0024        46.1114        99.8934      1289.3502 
       61.4581       108.1714     13641.4375      7750.4478        23.9767 
       23.9767        65.9499        21.8388    0.000646582       0.261666 
     -999.2500     10532.1504      5236.9102     10718.6191      6802.7861 
      0.235499      2791.2163         2.4883         1.5793     12388.0049 
     3605.2390      5742.7354     16271.2490         1.7601      9244.5879 
        7.9925         5.4947
    3299.76480 
       41.9258        75.4279        47.1461       103.7097      1302.5302 
       60.6308       106.2497     13820.5352      7886.6113        24.2290 
       24.2290        66.6099        22.6244    0.000669501       0.258562 
     -999.2500     10532.7295      5236.9790     10720.4873      6777.5884 
      0.232706      2742.4695         2.4887         1.5733     12240.1152 
     3753.2158      5840.8848     16493.2676         1.7524      9411.7910 
        8.2597         5.7430
    3299.91720 
       42.3664        77.4620        46.6252       108.2987      1322.8170 
       59.3862       104.2970     14107.5645      8032.7783        25.4568 
       25.4568        69.9723        23.4752    0.000694547       0.260124 
     -999.2500     10533.3096      5237.0483     10720.4180      6791.1475 
      0.234112      2695.3384         2.4885         1.5764     12172.9717 
     3934.4539      5993.6929     16838.9277         1.7562      9588.0039 
        8.5809         6.0471
    3300.06960 
       42.7735        79.2156        45.4526       112.9787      1341.8209 
       58.2511       102.8167     14470.3232      8198.2031        27.1091 
       27.1091        74.9692        24.3036    0.000723448       0.263642 
     -999.2500     10533.8887      5237.1167     10719.5283      6821.0957 
      0.237278      2704.5881         2.4882         1.5833     12251.3672 
     4122.9976      6138.7505     17167.0586         1.7651      9726.0459 
        8.9085         6.3635
    3300.22200 
       43.0520        80.2718        44.2039       116.3398      1354.9641 
       57.4830       102.0142     14773.1191      8324.3633        28.5901 
       28.5901        79.6550        24.8717    0.000745885       0.267388 
     -999.2500     10534.4678      5237.1855     10718.5352      6853.1089 
      0.240650      2603.3442         2.4878         1.5906     12112.9072 
     4260.7178      6240.1577     17396.4473         1.7747      9802.5566 
        9.1438         6.5946
    3300.37440 
       43.1896        80.0605        42.8264       117.2946      1361.4999 
       57.1061       101.9689     14917.3789      8354.2461        29.6764 
       29.6764        82.9413        24.9721    0.000751250       0.271521 
     -999.2500     10535.0479      5237.2544     10717.3750      6888.4878 
      0.244369      2538.3030         2.4874         1.5988     12053.5820 
     4300.1929      6290.9155     17511.2656         1.7856      9806.9121 
        9.2106         6.6609
    3300.52680 
       43.1884        78.7067        41.4247       115.9888      1361.4442 
       57.1093       102.6287     14910.9385      8297.4180        30.2962 
       30.2962        84.6418        24.6427    0.000741065       0.275726 
     -999.2500     10535.6260      5237.3228     10716.1758      6924.6387 
      0.248153      2645.4773         2.4870         1.6071     12340.2314 
     4246.2451      6290.4814     17510.2832         1.7971      9743.8633 
        9.1192         6.5703
    3300.67920 
       43.0663        76.1949        40.3755       112.0142      1355.6378 
       57.4440       103.7361     14647.4746      8111.0581        30.0558 
       30.0558        82.9700        23.8321    0.000708150       0.278873 
     -999.2500     10536.2051      5237.3916     10715.4297      6951.7236 
      0.250986      2809.9614         2.4867         1.6133     12723.3701 
     4083.8333      6245.3789     17408.2578         1.8059      9639.8457 
        8.8410         6.2978
    3300.83160 
       42.8615        73.7476        39.9879       107.5073      1345.9606 
       58.0077       104.9459     14302.6797      7905.6499        29.2315 
       29.2315        79.5680        22.9608    0.000672737       0.280036 
     -999.2500     10536.7852      5237.4600     10715.5410      6961.6650 
      0.252033      2982.8691         2.4866         1.6155     13089.0684 
     3902.9402      6170.5938     17239.0898         1.8092      9528.7188 
        8.5255         5.9943
    3300.98400 
       42.6219        71.3762        40.3275       102.4250      1334.7118 
       58.6723       105.9782     13829.4922      7656.3677        27.8032 
       27.8032        74.0149        22.0202    0.000630980       0.279018 
     -999.2500     10537.3643      5237.5288     10716.6025      6952.6001 
      0.251116      3064.7451         2.4868         1.6133     13234.6904 
     3703.1228      6084.2690     17043.8184         1.8063      9435.9033 
        8.1697         5.6590
    3301.13640 
       42.3847        70.0659        41.3544        98.7774      1323.6670 
       59.3348       106.6627     13451.7754      7483.0137        26.3341 
       26.3341        68.9593        21.3835    0.000602730       0.275937 
     -999.2500     10537.9434      5237.5972     10718.5469      6925.8745 
      0.248343      3060.4070         2.4871         1.6071     13172.5635 
     3562.4397      6000.1411     16853.5156         1.7976      9375.3496 
        7.9144         5.4229
    3301.28880 
       42.1513        69.7895        43.2793        96.2997      1312.8788 
       59.9916       106.9037     13131.2510      7368.9194        24.6961 
       24.6961        63.8278        21.0100    0.000584491       0.270162 
     -999.2500     10538.5234      5237.6660     10721.6260      6876.4663 
      0.243146      2992.3662         2.4877         1.5955     12937.6650 
     3468.1755      5918.5713     16669.0000         1.7820      9354.2129 
        7.7410         5.2647
    3301.44120 
       41.9412        70.5390        45.9370        95.1410      1303.2330 
       60.5871       106.7178     12902.2246      7325.0049        23.0658 
       23.0658        59.1560        20.9212    0.000577545       0.262189 
     -999.2500     10539.1025      5237.7344     10725.5850      6809.4526 
      0.235970      2813.0217         2.4885         1.5799     12444.9482 
     3424.4514      5846.1431     16505.1641         1.7614      9370.5078 
        7.6599         5.1914
    3301.59360 
       41.8065        71.4257        48.4290        94.4224      1297.0814 
       60.9710       106.2791     12707.5566      7290.1680        21.7111 
       21.7111        55.1889        20.9076    0.000572065       0.254713 
     -999.2500     10539.6807      5237.8027     10729.2764      6747.7842 
      0.229242      2533.0464         2.4892         1.5655     11761.6621 
     3397.4507      5800.2012     16401.2383         1.7431      9409.1875 
        7.6096         5.1460
    3301.74600 
       41.7516        71.9837        49.9810        93.9864      1294.5837 
       61.1278       105.8845     12577.2305      7260.9155        20.9109 
       20.9109        52.7449        20.9013    0.000567483       0.250057 
     -999.2500     10540.2607      5237.8711     10731.7744      6709.9976 
      0.225051      2381.0562         2.4897         1.5567     11382.1074 
     3381.1123      5781.6025     16359.1699         1.7322      9444.2529 
        7.5790         5.1186
