~Version Information Block
VERS .                  2.0:  CWLS LOG ASCII STANDARD - VERSION 2.0
WRAP .                  YES:  Multiple lines per depth step
~Well Information Block
#MNEM.UNIT        Data Type   Information
#---------- ----------------  -----------
STRT .M          2776.00000:  START DEPTH
STOP .M          3750.44560:  STOP DEPTH
STEP .M             0.15240:  STEP
NULL .              -999.25:  NULL VALUE
COMP .                     :  COMPANY
WELL .      RAAG-102-07-105:  WELL
FLD  .                     :  FIELD
LOC  .                     :  LOCATION
CTRY .                     :  COUNTRY
STAT .                     :  STATE
CNTY .                     :  COUNTY
SRVC .                     :  SERVICE COMPANY
DATE .                     :  DATE
API  .                     :  API NUMBER
UWI  .                     :  UNIQUE WELL ID
~Curve Information Block
#MNEM.UNIT         API CODE   Curve Description
#---------- ----------------  -----------------
DEPTH.M                    :  
ANGLE_FAIL.DEG                  :  Fail Angle
BRIT_IND.                     :  Brittleness Index
BRIT_PR.                     :  Brittleness Index from Poisson's Ratio
BRIT_YM.                     :  Brittleness Index from Young's Modulus
CS   .M/MIN                 :  Compressive Strength
DTCO .US/F                 :  Compressional slowness
DTSM .US/F                 :  Fast Shear Slowness
IP   .RAYL/M2                 :  P Impedence
IS   .RAYL/M2                 :  S Impedance
KBULK.                     :  Bulk Mudulus
LAMBDA.                     :  Lambda
LAMRHO.                     :  
MU   .CP                   :  Mu
MURHO.(GF/C3S)2                 :  Mu*Rho
PR   .                     :  Poisson's ratio
PRESS_FG.PSI                  :  Fracture Gradient Pressure
PRESS_OB.PSI                  :  Over-burden Pressure
PRESS_PP.PSI                  :  Pore Pressure
PRESS_SHMAX.PSI                  :  Horizontal Stress (Max)
PRESS_SHMIN.PSI                  :  Horizontal Stress (Min)
PR_STAT.                     :  Poisson's ratio (Static)
PZS  .PSI                  :  Processed Zone Stress
SHMAX_GRAD.                     :  Horizontal Stress Gradient (Max)
SHMIN_GRAD.                     :  Horizontal Stress Gradient (Min)
STRESS_CUM.PSI                  :  Cumulative stress (SHPZ)
UCS_BF.PSI                  :  Uniaxial Compressive Strength (BF)
UCS_LAL.PSI                  :  Uniaxial Compressive Strength (lal)
VP   .FT/S                 :  Compressional velocity
VPVS .                     :  Vp / Vs ratio
VS   .FT/S                 :  Shear velocity
YM   .                     :  Youngs' Modulus
YM_STAT.                     :  Youngs' Modulus (Static)
~Parameter Information Block
#MNEM.UNIT            Value   Description
#---------- ----------------  -----------
PROJECT.          RDG_13Jul21:  
SET  .              GEOMECH:  
~Other Information Block
~Ascii Log Data
# ...
    3497.76640 
       39.4008        61.1254        48.6332        73.6176      1191.3879 
       68.1030       118.6117     11463.9434      6582.2246        17.4786 
       17.4786        44.7706        16.9145    0.000466354       0.254100 
     -999.2500     11467.1113      5321.7100     11686.7686      7073.9766 
      0.228690      1418.4143         2.5139         1.5216     10184.7813 
     2654.0544      5040.8940     14683.6406         1.7417      8430.8711 
        6.1532         3.8986
    3497.91880 
       39.1820        59.4513        47.5592        71.3433      1182.1423 
       68.7783       120.3197     11349.2881      6487.5884        17.4265 
       17.4265        44.6287        16.4347    0.000453040       0.257322 
     -999.2500     11467.7100      5321.7495     11685.8643      7104.6230 
      0.231590      1510.7260         2.5136         1.5282     10430.6982 
     2577.2800      4977.1592     14539.4697         1.7494      8311.1904 
        5.9940         3.7698
    3498.07120 
       39.1253        58.3893        46.0991        70.6794      1179.7523 
       68.9543       121.3717     11390.1504      6471.0298        17.8468 
       17.8468        45.9871        16.2507    0.000450730       0.261703 
     -999.2500     11468.3096      5321.7891     11684.3867      7146.7710 
      0.235532      1634.9377         2.5131         1.5372     10763.4180 
     2555.0361      4960.7534     14502.3584         1.7602      8239.1533 
        5.9476         3.7325
    3498.22360 
       39.1394        58.3675        45.3812        71.3538      1180.3450 
       68.9106       121.6688     11524.4775      6527.2168        18.2707 
       18.2707        47.6045        16.3517    0.000458592       0.263856 
     -999.2500     11468.9082      5321.8281     11683.9609      7167.8384 
      0.237471      1789.2531         2.5129         1.5416     11114.1826 
     2577.6333      4964.8193     14511.5557         1.7656      8219.0342 
        5.9948         3.7704
    3498.37600 
       39.0874        57.4294        43.7544        71.1044      1178.1611 
       69.0718       122.8243     11637.9443      6544.7451        18.8731 
       18.8731        49.7744        16.2414    0.000461058       0.268737 
     -999.2500     11469.5059      5321.8672     11682.2021      7215.5781 
      0.241863      1960.7996         2.5124         1.5518     11552.7549 
     2569.2676      4949.8472     14477.6885         1.7782      8141.7109 
        5.9773         3.7564
    3498.52840 
       39.2514        55.2727        39.8261        70.7193      1185.0674 
       68.5637       124.1387     11812.7285      6524.3501        20.4748 
       20.4748        54.4063        16.0194    0.000458189       0.280522 
     -999.2500     11470.1055      5321.9067     11676.9668      7332.8926 
      0.252469      2089.8503         2.5112         1.5770     12045.4863 
     2556.3711      4997.2769     14584.9766         1.8106      8055.5059 
        5.9504         3.7347
    3498.68080 
       39.7777        53.5330        34.9064        72.1596      1207.4548 
       66.9501       124.2167     12177.5107      6563.4141        23.2296 
       23.2296        62.1350        16.1052    0.000463692       0.295281 
     -999.2500     11470.7041      5321.9453     11670.0039      7484.7031 
      0.265753      2149.3694         2.5096         1.6095     12468.1445 
     2604.7346      5152.6748     14936.4961         1.8554      8050.4473 
        6.0512         3.8159
    3498.83320 
       40.2948        53.0550        31.7674        74.3426      1229.7834 
       65.3903       123.3805     12520.2861      6635.6133        25.5748 
       25.5748        68.6949        16.3927    0.000473950       0.304698 
     -999.2500     11471.3027      5321.9844     11665.6348      7584.6689 
      0.274228      2146.7654         2.5085         1.6310     12662.8682 
     2678.7126      5310.1826     15292.7891         1.8868      8105.0083 
        6.2040         3.9400
    3498.98560 
       40.6122        53.8406        31.1258        76.5554      1243.6598 
       64.4451       122.0315     12719.1553      6717.0137        26.6022 
       26.6022        71.5404        16.7772    0.000485649       0.306623 
     -999.2500     11471.9023      5322.0234     11665.2109      7605.7339 
      0.275960      2112.0911         2.5083         1.6354     12635.6494 
     2754.5352      5409.3379     15517.0830         1.8936      8194.6055 
        6.3589         4.0672
    3499.13800 
       40.8357        54.4468        30.7177        78.1759      1253.5116 
       63.7850       121.0587     12860.2686      6775.9873        27.3325 
       27.3325        73.5585        17.0605    0.000494214       0.307847 
     -999.2500     11472.5010      5322.0625     11665.1611      7619.2949 
      0.277062      2093.4543         2.5082         1.6382     12625.4990 
     2810.5940      5480.3276     15677.6660         1.8979      8260.4561 
        6.4723         4.1613
    3499.29040 
       41.1430        54.4431        29.1795        79.7067      1267.1624 
       62.8851       120.4068     13071.7158      6826.9912        28.7938 
       28.7938        77.6541        17.2820    0.000501682       0.312461 
     -999.2500     11473.0996      5322.1016     11663.2686      7669.7163 
      0.281215      2129.3765         2.5076         1.6490     12798.1865 
     2863.9624      5579.5078     15902.0176         1.9147      8305.1787 
        6.5795         4.2509
    3499.44280 
       41.4152        54.4171        27.5970        81.2372      1279.3651 
       62.0949       120.0114     13317.2314      6890.4468        30.3690 
       30.3690        82.3922        17.5001    0.000511052       0.317209 
     -999.2500     11473.6973      5322.1406     11661.2725      7722.2012 
      0.285488      2197.0676         2.5071         1.6602     13038.5371 
     2917.7207      5668.9683     16104.3818         1.9327      8332.5420 
        6.6866         4.3411
    3499.59520 
       41.5014        55.2482        27.8863        82.6101      1283.2500 
       61.8461       119.3235     13416.7803      6953.9990        30.5962 
       30.5962        83.2938        17.7633    0.000520522       0.316341 
     -999.2500     11474.2969      5322.1797     11662.3623      7713.0034 
      0.284707      2252.2183         2.5072         1.6582     13130.4434 
     2966.2844      5697.6084     16169.1680         1.9294      8380.5791 
        6.7827         4.4225
    3499.74760 
       41.4311        56.1151        29.0429        83.1873      1280.0786 
       62.0491       118.9007     13392.6875      6989.0605        29.9554 
       29.9554        81.6702        17.9163    0.000525784       0.312871 
     -999.2500     11474.8955      5322.2188     11664.8779      7675.2515 
      0.281584      2265.9023         2.5076         1.6500     13082.3076 
     2986.7996      5674.2231     16116.2686         1.9162      8410.3799 
        6.8231         4.4570
    3499.90000 
       41.1811        56.7303        31.0546        82.4060      1268.8657 
       62.7740       118.9145     13195.6338      6965.8677        28.3619 
       28.3619        77.0781        17.8548    0.000522301       0.306836 
     -999.2500     11475.4941      5322.2578     11668.7686      7610.0151 
      0.276153      2252.8735         2.5084         1.6359     12925.7773 
     2959.0466      5591.9497     15930.1631         1.8943      8409.4033 
        6.7684         4.4104
    3500.05240 
       41.0004        57.0151        32.5683        81.4620      1260.8108 
       63.3017       118.9166     13003.5117      6922.0308        27.1281 
       27.1281        73.2623        17.7421    0.000515747       0.302295 
     -999.2500     11476.0938      5322.2964     11671.8184      7561.5986 
      0.272066      2249.4556         2.5089         1.6254     12822.1084 
     2925.6501      5533.2427     15797.3643         1.8786      8409.2549 
        6.7023         4.3544
