~Version Information Block
VERS .                  2.0:  CWLS LOG ASCII STANDARD - VERSION 2.0
WRAP .                   NO:  One line per depth step
~Well Information Block
#MNEM.UNIT        Data Type   Information
#---------- ----------------  -----------
STRT .M          2889.76360:  START DEPTH
STOP .M          3614.73040:  STOP DEPTH
STEP .M             0.15240:  STEP
NULL .              -999.25:  NULL VALUE
COMP .                     :  COMPANY
WELL .       RAAG-89-05-105:  WELL
FLD  .                     :  FIELD
LOC  .                     :  LOCATION
CTRY .                     :  COUNTRY
STAT .                     :  STATE
CNTY .                     :  COUNTY
SRVC .                     :  SERVICE COMPANY
DATE .                     :  DATE
API  .                     :  API NUMBER
UWI  .                     :  UNIQUE WELL ID
~Curve Information Block
#MNEM.UNIT         API CODE   Curve Description
#---------- ----------------  -----------------
DEPTH.M                    :  
PRESS_PP.PSI                  :  Pore Pressure
PZS  .PSI                  :  Processed Zone Stress
~Parameter Information Block
#MNEM.UNIT            Value   Description
#---------- ----------------  -----------
PROJECT.          RDG_13Jul21:  
SET  .              GEOMECH:  
~Other Information Block
# 
~A       DEPTH       PRESS_PP            PZS 
# ...
    3161.03560      5249.2720      1859.0608
    3161.18800      5249.3369      1700.2635
    3161.34040      5249.4019      1435.1589
    3161.49280      5249.4668      1257.4271
    3161.64520      5249.5317      1136.0597
    3161.79760      5249.5962      1092.3704
    3161.95000      5249.6611      1154.2028
    3162.10240      5249.7261      1385.6982
    3162.25480      5249.7905      1707.9363
    3162.40720      5249.8555      1962.0371
    3162.55960      5249.9204      2036.1337
    3162.71200      5249.9849      1898.4637
    3162.86440      5250.0498      1621.3529
    3163.01680      5250.1143      1430.1503
    3163.16920      5250.1792      1277.1024
    3163.32160      5250.2437      1196.9570
    3163.47400      5250.3081      1261.9459
    3163.62640      5250.3730      1679.3059
    3163.77880      5250.4375      2033.9230
    3163.93120      5250.5020      2367.6899
    3164.08360      5250.5669      2617.1477
    3164.23600      5250.6313      2766.4399
    3164.38840      5250.6958      2931.3391
    3164.54080      5250.7603      2884.2786
    3164.69320      5250.8247      2657.9548
    3164.84560      5250.8896      2352.7549
    3164.99800      5250.9536      2080.7546
    3165.15040      5251.0181      1966.3351
    3165.30280      5251.0830      1844.7100
    3165.45520      5251.1470      1871.4325
    3165.60760      5251.2114      1968.4868
    3165.76000      5251.2759      2058.3474
    3165.91240      5251.3403      2067.2871
    3166.06480      5251.4043      2191.0422
    3166.21720      5251.4692      1838.5868
    3166.36960      5251.5332      1499.8260
    3166.52200      5251.5972      1355.0851
    3166.67440      5251.6621      1260.4382
    3166.82680      5251.7261      1154.2028
    3166.97920      5251.7905      1194.0679
    3167.13160      5251.8545      1189.7448
    3167.28400      5251.9185      1076.3378
    3167.43640      5251.9834      1029.3663
    3167.58880      5252.0474      1179.7059
    3167.74120      5252.1113      1450.2693
    3167.89360      5252.1758      1688.8064
    3168.04600      5252.2397      1784.2064
    3168.19840      5252.3037      1828.4176
    3168.35080      5252.3682      1406.9609
    3168.50320      5252.4316      1304.7510
    3168.65560      5252.4956      1345.5310
    3168.80800      5252.5596      1494.6376
    3168.96040      5252.6235      2036.1337
    3169.11280      5252.6880      1505.0291
    3169.26520      5252.7515      1314.0728
    3169.41760      5252.8154      1309.4053
    3169.57000      5252.8799      1377.5890
    3169.72240      5252.9434      1468.9099
    3169.87480      5253.0073      1590.2583
    3170.02720      5253.0713      1617.6696
    3170.17960      5253.1353      1621.3529
    3170.33200      5253.1987      1656.6792
    3170.48440      5253.2627      1733.0640
    3170.63680      5253.3262      1772.2986
    3170.78920      5253.3901      1820.3147
    3170.94160      5253.4541      1869.3660
    3171.09400      5253.5176      1917.3601
    3171.24640      5253.5815      1990.1089
    3171.39880      5253.6450      1925.8066
    3171.55120      5253.7090      1752.5934
    3171.70360      5253.7725      1583.0118
    3171.85600      5253.8359      1467.2075
    3172.00840      5253.8999      1377.5890
    3172.16080      5253.9634      1369.5178
    3172.31320      5254.0269      1361.4845
    3172.46560      5254.0908      1385.6982
    3172.61800      5254.1543      1522.4763
    3172.77040      5254.2178      2003.1730
    3172.92280      5254.2813      2014.1122
    3173.07520      5254.3442      2007.5430
    3173.22760      5254.4077      1923.6923
    3173.38000      5254.4717      1774.2788
    3173.53240      5254.5352      1717.5660
    3173.68480      5254.5981      1654.8047
    3173.83720      5254.6616      1612.1573
    3173.98960      5254.7251      1610.3232
    3174.14200      5254.7886      1651.0608
    3174.29440      5254.8521      1704.0966
    3174.44680      5254.9150      1754.5560
    3174.59920      5254.9790      1919.4690
    3174.75160      5255.0420      2009.7307
    3174.90400      5255.1055      1936.4066
    3175.05640      5255.1685      1867.3013
    3175.20880      5255.2314      1930.0411
    3175.36120      5255.2949      2060.5793
    3175.51360      5255.3579      2245.5195
    3175.66600      5255.4209      2320.6545
    3175.81840      5255.4844      1877.6429
    3175.97080      5255.5479      1780.2301
    3176.12320      5255.6108      1863.1774
    3176.27560      5255.6738      1987.9381
    3176.42800      5255.7368      2085.2595
    3176.58040      5255.7998      2252.7043
    3176.73280      5255.8628      2303.5154
    3176.88520      5255.9258      2231.2048
    3177.03760      5255.9893      2038.3464
    3177.19000      5256.0522      1776.2609
    3177.34240      5256.1147      1566.8037
    3177.49480      5256.1782      1184.0000
    3177.64720      5256.2412      1345.5310
    3177.79960      5256.3042      1438.5057
    3177.95200      5256.3672      1248.4285
    3178.10440      5256.4297      1433.4878
    3178.25680      5256.4927      1541.8551
    3178.40920      5256.5552      1671.7363
    3178.56160      5256.6182      1727.2391
    3178.71400      5256.6812      1660.4332
    3178.86640      5256.7437      1538.3170
    3179.01880      5256.8066      1748.6735
    3179.17120      5256.8691      2022.8977
    3179.32360      5256.9316      2255.1035
    3179.47600      5256.9946      2335.4263
    3179.62840      5257.0571      2179.3406
    3179.78080      5257.1201      1731.1206
    3179.93320      5257.1831      1428.4838
    3180.08560      5257.2456      1267.9912
    3180.23800      5257.3081      1223.2115
    3180.39040      5257.3711      1258.9319
    3180.54280      5257.4336      1356.6827
    3180.69520      5257.4961      1486.0220
    3180.84760      5257.5586      1603.0037
    3181.00000      5257.6211      1664.1941
    3181.15240      5257.6836      1632.4427
    3181.30480      5257.7461      1688.8064
    3181.45720      5257.8086      1792.1805
    3181.60960      5257.8706      1925.8066
    3181.76200      5257.9331      2110.1753
    3181.91440      5257.9956      2423.1016
    3182.06680      5258.0581      2238.3530
    3182.21920      5258.1201      2170.0151
    3182.37160      5258.1831      2181.6768
    3182.52400      5258.2451      2267.1294
    3182.67640      5258.3076      2539.6753
    3182.82880      5258.3696      2652.4846
    3182.98120      5258.4326      2614.4451
    3183.13360      5258.4946      2451.1936
    3183.28600      5258.5571      2224.0747
    3183.43840      5258.6191      2038.3464
    3183.59080      5258.6812      2243.1287
    3183.74320      5258.7432      2466.6260
    3183.89560      5258.8052      2529.1350
    3184.04800      5258.8677      2372.6851
    3184.20040      5258.9297      2165.3645
    3184.35280      5258.9917      2085.2595
    3184.50520      5259.0537      2119.2947
    3184.65760      5259.1162      2163.0420
    3184.81000      5259.1782      2205.1506
    3184.96240      5259.2402      2390.2344
    3185.11480      5259.3027      2603.6572
    3185.26720      5259.3643      2636.1282
    3185.41960      5259.4263      2592.9050
    3185.57200      5259.4883      2555.5515
    3185.72440      5259.5503      2521.2529
    3185.87680      5259.6118      2579.5146
    3186.02920      5259.6738      2666.1770
    3186.18160      5259.7354      2707.5935
    3186.33400      5259.7979      2671.6697
    3186.48640      5259.8599      2609.0466
    3186.63880      5259.9214      2552.8999
    3186.79120      5259.9829      2617.1477
    3186.94360      5260.0449      2718.7244
    3187.09600      5260.1064      2786.2810
    3187.24840      5260.1680      2806.2358
    3187.40080      5260.2300      2806.2358
    3187.55320      5260.2920      2826.3049
    3187.70560      5260.3535      2834.9412
    3187.85800      5260.4150      2817.6899
    3188.01040      5260.4771      2766.4399
