~Version Information Block
VERS .                  2.0:  CWLS LOG ASCII STANDARD - VERSION 2.0
WRAP .                  YES:  Multiple lines per depth step
~Well Information Block
#MNEM.UNIT        Data Type   Information
#---------- ----------------  -----------
STRT .M          2676.97280:  START DEPTH
STOP .M          3838.10840:  STOP DEPTH
STEP .M             0.15240:  STEP
NULL .              -999.25:  NULL VALUE
COMP .                     :  COMPANY
WELL .      RAAG-107-07-210:  WELL
FLD  .                     :  FIELD
LOC  .                     :  LOCATION
CTRY .                     :  COUNTRY
STAT .                     :  STATE
CNTY .                     :  COUNTY
SRVC .                     :  SERVICE COMPANY
DATE .                     :  DATE
API  .                     :  API NUMBER
UWI  .                     :  UNIQUE WELL ID
~Curve Information Block
#MNEM.UNIT         API CODE   Curve Description
#---------- ----------------  -----------------
DEPTH.M                    :  
ANGLE_FAIL.DEG                  :  Fail Angle
BRIT_IND.                     :  Brittleness Index
BRIT_PR.                     :  Brittleness Index from Poisson's Ratio
BRIT_YM.                     :  Brittleness Index from Young's Modulus
CS   .M/MIN                 :  Compressive Strength
DTCO .US/F                 :  Compressional slowness
DTSM .US/F                 :  Fast Shear Slowness
IP   .RAYL/M2                 :  P Impedence
IS   .RAYL/M2                 :  S Impedance
KBULK.                     :  Bulk Mudulus
LAMBDA.                     :  Lambda
LAMRHO.                     :  
MU   .CP                   :  Mu
MURHO.(GF/C3S)2                 :  Mu*Rho
PR   .                     :  Poisson's ratio
PRESS_FG.PSI                  :  Fracture Gradient Pressure
PRESS_OB.PSI                  :  Over-burden Pressure
PRESS_PP.PSI                  :  Pore Pressure
PRESS_SHMAX.PSI                  :  Horizontal Stress (Max)
PRESS_SHMIN.PSI                  :  Horizontal Stress (Min)
PR_STAT.                     :  Poisson's ratio (Static)
PZS  .PSI                  :  Processed Zone Stress
SHMAX_GRAD.                     :  Horizontal Stress Gradient (Max)
SHMIN_GRAD.                     :  Horizontal Stress Gradient (Min)
STRESS_CUM.PSI                  :  Cumulative stress (SHPZ)
UCS_BF.PSI                  :  Uniaxial Compressive Strength (BF)
UCS_LAL.PSI                  :  Uniaxial Compressive Strength (lal)
VP   .FT/S                 :  Compressional velocity
VPVS .                     :  Vp / Vs ratio
VS   .FT/S                 :  Shear velocity
YM   .                     :  Youngs' Modulus
YM_STAT.                     :  Youngs' Modulus (Static)
~Parameter Information Block
#MNEM.UNIT            Value   Description
#---------- ----------------  -----------
PROJECT.          RDG_13Jul21:  
SET  .              GEOMECH:  
~Other Information Block
~Ascii Log Data
# ...
    3530.41280 
       41.5908        59.1186        33.9961        84.2410      1287.2880 
       61.5889       114.8165     12863.3428      6900.0464        27.0253 
       27.0253        70.2443        18.3174    0.000512477       0.298012 
     -999.2500     11206.4707      5302.7422     11396.5176      7405.5293 
      0.268211      1626.5750         2.5024         1.6261     11264.2080 
     3024.3962      5727.4585     16236.6904         1.8642      8709.5498 
        6.8969         4.5201
    3530.56520 
       42.6233        58.4988        27.0810        89.9166      1334.7789 
       58.6683       113.7428     13795.2295      7115.5508        33.5350 
       33.5350        89.0462        19.0678    0.000544988       0.318757 
     -999.2500     11207.0586      5302.7896     11386.3389      7621.4565 
      0.286881      1709.6115         2.5000         1.6734     11862.1357 
     3230.1653      6084.7827     17044.9805         1.9387      8791.7656 
        7.2942         4.8653
    3530.71760 
       43.0468        59.8090        25.6192        93.9987      1354.7139 
       57.4975       112.4827     14257.8496      7288.1499        36.0842 
       36.0842        97.0520        19.7491    0.000571748       0.323142 
     -999.2500     11207.6484      5302.8364     11384.5801      7669.0283 
      0.290828      1910.8185         2.4995         1.6838     12359.6934 
     3381.5728      6238.2183     17392.0605         1.9563      8890.2559 
        7.5799         5.1194
    3530.87000 
       43.2279        61.2359        25.8920        96.5797      1363.3240 
       57.0015       111.3225     14431.4541      7389.4722        36.7037 
       36.7037        99.0583        20.2323    0.000587756       0.322324 
     -999.2500     11208.2373      5302.8838     11385.6133      7660.7251 
      0.290092      2176.7122         2.4996         1.6819     12874.8740 
     3478.7749      6305.1211     17543.3965         1.9530      8982.9102 
        7.7606         5.2825
    3531.02240 
       43.2367        62.9886        27.4059        98.5712      1363.7467 
       56.9773       110.2473     14464.0801      7475.2324        36.0421 
       36.0421        97.4514        20.6667    0.000601478       0.317782 
     -999.2500     11208.8262      5302.9312     11388.6348      7612.6450 
      0.286004      2445.0652         2.5002         1.6712     13315.4209 
     3554.5542      6308.4150     17550.8496         1.9349      9070.5166 
        7.9000         5.4097
    3531.17480 
       43.4508        64.3286        27.3810       101.2761      1373.9900 
       56.3950       109.1370     14662.9580      7576.8765        36.9277 
       36.9277       100.1842        21.1609    0.000617946       0.317857 
     -999.2500     11209.4150      5302.9780     11389.1885      7613.9478 
      0.286071      2521.0049         2.5002         1.6714     13469.9053 
     3658.5657      6388.5273     17732.0684         1.9352      9162.7959 
        8.0893         5.5842
    3531.32720 
       43.9501        64.5826        24.7587       104.4064      1398.1760 
       55.0515       108.2852     15097.6738      7675.5601        40.3801 
       40.3801       110.1113        21.6051    0.000634147       0.325724 
     -999.2500     11210.0049      5303.0254     11385.5586      7698.9448 
      0.293151      2426.6465         2.4993         1.6900     13451.1816 
     3780.5002      6579.8315     18164.8105         1.9670      9234.8721 
        8.3084         5.7888
    3531.47960 
       44.2512        64.1084        22.6786       105.5383      1412.9550 
       54.2517       108.1714     15361.5430      7704.3452        42.8873 
       42.8873       117.2631        21.7089    0.000638913       0.331964 
     -999.2500     11210.5938      5303.0723     11382.7471      7767.5278 
      0.298768      2240.6396         2.4985         1.7050     13216.3350 
     3825.0017      6698.2153     18432.6016         1.9939      9244.5879 
        8.3877         5.8635
    3531.63200 
       43.9650        64.0583        24.1624       103.9543      1398.9009 
       55.0119       108.6226     15124.5195      7659.8110        40.8116 
       40.8116       111.4057        21.4938    0.000631548       0.327513 
     -999.2500     11211.1836      5303.1191     11385.7979      7718.8872 
      0.294761      2083.2544         2.4991         1.6942     12804.2832 
     3762.7854      6585.6113     18177.8848         1.9745      9206.1875 
        8.2768         5.7591
    3531.78440 
       43.1388        65.2417        29.9547       100.5287      1359.0846 
       57.2450       109.1184     14431.4756      7570.9487        34.5443 
       34.5443        93.6290        21.1479    0.000616979       0.310136 
     -999.2500     11211.7734      5303.1665     11395.6797      7533.6509 
      0.279122      2129.3596         2.5011         1.6535     12526.0215 
     3629.7024      6272.1318     17468.7734         1.9062      9164.3574 
        8.0370         5.5358
    3531.93680 
       42.3979        66.2072        35.6456        96.7688      1324.2811 
       59.2977       109.5997     13774.2949      7452.4292        29.3513 
       29.3513        78.6538        20.7254    0.000597814       0.293063 
     -999.2500     11212.3613      5303.2134     11405.0166      7359.2734 
      0.263757      2203.6414         2.5031         1.6151     12325.8301 
     3485.9395      6004.8027     16864.0605         1.8483      9124.1123 
        7.7738         5.2945
    3532.08920 
       42.1646        65.2506        36.5133        93.9879      1313.4922 
       59.9540       110.3248     13485.8496      7328.6387        28.0663 
       28.0663        74.4502        20.2472    0.000578118       0.290460 
     -999.2500     11212.9512      5303.2603     11406.9326      7333.3335 
      0.261414      2110.6831         2.5034         1.6094     12088.0332 
     3381.1675      5923.1929     16679.4551         1.8402      9064.1455 
        7.5792         5.1187
    3532.24160 
       42.0914        63.5676        35.4259        91.7093      1310.1219 
       60.1610       111.3209     13361.4941      7220.9336        28.1525 
       28.1525        74.2458        19.7711    0.000561251       0.293722 
     -999.2500     11213.5410      5303.3076     11405.9219      7365.9170 
      0.264350      2047.9279         2.5030         1.6165     12027.6895 
     3296.3081      5897.8223     16622.0645         1.8504      8983.0391 
        7.4197         4.9763
    3532.39400 
       42.0574        62.2900        34.3171        90.2630      1308.5593 
       60.2573       112.1441     13319.1865      7156.6699        28.4699 
       28.4699        74.9649        19.4513    0.000551305       0.297049 
     -999.2500     11214.1309      5303.3540     11404.8633      7399.4839 
      0.267344      2023.6023         2.5027         1.6237     12046.1719 
     3242.9036      5886.0786     16595.5000         1.8611      8917.0986 
        7.3184         4.8867
    3532.54640 
       41.8909        61.9947        35.0196        88.9697      1300.9355 
       60.7301       112.6101     13182.1309      7109.0610        27.6762 
       27.6762        72.6911        19.2420    0.000543995       0.294941 
     -999.2500     11214.7197      5303.4009     11406.5361      7378.3926 
      0.265447      1726.5980         2.5029         1.6190     11409.9814 
     3195.4521      5828.9624     16466.3008         1.8543      8880.1982 
        7.2279         4.8071
    3532.69880 
       41.4390        62.7668        38.6204        86.9132      1280.4373 
       62.0261       112.9540     12834.0879      7047.5449        25.0327 
       25.0327        65.3780        19.0174    0.000534621       0.284139 
     -999.2500     11215.3096      5303.4478     11412.5059      7271.3652 
      0.255725      1409.2775         2.5041         1.5955     10561.2852 
     3120.5918      5676.8647     16122.2461         1.8211      8853.1611 
        7.0839         4.6815
