~Version Information Block
VERS .                  2.0:  CWLS LOG ASCII STANDARD - VERSION 2.0
WRAP .                  YES:  Multiple lines per depth step
~Well Information Block
#MNEM.UNIT        Data Type   Information
#---------- ----------------  -----------
STRT .M          2686.96440:  START DEPTH
STOP .M          3645.86520:  STOP DEPTH
STEP .M             0.15240:  STEP
NULL .              -999.25:  NULL VALUE
COMP .                     :  COMPANY
WELL .      RAAG-105-07-212:  WELL
FLD  .                     :  FIELD
LOC  .                     :  LOCATION
CTRY .                     :  COUNTRY
STAT .                     :  STATE
CNTY .                     :  COUNTY
SRVC .                     :  SERVICE COMPANY
DATE .                     :  DATE
API  .                     :  API NUMBER
UWI  .                     :  UNIQUE WELL ID
~Curve Information Block
#MNEM.UNIT         API CODE   Curve Description
#---------- ----------------  -----------------
DEPTH.M                    :  
ANGLE_FAIL.DEG                  :  Fail Angle
BRIT_IND.                     :  Brittleness Index
BRIT_PR.                     :  Brittleness Index from Poisson's Ratio
BRIT_YM.                     :  Brittleness Index from Young's Modulus
CS   .M/MIN                 :  Compressive Strength
DTCO .US/F                 :  Compressional slowness
DTSM .US/F                 :  Shear slowness
IP   .RAYL/M2                 :  P Impedence
IS   .RAYL/M2                 :  S Impedance
KBULK.                     :  Bulk Mudulus
LAMBDA.                     :  Lambda
LAMRHO.                     :  
MU   .CP                   :  Mu
MURHO.(GF/C3S)2                 :  Mu*Rho
PR   .                     :  Poisson's ratio
PRESS_FG.PSI                  :  Fracture Gradient Pressure
PRESS_OB.PSI                  :  Over-burden Pressure
PRESS_PP.PSI                  :  Pore Pressure
PRESS_SHMAX.PSI                  :  Horizontal Stress (Max)
PRESS_SHMIN.PSI                  :  Horizontal Stress (Min)
PR_STAT.                     :  Poisson's ratio (Static)
PZS  .PSI                  :  Processed Zone Stress
SHMAX_GRAD.                     :  Horizontal Stress Gradient (Max)
SHMIN_GRAD.                     :  Horizontal Stress Gradient (Min)
STRESS_CUM.PSI                  :  Cumulative stress (SHPZ)
UCS_BF.PSI                  :  Uniaxial Compressive Strength (BF)
UCS_LAL.PSI                  :  Uniaxial Compressive Strength (lal)
VP   .FT/S                 :  Compressional velocity
VPVS .                     :  Vp / Vs ratio
VS   .FT/S                 :  Shear velocity
YM   .                     :  Youngs' Modulus
YM_STAT.                     :  Youngs' Modulus (Static)
~Parameter Information Block
#MNEM.UNIT            Value   Description
#---------- ----------------  -----------
ALPHA.                 0.98:  Biot's Constant
CALIB_SHMINPZS.                 6800:  Calibration Factor for processing zones
EXT_FACT.                1e-06:  Extension Factor
PR_FAC.                  0.9:  Poisson's ratio factor
PR_MAX.                  0.4:  Maximum Poisson's ratio
PR_MIN.                  0.1:  Minimum Poisson's ratio
TECT_FACT.                 1.05:  Techtonic Factor
YM_MAX.                    8:  Maximum Youngs' Modulus
YM_MIN.                    1:  Minimum Youngs' Modulus
PROJECT.          RDG_13Jul21:  
SET  .              GEOMECH:  
~Other Information Block
~Ascii Log Data
# ...
    3386.78520 
       37.9101        54.2805        50.8625        57.6986      1129.4974 
       72.7960       125.6551      9909.5176      5740.8989        13.6403 
       13.6403        32.2827        13.9256    0.000354756       0.247413 
     -999.2500     11234.3936      5304.9565     11449.5293      6931.6748 
      0.222671       662.1425         2.5084         1.5186      8387.6348 
     2135.2542      4622.4155     13737.0195         1.7261      7958.2925 
        5.0389         3.0281
    3386.93760 
       37.8435        54.7306        52.0091        57.4522      1126.7931 
       73.0106       125.4618      9843.4443      5728.2437        13.2611 
       13.2611        31.2678        13.9163    0.000353194       0.243973 
     -999.2500     11234.9902      5305.0034     11451.6885      6901.0435 
      0.219575       629.3173         2.5088         1.5118      8260.7217 
     2127.5652      4604.5659     13696.6416         1.7184      7970.5537 
        5.0217         3.0152
    3387.09000 
       37.9679        54.6726        51.4160        57.9292      1131.8499 
       72.6100       125.0618      9885.9980      5739.7407        13.5214 
       13.5214        31.8437        13.9889    0.000354613       0.245752 
     -999.2500     11235.5869      5305.0503     11451.5068      6917.1870 
      0.221177       631.3950         2.5086         1.5153      8297.1631 
     2142.4612      4637.9717     13772.2080         1.7224      7996.0469 
        5.0550         3.0402
    3387.24240 
       38.1129        54.3997        50.0170        58.7824      1137.7695 
       72.1447       124.9498     10015.5391      5782.8667        14.1009 
       14.1009        33.4279        14.1066    0.000359962       0.249949 
     -999.2500     11236.1826      5305.0972     11450.2295      6955.2466 
      0.224954       641.8657         2.5082         1.5236      8394.2246 
     2169.1997      4677.2388     13861.0332         1.7319      8003.2139 
        5.1148         3.0850
    3387.39480 
       38.1801        54.2157        48.7616        59.6699      1140.5178 
       71.9300       125.2113     10179.3799      5847.7368        14.6645 
       14.6645        35.2277        14.2351    0.000368083       0.253715 
     -999.2500     11236.7793      5305.1436     11449.1309      6989.7485 
      0.228344       576.7045         2.5079         1.5311      8332.9063 
     2197.1462      4695.5288     13902.4053         1.7407      7986.4990 
        5.1769         3.1319
    3387.54720 
       38.0241        55.2292        50.2486        60.2098      1134.1429 
       72.4293       125.3268     10238.2314      5916.9141        14.3046 
       14.3046        34.8016        14.3902    0.000376843       0.249254 
     -999.2500     11237.3760      5305.1904     11451.7715      6949.4717 
      0.224329       477.2996         2.5083         1.5222      8053.5425 
     2214.2134      4653.1616     13806.5674         1.7303      7979.1396 
        5.2147         3.1606
    3387.69960 
       37.9620        55.5226        51.1679        59.8773      1131.6093 
       72.6290       125.2162     10169.0371      5898.3340        13.9608 
       13.9608        33.8286        14.3577    0.000374480       0.246496 
     -999.2500     11237.9727      5305.2368     11453.6309      6924.8057 
      0.221847       388.7958         2.5086         1.5167      7827.2031 
     2203.6987      4636.3794     13768.6055         1.7241      7986.1865 
        5.1914         3.1429
    3387.85200 
       37.7035        57.2522        55.6171        58.8873      1121.1195 
       73.4635       124.5353      9917.9336      5850.5991        12.5108 
       12.5108        29.9064        14.3193    0.000368443       0.233149 
     -999.2500     11238.5684      5305.2837     11460.1523      6806.8882 
      0.209834       344.8230         2.5099         1.4908      7503.4229 
     2172.4973      4567.2373     13612.2012         1.6952      8029.8516 
        5.1221         3.0906
    3388.00440 
       37.7303        57.1549        56.1833        58.1266      1122.2058 
       73.3765       124.1311      9776.2461      5778.9443        12.2297 
       12.2297        28.7826        14.1900    0.000359474       0.231450 
     -999.2500     11239.1650      5305.3301     11461.5098      6792.2642 
      0.208305       370.3368         2.5101         1.4875      7525.2017 
     2148.6372      4574.3721     13628.3418         1.6917      8055.9980 
        5.0689         3.0505
    3388.15680 
       37.6270        56.5646        56.1756        56.9536      1118.0283 
       73.7118       124.7018      9662.1846      5711.3608        12.0336 
       12.0336        28.1185        13.9599    0.000351115       0.231473 
     -999.2500     11239.7607      5305.3770     11462.1201      6792.5767 
      0.208326       460.2246         2.5101         1.4875      7705.6025 
     2112.0376      4546.9668     13566.3486         1.6917      8019.1304 
        4.9868         2.9891
    3388.30920 
       37.8745        54.0046        51.3261        56.6832      1128.0532 
       72.9105       125.6236      9760.3887      5664.8184        13.3139 
       13.3139        31.0849        13.7445    0.000345416       0.246022 
     -999.2500     11240.3574      5305.4233     11456.3174      6921.1411 
      0.221420       542.5533         2.5087         1.5156      8127.3887 
     2103.6348      4612.8789     13715.4453         1.7230      7960.2876 
        4.9678         2.9750
    3388.46160 
       37.9772        53.1191        49.3759        56.8622      1132.2288 
       72.5801       126.0282      9846.7305      5670.7686        13.9217 
       13.9217        32.6429        13.7148    0.000346142       0.251872 
     -999.2500     11240.9541      5305.4702     11454.2910      6974.2168 
      0.226685       601.9672         2.5082         1.5272      8352.3682 
     2109.1951      4640.4800     13777.8809         1.7364      7934.7319 
        4.9804         2.9843
    3388.61400 
       38.1734        52.9383        48.0326        57.8440      1140.2434 
       71.9514       125.6239      9973.2266      5712.1899        14.5297 
       14.5297        34.2070        13.8594    0.000351217       0.255902 
     -999.2500     11241.5508      5305.5171     11453.0615      7011.3267 
      0.230312       733.6589         2.5078         1.5352      8689.9717 
     2139.7961      4693.7007     13898.2705         1.7460      7960.2686 
        5.0491         3.0357
    3388.76640 
       38.5820        52.4825        45.2391        59.7259      1157.0748 
       70.6541       124.8237     10220.7988      5785.2900        15.8387 
       15.8387        37.5256        14.1268    0.000360264       0.264283 
     -999.2500     11242.1465      5305.5635     11449.7842      7089.4009 
      0.237854       862.2482         2.5069         1.5522      9103.2979 
     2198.9160      4806.5142     14153.4600         1.7667      8011.2993 
        5.1808         3.1349
    3388.91880 
       38.6025        54.2193        47.2232        61.2154      1157.9260 
       70.5893       123.6611     10291.0205      5874.4097        15.4775 
       15.4775        36.8877        14.4792    0.000371448       0.258330 
     -999.2500     11242.7432      5305.6104     11453.1621      7034.3486 
      0.232497      1018.1377         2.5076         1.5401      9304.9727 
     2246.1370      4812.2578     14166.4521         1.7518      8086.6177 
        5.2851         3.2141
    3389.07120 
       38.7914        55.6052        47.9144        63.2961      1165.7755 
       69.9955       122.2687     10442.7275      5978.1768        15.6679 
       15.6679        37.5734        14.9028    0.000384687       0.256257 
     -999.2500     11243.3398      5305.6572     11454.7275      7015.5942 
      0.230631      1139.9480         2.5078         1.5359      9511.0840 
     2312.7324      4865.3862     14286.6338         1.7468      8178.7075 
        5.4307         3.3259
