~Version Information Block
VERS .                  2.0:  CWLS LOG ASCII STANDARD - VERSION 2.0
WRAP .                  YES:  Multiple lines per depth step
~Well Information Block
#MNEM.UNIT        Data Type   Information
#---------- ----------------  -----------
STRT .M          2784.04320:  START DEPTH
STOP .M          3715.96920:  STOP DEPTH
STEP .M             0.15240:  STEP
NULL .              -999.25:  NULL VALUE
COMP .                     :  COMPANY
WELL .      RAAG-101-02-104:  WELL
FLD  .                     :  FIELD
LOC  .                     :  LOCATION
CTRY .                     :  COUNTRY
STAT .                     :  STATE
CNTY .                     :  COUNTY
SRVC .                     :  SERVICE COMPANY
DATE .                     :  DATE
API  .                     :  API NUMBER
UWI  .                     :  UNIQUE WELL ID
~Curve Information Block
#MNEM.UNIT         API CODE   Curve Description
#---------- ----------------  -----------------
DEPTH.M                    :  
ANGLE_FAIL.DEG                  :  Fail Angle
BRIT_IND.                     :  Brittleness Index
BRIT_PR.                     :  Brittleness Index from Poisson's Ratio
BRIT_YM.                     :  Brittleness Index from Young's Modulus
CS   .M/MIN                 :  Compressive Strength
DTCO .US/F                 :  Compressional slowness
DTSM .US/F                 :  Fast Shear slowness
IP   .RAYL/M2                 :  P Impedence
IS   .RAYL/M2                 :  S Impedance
KBULK.                     :  Bulk Mudulus
LAMBDA.                     :  Lambda
LAMRHO.                     :  
MU   .CP                   :  Mu
MURHO.(GF/C3S)2                 :  Mu*Rho
PR   .                     :  Poisson's ratio
PRESS_FG.PSI                  :  Fracture Gradient Pressure
PRESS_OB.PSI                  :  Over-burden Pressure
PRESS_PP.PSI                  :  Pore Pressure
PRESS_SHMAX.PSI                  :  Horizontal Stress (Max)
PRESS_SHMIN.PSI                  :  Horizontal Stress (Min)
PR_STAT.                     :  Poisson's ratio (Static)
PZS  .PSI                  :  Processed Zone Stress
SHMAX_GRAD.                     :  Horizontal Stress Gradient (Max)
SHMIN_GRAD.                     :  Horizontal Stress Gradient (Min)
STRESS_CUM.PSI                  :  Cumulative stress (SHPZ)
UCS_BF.PSI                  :  Uniaxial Compressive Strength (BF)
UCS_LAL.PSI                  :  Uniaxial Compressive Strength (lal)
VP   .FT/S                 :  Compressional velocity
VPVS .                     :  Vp / Vs ratio
VS   .FT/S                 :  Shear velocity
YM   .                     :  Youngs' Modulus
YM_STAT.                     :  Youngs' Modulus (Static)
~Parameter Information Block
#MNEM.UNIT            Value   Description
#---------- ----------------  -----------
PROJECT.          RDG_13Jul21:  
SET  .              GEOMECH:  
~Other Information Block
~Ascii Log Data
# ...
    3008.37600 
       36.8291        56.1826        52.8294        59.5357      1086.1718 
       76.3356       130.7619     10544.8213      6155.8091        13.4065 
       13.4065        35.4053        14.3489         0.0004       0.241512 
     -999.2500     10238.9199      5198.4863     10424.5039      6527.2534 
      0.217361      1319.8011         2.4825         1.5544      8894.1084 
     2192.9138      4340.8267     13100.0479         1.7130      7647.4873 
        5.1675         3.1248
    3008.52840 
       37.1004        53.0282        46.6742        59.3823      1096.9277 
       75.4363       132.4576     10766.1758      6131.4751        15.2822 
       15.2822        40.7206        14.1092         0.0004       0.259977 
     -999.2500     10239.5078      5198.5664     10417.9746      6670.1694 
      0.233980      1336.5579         2.4808         1.5884      9213.4551 
     2188.0747      4409.8652     13256.2168         1.7559      7549.5859 
        5.1568         3.1167
    3008.68080 
       37.2850        50.9792        42.6000        59.3585      1104.2899 
       74.8287       133.7511     10956.7490      6129.8877        16.6919 
       16.6919        44.8993        13.9692         0.0004       0.272200 
     -999.2500     10240.0938      5198.6460     10413.6816      6768.3247 
      0.244980      1309.7419         2.4797         1.6117      9356.1338 
     2187.3247      4457.4502     13363.8564         1.7874      7476.5742 
        5.1551         3.1155
    3008.83320 
       37.3971        50.0621        40.8723        59.2520      1108.7794 
       74.4613       134.1546     11016.4443      6114.5786        17.3100 
       17.3100        46.5859        13.8924         0.0004       0.277383 
     -999.2500     10240.6797      5198.7256     10412.1660      6810.9565 
      0.249645      1273.5096         2.4792         1.6217      9368.9326 
     2183.9697      4486.5996     13429.7949         1.8017      7454.0864 
        5.1476         3.1098
    3008.98560 
       37.7558        50.1503        39.6754        60.6253      1123.2388 
       73.2939       132.7982     11140.2275      6148.5073        18.1035 
       18.1035        48.4964        14.1121         0.0004       0.280974 
     -999.2500     10241.2666      5198.8057     10411.2813      6840.9873 
      0.252876      1264.3658         2.4788         1.6288      9410.7061 
     2227.3821      4581.1616     13643.7012         1.8119      7530.2222 
        5.2438         3.1827
    3009.13800 
       38.4506        51.6965        38.7896        64.6035      1151.6401 
       71.0696       129.3168     11449.2041      6292.2246        19.4412 
       19.4412        51.9001        14.8308         0.0004       0.283631 
     -999.2500     10241.8535      5198.8848     10410.7627      6863.6621 
      0.255268      1297.3230         2.4786         1.6341      9521.9697 
     2354.9583      4769.9336     14070.7129         1.8196      7732.9468 
        5.5222         3.3967
    3009.29040 
       39.1220        55.1234        39.6827        70.5641      1179.6154 
       68.9644       124.9494     11872.2666      6552.7627        20.5021 
       20.5021        55.0733        15.9847         0.0005       0.280952 
     -999.2500     10242.4395      5198.9648     10412.4600      6842.0317 
      0.252857      1280.9553         2.4789         1.6289      9445.9746 
     2551.1794      4959.8145     14500.2344         1.8118      8003.2397 
        5.9395         3.7260
    3009.44280 
       39.2596        60.7947        45.9405        75.6489      1185.4117 
       68.5385       120.7215     11995.3555      6810.2505        18.9557 
       18.9557        51.1295        17.1947         0.0005       0.262178 
     -999.2500     10243.0254      5199.0444     10420.6680      6690.1787 
      0.235961      1325.5377         2.4807         1.5926      9231.4326 
     2723.3748      4999.6475     14590.3408         1.7614      8283.5283 
        6.2954         4.0149
    3009.59520 
       38.5849        66.6096        57.9087        75.3105      1157.1943 
       70.6450       118.7728     11551.1943      6870.5469        14.5750 
       14.5750        39.0213        17.6315         0.0005       0.226274 
     -999.2500     10243.6123      5199.1235     10434.9561      6416.7456 
      0.203647      1359.7882         2.4840         1.5275      8753.0674 
     2711.7764      4807.3203     14155.2842         1.6813      8419.4365 
        6.2717         3.9955
    3009.74760 
       37.6047        67.9159        66.2833        69.5484      1117.1295 
       73.7842       120.6339     10898.6133      6665.9990        11.3365 
       11.3365        29.9087        16.8427         0.0005       0.201150 
     -999.2500     10244.1992      5199.2031     10444.5137      6237.8989 
      0.181035      1331.6028         2.4861         1.4848      8339.0029 
     2517.3145      4541.0815     13553.0361         1.6350      8289.5430 
        5.8684         3.6692
    3009.90000 
       37.2631        62.0091        59.9047        64.1136      1103.4147 
       74.9006       125.0535     10620.1143      6360.9009        12.2099 
       12.2099        31.8647        15.5038         0.0004       0.220286 
     -999.2500     10244.7852      5199.2827     10438.3799      6372.8818 
      0.198257      1275.4768         2.4845         1.5169      8496.7178 
     2339.1028      4451.7788     13351.0283         1.6696      7996.5776 
        5.4880         3.3701
    3010.05240 
       36.9898        57.8317        55.0261        60.6373      1092.5315 
       75.8022       128.7798     10509.0039      6185.7959        12.9751 
       12.9751        33.9110        14.6407         0.0004       0.234922 
     -999.2500     10245.3721      5199.3618     10433.6299      6480.2168 
      0.211430      1281.9850         2.4833         1.5423      8724.4043 
     2227.7629      4381.5776     13192.2295         1.6989      7765.1929 
        5.2446         3.1833
    3010.20480 
       36.8412        57.3266        54.6267        60.0265      1086.6467 
       76.2956       129.8102     10512.1113      6178.4658        12.9811 
       12.9811        34.1576        14.5073         0.0004       0.236120 
     -999.2500     10245.9590      5199.4414     10433.7891      6489.3389 
      0.212508      1352.6129         2.4832         1.5444      8883.9043 
     2208.4146      4343.8628     13106.9150         1.7014      7703.5557 
        5.2019         3.1508
    3010.35720 
       36.8368        58.6367        56.2796        60.9938      1086.4746 
       76.3101       129.0487     10564.7578      6247.2354        12.6874 
       12.6874        33.5582        14.7553         0.0004       0.231161 
     -999.2500     10246.5449      5199.5215     10436.2354      6452.7358 
      0.208045      1700.5848         2.4836         1.5356      9506.6416 
     2239.0872      4342.7622     13104.4258         1.6911      7749.0122 
        5.2696         3.2023
    3010.50960 
       37.0691        60.8417        58.3404        63.3431      1095.6826 
       75.5397       126.8087     10680.4463      6362.3218        12.5100 
       12.5100        33.1137        15.2926         0.0004       0.224979 
     -999.2500     10247.1318      5199.6006     10439.1035      6407.6953 
      0.202481      2366.6619         2.4842         1.5248     10748.7148 
     2314.2473      4401.8438     13238.0713         1.6787      7885.8945 
        5.4340         3.3284
    3010.66200 
       37.9362        61.3209        54.4679        68.1738      1130.5590 
       72.7120       123.7862     11125.6006      6535.1763        14.4539 
       14.4539        38.3619        16.0916         0.0005       0.236596 
     -999.2500     10247.7188      5199.6802     10435.3984      6494.1113 
      0.212937      2572.7734         2.4832         1.5453     11333.7686 
     2471.7622      4629.4312     13752.8887         1.7024      8078.4453 
        5.7722         3.5927
