~Version Information Block
VERS .                  2.0:  CWLS LOG ASCII STANDARD - VERSION 2.0
WRAP .                   NO:  One line per depth step
~Well Information Block
#MNEM.UNIT        Data Type   Information
#---------- ----------------  -----------
STRT .M          2889.76360:  START DEPTH
STOP .M          3614.73040:  STOP DEPTH
STEP .M             0.15240:  STEP
NULL .              -999.25:  NULL VALUE
COMP .                     :  COMPANY
WELL .       RAAG-89-05-105:  WELL
FLD  .                     :  FIELD
LOC  .                     :  LOCATION
CTRY .                     :  COUNTRY
STAT .                     :  STATE
CNTY .                     :  COUNTY
SRVC .                     :  SERVICE COMPANY
DATE .                     :  DATE
API  .                     :  API NUMBER
UWI  .                     :  UNIQUE WELL ID
~Curve Information Block
#MNEM.UNIT         API CODE   Curve Description
#---------- ----------------  -----------------
DEPTH.M                    :  
PRESS_PP.PSI                  :  Pore Pressure
PZS  .PSI                  :  Processed Zone Stress
~Parameter Information Block
#MNEM.UNIT            Value   Description
#---------- ----------------  -----------
PROJECT.          RDG_13Jul21:  
SET  .              GEOMECH:  
~Other Information Block
# 
~A       DEPTH       PRESS_PP            PZS 
# ...
    3269.54440      5290.7612      1243.9484
    3269.69680      5290.8130      1254.4219
    3269.84920      5290.8638      1297.0232
    3270.00160      5290.9155      1307.8524
    3270.15400      5290.9668      1271.0225
    3270.30640      5291.0186      1274.0596
    3270.45880      5291.0698      1280.1511
    3270.61120      5291.1211      1283.2056
    3270.76360      5291.1729      1283.2056
    3270.91600      5291.2241      1274.0596
    3271.06840      5291.2759      1249.9246
    3271.22080      5291.3276      1255.9238
    3271.37320      5291.3789      1287.7983
    3271.52560      5291.4302      1307.8524
    3271.67800      5291.4814      1304.7510
    3271.83040      5291.5327      1315.6316
    3271.98280      5291.5840      1166.8986
    3272.13520      5291.6353      1152.7991
    3272.28760      5291.6865      1157.0145
    3272.44000      5291.7378      1114.0437
    3272.59240      5291.7891      1071.0356
    3272.74480      5291.8403      1025.5272
    3272.89720      5291.8911      1080.3282
    3273.04960      5291.9424      1201.3011
    3273.20200      5291.9937      1317.1918
    3273.35440      5292.0444      1278.6260
    3273.50680      5292.0957      1428.4838
    3273.65920      5292.1470      1593.8915
    3273.81160      5292.1978      1610.3232
    3273.96400      5292.2490      1515.4780
    3274.11640      5292.2998      1692.6185
    3274.26880      5292.3511      1475.7357
    3274.42120      5292.4019      1353.4890
    3274.57360      5292.4526      1287.7983
    3274.72600      5292.5039      1254.4219
    3274.87840      5292.5547      1281.6777
    3275.03080      5292.6055      1340.7743
    3275.18320      5292.6563      1361.4845
    3275.33560      5292.7075      1403.6727
    3275.48800      5292.7583      1462.1095
    3275.64040      5292.8091      1388.9525
    3275.79280      5292.8599      1337.6106
    3275.94520      5292.9106      1289.3323
    3276.09760      5292.9614      1248.4285
    3276.25000      5293.0127      1224.6833
    3276.40240      5293.0635      1254.4219
    3276.55480      5293.1143      1143.0106
    3276.70720      5293.1646      1286.2660
    3276.85960      5293.2153      1320.3169
    3277.01200      5293.2661      1196.9570
    3277.16440      5293.3169      1557.8567
    3277.31680      5293.3672      1410.2550
    3277.46920      5293.4180      1503.2931
    3277.62160      5293.4688      1628.7394
    3277.77400      5293.5190      1696.4376
    3277.92640      5293.5693      1985.7694
    3278.07880      5293.6196      2547.6035
    3278.23120      5293.6699      2928.3799
    3278.38360      5293.7207      3079.2959
    3278.53600      5293.7710      3079.2959
    3278.68840      5293.8213      3079.2959
    3278.84080      5293.8721      3018.2007
    3278.99320      5293.9229      2724.3037
    3279.14560      5293.9731      2487.3235
    3279.29800      5294.0234      2428.1899
    3279.45040      5294.0742      2443.5063
    3279.60280      5294.1245      2508.1597
    3279.75520      5294.1748      2671.6697
    3279.90760      5294.2251      2791.9709
    3280.06000      5294.2754      2800.5229
    3280.21240      5294.3257      2817.6899
    3280.36480      5294.3755      2690.9656
    3280.51720      5294.4258      2609.0466
    3280.66960      5294.4761      2749.5232
    3280.82200      5294.5264      3079.2959
    3280.97440      5294.5767      3079.2959
    3281.12680      5294.6265      2863.8806
    3281.27920      5294.6768      2869.6968
    3281.43160      5294.7271      2916.5671
    3281.58400      5294.7773      2869.6968
    3281.73640      5294.8276      2721.5129
    3281.88880      5294.8774      2794.8193
    3282.04120      5294.9277      2685.4412
    3282.19360      5294.9775      2502.9375
    3282.34600      5295.0278      2471.7874
    3282.49840      5295.0776      3045.5725
    3282.65080      5295.1274      3079.2959
    3282.80320      5295.1768      3079.2959
    3282.95560      5295.2271      3079.2959
    3283.10800      5295.2769      3057.8013
    3283.26040      5295.3267      2952.1201
    3283.41280      5295.3765      3045.5725
    3283.56520      5295.4263      2760.7917
    3283.71760      5295.4761      2531.7668
    3283.87000      5295.5259      2547.6035
    3284.02240      5295.5757      2638.8486
    3284.17480      5295.6260      2855.1741
    3284.32720      5295.6758      3009.1208
    3284.47960      5295.7256      3027.3027
    3284.63200      5295.7754      2946.1707
    3284.78440      5295.8247      2976.0142
    3284.93680      5295.8745      3054.7402
    3285.08920      5295.9243      3079.2959
    3285.24160      5295.9736      3079.2959
    3285.39400      5296.0234      3079.2959
    3285.54640      5296.0732      3079.2959
    3285.69880      5296.1226      3048.6260
    3285.85120      5296.1724      3060.8645
    3286.00360      5296.2217      3079.2959
    3286.15600      5296.2710      3060.8645
    3286.30840      5296.3208      2976.0142
    3286.46080      5296.3701      2922.4688
    3286.61320      5296.4194      2907.7327
    3286.76560      5296.4697      2970.0261
    3286.91800      5296.5190      3073.1423
    3287.07040      5296.5684      3048.6260
    3287.22280      5296.6177      3073.1423
    3287.37520      5296.6670      3079.2959
    3287.52760      5296.7168      3079.2959
    3287.68000      5296.7661      3079.2959
    3287.83240      5296.8154      3079.2959
    3287.98480      5296.8643      2789.1248
    3288.13720      5296.9136      2461.4734
    3288.28960      5296.9629      2286.4775
    3288.44200      5297.0117      2313.2966
    3288.59440      5297.0610      2453.7603
    3288.74680      5297.1104      2685.4412
    3288.89920      5297.1592      2843.5984
    3289.05160      5297.2085      2916.5671
    3289.20400      5297.2578      2937.2644
    3289.35640      5297.3071      2991.0264
    3289.50880      5297.3564      2940.2307
    3289.66120      5297.4053      2878.4387
    3289.81360      5297.4546      2832.0601
    3289.96600      5297.5034      2777.7639
    3290.11840      5297.5527      2614.4451
    3290.27080      5297.6016      2566.1797
    3290.42320      5297.6504      2579.5146
    3290.57560      5297.6997      2600.9658
    3290.72800      5297.7485      2627.9802
    3290.88040      5297.7974      2766.4399
    3291.03280      5297.8462      2875.5225
    3291.18520      5297.8950      2858.0740
    3291.33760      5297.9438      2713.1545
    3291.49000      5297.9927      2461.4734
    3291.64240      5298.0420      2133.0325
    3291.79480      5298.0903      2128.4453
    3291.94720      5298.1401      2219.3315
    3292.09960      5298.1885      2325.5701
    3292.25200      5298.2373      2423.1016
    3292.40440      5298.2861      2568.8423
    3292.55680      5298.3350      2560.8613
    3292.70920      5298.3838      2780.6006
    3292.86160      5298.4321      2955.0984
    3293.01400      5298.4810      2901.8547
    3293.16640      5298.5298      2780.6006
    3293.31880      5298.5781      2652.4846
    3293.47120      5298.6270      2502.9375
    3293.62360      5298.6753      2453.7603
    3293.77600      5298.7241      2495.1206
    3293.92840      5298.7725      2412.9502
    3294.08080      5298.8213      2224.0747
    3294.23320      5298.8696      2133.0325
    3294.38560      5298.9180      2156.0869
    3294.53800      5298.9668      2250.3074
    3294.69040      5299.0151      2262.3130
    3294.84280      5299.0635      2250.3074
    3294.99520      5299.1118      2245.5195
    3295.14760      5299.1602      2247.9124
    3295.30000      5299.2085      2247.9124
    3295.45240      5299.2568      2250.3074
    3295.60480      5299.3052      2142.2305
    3295.75720      5299.3535      2022.8977
    3295.90960      5299.4019      1908.9432
    3296.06200      5299.4502      1830.4478
    3296.21440      5299.4985      1842.6671
    3296.36680      5299.5469      1750.6326
    3296.51920      5299.5952      1698.3499
