~Version Information Block
VERS .                  2.0:  CWLS LOG ASCII STANDARD - VERSION 2.0
WRAP .                  YES:  Multiple lines per depth step
~Well Information Block
#MNEM.UNIT        Data Type   Information
#---------- ----------------  -----------
STRT .M          2656.78920:  START DEPTH
STOP .M          3640.98840:  STOP DEPTH
STEP .M             0.15240:  STEP
NULL .              -999.25:  NULL VALUE
COMP .                     :  COMPANY
WELL .       RAAG-98-07-214:  WELL
FLD  .                     :  FIELD
LOC  .                     :  LOCATION
CTRY .                     :  COUNTRY
STAT .                     :  STATE
CNTY .                     :  COUNTY
SRVC .                     :  SERVICE COMPANY
DATE .                     :  DATE
API  .                     :  API NUMBER
UWI  .                     :  UNIQUE WELL ID
~Curve Information Block
#MNEM.UNIT         API CODE   Curve Description
#---------- ----------------  -----------------
DEPTH.M                    :  
ANGLE_FAIL.DEG                  :  Fail Angle
BRIT_IND.                     :  Brittleness Index
BRIT_PR.                     :  Brittleness Index from Poisson's Ratio
BRIT_YM.                     :  Brittleness Index from Young's Modulus
CS   .M/MIN                 :  Compressive Strength
IP   .RAYL/M2                 :  P Impedence
IS   .RAYL/M2                 :  S Impedance
KBULK.                     :  Bulk Mudulus
LAMBDA.                     :  Lambda
LAMRHO.                     :  
MU   .CP                   :  Mu
MURHO.(GF/C3S)2                 :  Mu*Rho
PR   .                     :  Poisson's ratio
PRESS_FG.PSI                  :  Fracture Gradient Pressure
PRESS_OB.PSI                  :  Over-burden Pressure
PRESS_PP.PSI                  :  Pore Pressure
PRESS_SHMAX.PSI                  :  Horizontal Stress (Max)
PRESS_SHMIN.PSI                  :  Horizontal Stress (Min)
PR_STAT.                     :  Poisson's ratio (Static)
PZS  .PSI                  :  Processed Zone Stress
SHMAX_GRAD.                     :  Horizontal Stress Gradient (Max)
SHMIN_GRAD.                     :  Horizontal Stress Gradient (Min)
STRESS_CUM.PSI                  :  Cumulative stress (SHPZ)
UCS_BF.PSI                  :  Uniaxial Compressive Strength (BF)
UCS_LAL.PSI                  :  Uniaxial Compressive Strength (lal)
VP   .FT/S                 :  Compressional velocity
VPVS .                     :  Vp / Vs ratio
VS   .FT/S                 :  Shear velocity
YM   .                     :  Youngs' Modulus
YM_STAT.                     :  Youngs' Modulus (Static)
~Parameter Information Block
#MNEM.UNIT            Value   Description
#---------- ----------------  -----------
PROJECT.          RDG_13Jul21:  
SET  .              GEOMECH:  
~Other Information Block
~Ascii Log Data
    2656.78920 
       33.6793        33.2361        33.5096        32.9625       966.5262 
     8783.2676      4699.2832        13.1034        13.1034        32.9793 
        8.7742    0.000237702       0.299471      -999.2500      8702.4209 
     4918.0015      8824.8037      6254.7627       0.269524      1821.3499 
        2.4358         1.7264      9352.2256      1415.1506      3611.1294 
    11449.4287         1.8691      6125.7505         3.3074         1.8197
    2656.94160 
       34.1303        41.4692        44.1698        38.7687       983.0974 
     8947.4863      5040.9766        11.6207        11.6207        29.2346 
       10.1010    0.000273526       0.267491      -999.2500      8702.9824 
     4918.1304      8835.4424      6053.7861       0.240742      1759.6173 
        2.4386         1.6709      8826.8076      1574.7728      3708.0383 
    11668.6426         1.7750      6574.0645         3.7138         2.0876
    2657.09400 
       34.4025        45.1071        48.8714        41.3429       993.1865 
     9012.6025      5179.7773        11.0044        11.0044        27.5668 
       10.7103    0.000288797       0.253386      -999.2500      8703.5439 
     4918.2598      8840.2188      5970.0498       0.228047      1706.8169 
        2.4398         1.6477      8553.7334      1647.3890      3767.6895 
    11803.5781         1.7400      6783.8228         3.8940         2.2094
    2657.24640 
       34.4302        45.3699        49.5495        41.1903       994.2175 
     8942.6748      5153.7266        10.8146        10.8146        26.8496 
       10.6983    0.000285899       0.251352      -999.2500      8704.1055 
     4918.3892      8841.3916      5958.3828       0.226216      1636.4598 
        2.4400         1.6443      8389.6855      1643.0536      3773.8130 
    11817.4287         1.7352      6810.4678         3.8833         2.2022
    2657.39880 
       33.9372        44.8021        50.6227        38.9815       975.9813 
     8714.6826      5043.9106        10.1460        10.1460        25.0636 
       10.2988    0.000273845       0.248132      -999.2500      8704.6680 
     4918.5186      8842.9131      5939.7617       0.223319      1540.5450 
        2.4402         1.6391      8160.6138      1580.7344      3666.2605 
    11574.1387         1.7278      6698.9155         3.7287         2.0976
    2657.55120 
       33.1754        44.6731        53.0642        36.2821       948.2120 
     8430.2578      4925.7930         9.1370         9.1370        22.5424 
        9.8346    0.000261169       0.240807      -999.2500      8705.2285 
     4918.6475      8845.6035      5897.7334       0.216727      1459.6925 
        2.4408         1.6274      7914.8516      1505.7059      3505.5657 
    11210.6377         1.7115      6550.3677         3.5397         1.9717
    2657.70360 
       32.4862        44.7167        55.3643        34.0691       923.5027 
     8199.3926      4832.3408         8.3129         8.3129        20.5270 
        9.4568    0.000251354       0.233907      -999.2500      8705.7900 
     4918.7769      8848.1387      5858.8125       0.210516      1415.2861 
        2.4414         1.6166      7748.1968      1445.1294      3365.6877 
    10894.2256         1.6968      6420.5498         3.3848         1.8700
    2657.85600 
       32.1187        43.4600        54.5108        32.4092       910.4787 
     8073.2500      4742.9834         8.1773         8.1773        20.1856 
        9.1133    0.000242144       0.236468      -999.2500      8706.3525 
     4918.9067      8848.0010      5873.3755       0.212821      1421.1411 
        2.4412         1.6205      7789.0337      1400.2396      3293.1323 
    10730.1006         1.7021      6303.8667         3.2686         1.7947
    2658.00840 
       32.0748        41.4702        51.3631        31.5772       908.9297 
     8075.4341      4687.5688         8.5971         8.5971        21.2660 
        8.8831    0.000236519       0.245911      -999.2500      8706.9131 
     4919.0361      8845.8848      5927.4800       0.221320      1484.0736 
        2.4405         1.6353      8023.1069      1377.9200      3284.5564 
    10710.7012         1.7227      6217.2700         3.2104         1.7573
    2658.16080 
       32.0936        40.5380        49.6827        31.3932       909.5958 
     8111.8120      4677.4014         8.8791         8.8791        22.0453 
        8.8118    0.000235494       0.250952      -999.2500      8707.4746 
     4919.1650      8844.9990      5956.9858       0.225857      1580.1091 
        2.4401         1.6434      8274.1895      1372.9980      3288.2429 
    10719.0410         1.7343      6180.7715         3.1975         1.7490
    2658.31320 
       32.2639        39.8189        47.9616        31.6761       915.6127 
     8185.6924      4687.0005         9.2727         9.2727        23.0696 
        8.8299    0.000236461       0.256115      -999.2500      8708.0371 
     4919.2939      8844.0596      5987.5918       0.230504      1624.8102 
        2.4397         1.6517      8424.8037      1380.5671      3321.6372 
    10794.5811         1.7465      6180.8096         3.2173         1.7617
    2658.46560 
       32.5057        39.5366        46.7362        32.3371       924.1946 
     8281.1650      4717.4644         9.6588         9.6588        24.0688 
        8.9307    0.000239545       0.259791      -999.2500      8708.5986 
     4919.4233      8843.5420      6009.7144       0.233812      1609.2843 
        2.4394         1.6577      8437.9980      1398.3005      3369.5652 
    10902.9971         1.7554      6211.0215         3.2636         1.7915
    2658.61800 
       32.7622        40.3272        47.2744        33.3799       933.3508 
     8349.7686      4767.3086         9.7604         9.7604        24.2642 
        9.1422    0.000244634       0.258177      -999.2500      8709.1602 
     4919.5527      8844.5967      6000.4243       0.232359      1544.2823 
        2.4396         1.6551      8289.4141      1426.4332      3421.0874 
    11019.5430         1.7515      6291.6187         3.3366         1.8387
    2658.77040 
       33.0387        41.7904        48.8104        34.7705       943.2807 
     8418.8984      4837.3579         9.7170         9.7170        24.0778 
        9.4435    0.000251876       0.253569      -999.2500      8709.7217 
     4919.6816      8846.5313      5973.5332       0.228212      1477.1362 
        2.4399         1.6475      8101.3394      1464.2365      3477.4163 
    11146.9619         1.7404      6404.8574         3.4339         1.9021
    2658.92280 
       32.9551        43.7315        52.2822        35.1808       940.2703 
     8356.9648      4868.3467         9.0904         9.0904        22.4373 
        9.6023    0.000255113       0.243154      -999.2500      8710.2832 
     4919.8110      8850.1309      5913.3193       0.218838      1568.4708 
        2.4408         1.6308      8163.5801      1475.4554      3460.2893 
    11108.2207         1.7166      6471.0889         3.4627         1.9209
    2659.07520 
       32.5850        42.6612        51.7681        33.5543       927.0184 
     8229.8721      4784.7705         8.8896         8.8896        21.9427 
        9.2750    0.000246429       0.244696      -999.2500      8710.8457 
     4919.9404      8850.2705      5922.3394       0.220226      1676.9188 
        2.4407         1.6332      8398.5166      1431.1573      3385.4121 
    10938.8428         1.7200      6359.7412         3.3488         1.8466
    2659.22760 
       32.2640        37.1932        43.9071        30.4792       915.6151 
     8174.6260      4600.2144         9.8612         9.8612        24.5006 
        8.5175    0.000227786       0.268279      -999.2500      8711.4072 
     4920.0693      8843.8750      6062.0469       0.241451      1767.1458 
        2.4388         1.6717      8858.3857      1348.6415      3321.6499 
    10794.6094         1.7770      6074.5923         3.1335         1.7081
