~Version Information Block
VERS .                  2.0:  CWLS LOG ASCII STANDARD - VERSION 2.0
WRAP .                  YES:  Multiple lines per depth step
~Well Information Block
#MNEM.UNIT        Data Type   Information
#---------- ----------------  -----------
STRT .M          2682.11640:  START DEPTH
STOP .M          3633.09240:  STOP DEPTH
STEP .M             0.15240:  STEP
NULL .              -999.25:  NULL VALUE
COMP .                     :  COMPANY
WELL .       RAAG-94-07-216:  WELL
FLD  .                     :  FIELD
LOC  .                     :  LOCATION
CTRY .                     :  COUNTRY
STAT .                     :  STATE
CNTY .                     :  COUNTY
SRVC .                     :  SERVICE COMPANY
DATE .                     :  DATE
API  .                     :  API NUMBER
UWI  .                     :  UNIQUE WELL ID
~Curve Information Block
#MNEM.UNIT         API CODE   Curve Description
#---------- ----------------  -----------------
DEPTH.M                    :  
ANGLE_FAIL.DEG                  :  Fail Angle
BRIT_IND.                     :  Brittleness Index
BRIT_PR.                     :  Brittleness Index from Poisson's Ratio
BRIT_YM.                     :  Brittleness Index from Young's Modulus
CS   .M/MIN                 :  Compressive Strength
IP   .RAYL/M2                 :  P Impedence
IS   .RAYL/M2                 :  S Impedance
KBULK.                     :  Bulk Mudulus
LAMBDA.                     :  Lambda
LAMRHO.                     :  
MU   .CP                   :  Mu
MURHO.(GF/C3S)2                 :  Mu*Rho
PR   .                     :  Poisson's ratio
PRESS_FG.PSI                  :  Fracture Gradient Pressure
PRESS_OB.PSI                  :  Over-burden Pressure
PRESS_PP.PSI                  :  Pore Pressure
PRESS_SHMAX.PSI                  :  Horizontal Stress (Max)
PRESS_SHMIN.PSI                  :  Horizontal Stress (Min)
PR_STAT.                     :  Poisson's ratio (Static)
PZS  .PSI                  :  Processed Zone Stress
SHMAX_GRAD.                     :  Horizontal Stress Gradient (Max)
SHMIN_GRAD.                     :  Horizontal Stress Gradient (Min)
STRESS_CUM.PSI                  :  Cumulative stress (SHPZ)
UCS_BF.PSI                  :  Uniaxial Compressive Strength (BF)
UCS_LAL.PSI                  :  Uniaxial Compressive Strength (lal)
VP   .FT/S                 :  Compressional velocity
VPVS .                     :  Vp / Vs ratio
VS   .FT/S                 :  Shear velocity
YM   .                     :  Youngs' Modulus
YM_STAT.                     :  Youngs' Modulus (Static)
~Parameter Information Block
#MNEM.UNIT            Value   Description
#---------- ----------------  -----------
PROJECT.          RDG_13Jul21:  
SET  .              GEOMECH:  
~Other Information Block
~Ascii Log Data
# ...
    3311.68080 
       43.3101        83.2151        51.0818       115.3484      1367.2506 
    13902.0742      8060.8735        24.4483        24.4483        63.3123 
       25.0914         0.0007       0.246755      -999.2500     11176.2813 
     5300.8960     11389.5547      6910.8262       0.222079      2891.3491 
        2.5058         1.5205     12804.3506      4219.8960      6335.7578 
    17612.7012         1.7246     10212.4141         9.0744         6.5261
    3311.83320 
       43.1559        83.7178        52.9900       114.4455      1359.8938 
    13766.8027      8041.6558        23.2976        23.2976        60.1884 
       25.0316         0.0007       0.241030      -999.2500     11176.8682 
     5300.9438     11392.6963      6860.2988       0.216927      3075.3723 
        2.5064         1.5093     13071.3428      4182.8643      6278.4219 
    17483.0039         1.7119     10212.4141         9.0112         6.4640
    3311.98560 
       43.1648        83.4247        52.8774       113.9721      1360.3212 
    13718.3311      8009.8984        23.2684        23.2684        59.8757 
       24.9328         0.0007       0.241368      -999.2500     11177.4561 
     5300.9917     11393.1572      6863.4233       0.217231      3051.5784 
        2.5064         1.5099     13030.0039      4163.4995      6281.7451 
    17490.5195         1.7127     10212.4141         8.9780         6.4315
    3312.13800 
       43.2852        82.5791        51.3861       113.7721      1366.0613 
    13726.6963      7968.6890        23.9928        23.9928        61.4222 
       24.8045         0.0007       0.245842      -999.2500     11178.0420 
     5301.0396     11391.7861      6903.1665       0.221258      2951.4114 
        2.5060         1.5186     12909.1553      4155.3320      6326.4697 
    17591.6914         1.7226     10212.4141         8.9640         6.4178
    3312.29040 
       43.2526        82.5212        51.7876       113.2548      1364.5016 
    13663.0625      7944.1792        23.6896        23.6896        60.4593 
       24.7282         0.0007       0.244637      -999.2500     11178.6289 
     5301.0874     11392.9287      6892.6294       0.220174      2727.0537 
        2.5061         1.5162     12439.3662      4134.2373      6314.3008 
    17564.1641         1.7199     10212.4141         8.9278         6.3824
    3312.44280 
       43.0647        83.1951        54.1430       112.2472      1355.5621 
    13510.4814      7926.4189        22.3358        22.3358        56.8769 
       24.6729         0.0007       0.237571      -999.2500     11179.2158 
     5301.1353     11396.6465      6830.6006       0.213814      2643.2097 
        2.5068         1.5025     12147.6201      4093.2793      6244.7925 
    17406.9316         1.7045     10212.4141         8.8573         6.3137
    3312.59520 
       42.8713        83.6690        56.0854       111.2525      1346.4202 
    13398.8564      7917.5283        21.2471        21.2471        54.1548 
       24.5948         0.0007       0.231744      -999.2500     11179.8018 
     5301.1831     11399.7813      6780.2114       0.208569      2777.1675 
        2.5074         1.4913     12314.7578      4053.0166      6174.1353 
    17247.1016         1.6923     10191.4980         8.7877         6.2461
    3312.74760 
       42.8335        81.6914        53.6626       109.7201      1344.6415 
    13420.2607      7859.2710        22.1184        22.1184        56.5671 
       24.1520         0.0007       0.239012      -999.2500     11180.3896 
     5301.2305     11397.2412      6843.3638       0.215111      3079.2876 
        2.5067         1.5051     13045.3027      3991.3230      6160.4375 
    17216.1152         1.7076     10082.2275         8.6804         6.1426
    3312.90000 
       43.0751        79.2295        48.5307       109.9284      1356.0597 
    13666.3145      7843.4634        24.7535        24.7535        63.7283 
       23.8957         0.0007       0.254408      -999.2500     11180.9766 
     5301.2783     11390.9863      6980.7686       0.228967      3079.2878 
        2.5052         1.5353     13320.1133      3999.6843      6248.6504 
    17415.6602         1.7424      9995.3125         8.6950         6.1566
    3313.05240 
       43.4370        78.0040        44.4375       111.5706      1373.3290 
    13952.6533      7870.1177        27.4067        27.4067        70.7990 
       23.9769         0.0007       0.266688      -999.2500     11181.5635 
     5301.3262     11385.9346      7094.1406       0.240019      3079.2883 
        2.5040         1.5601     13546.8574      4065.8743      6383.3408 
    17720.3359         1.7729      9995.3125         8.8099         6.2677
    3313.20480 
       43.4532        77.9134        44.2600       111.5667      1374.1072 
    13957.2363      7866.5718        27.5119        27.5119        71.0386 
       23.9661         0.0007       0.267220      -999.2500     11182.1494 
     5301.3740     11386.2900      7099.3325       0.240498      3079.2883 
        2.5040         1.5612     13557.2412      4065.7192      6389.4463 
    17734.1484         1.7742      9995.3125         8.8097         6.2674
    3313.35720 
       43.2153        79.6404        48.3700       110.9108      1362.7222 
    13695.1621      7854.8428        25.0360        25.0360        64.1604 
       24.0754         0.0007       0.254890      -999.2500     11182.7363 
     5301.4214     11392.5801      6985.8516       0.229401      3079.2573 
        2.5052         1.5362     13330.2178      4039.2278      6300.4321 
    17532.7930         1.7435     10055.9102         8.7638         6.2230
    3313.50960 
       43.1605        85.9480        57.0039       114.8922      1360.1160 
    13538.5566      8026.6797        21.4315        21.4315        54.4373 
       25.3646         0.0007       0.228988      -999.2500     11183.3242 
     5301.4692     11404.5898      6758.0015       0.206089      3077.9207 
        2.5077         1.4860     12871.8438      4201.1646      6280.1489 
    17486.9102         1.6867     10367.5625         9.0425         6.4947
    3313.66200 
       43.4393        88.0697        58.3187       117.8207      1373.4404 
    13578.0645      8087.8115        21.2992        21.2992        53.5385 
       26.0231         0.0007       0.225044      -999.2500     11183.9102 
     5301.5166     11406.8643      6724.8281       0.202539      3069.4626 
        2.5081         1.4786     12788.5820      4322.0137      6384.2148 
    17722.3145         1.6788     10556.3447         9.2475         6.6975
    3313.81440 
       43.4161        86.7135        57.4388       115.9883      1372.3256 
    13459.5127      7992.2412        21.4100        21.4100        53.4066 
       25.6070         0.0007       0.227684      -999.2500     11184.4971 
     5301.5645     11406.3564      6747.3179       0.204915      3034.1067 
        2.5079         1.4835     12762.8496      4246.2241      6375.4731 
    17702.5391         1.6841     10511.7451         9.1192         6.5703
    3313.96680 
       42.9132        83.5453        57.4086       109.6821      1348.3966 
    13121.8252      7790.8843        20.3870        20.3870        50.7865 
       24.3656         0.0007       0.227774      -999.2500     11185.0850 
     5301.6118     11406.9521      6747.7354       0.204997      2984.1387 
        2.5079         1.4835     12663.7480      3989.7966      6189.3750 
    17281.5742         1.6843     10260.6719         8.6777         6.1400
    3314.11920 
       42.0706        80.3904        59.0208       101.7600      1309.1663 
    12688.6445      7576.6309        18.4254        18.4254        46.1910 
       22.8988         0.0006       0.222937      -999.2500     11185.6719 
     5301.6597     11409.6455      6706.1929       0.200644      2922.4512 
        2.5084         1.4743     12457.2881      3677.3081      5890.6387 
    16605.8145         1.6747      9915.6475         8.1232         5.6157
