~Version Information Block
VERS .                  2.0:  CWLS LOG ASCII STANDARD - VERSION 2.0
WRAP .                  YES:  Multiple lines per depth step
~Well Information Block
#MNEM.UNIT        Data Type   Information
#---------- ----------------  -----------
STRT .M          2888.43720:  START DEPTH
STOP .M          3831.03120:  STOP DEPTH
STEP .M             0.15240:  STEP
NULL .              -999.25:  NULL VALUE
COMP .                     :  COMPANY
WELL .       RAAG-99-02-105:  WELL
FLD  .                     :  FIELD
LOC  .                     :  LOCATION
CTRY .                     :  COUNTRY
STAT .                     :  STATE
CNTY .                     :  COUNTY
SRVC .                     :  SERVICE COMPANY
DATE .                     :  DATE
API  .                     :  API NUMBER
UWI  .                     :  UNIQUE WELL ID
~Curve Information Block
#MNEM.UNIT         API CODE   Curve Description
#---------- ----------------  -----------------
DEPTH.M                    :  
ANGLE_FAIL.DEG                  :  Fail Angle
BRIT_IND.                     :  Brittleness Index
BRIT_PR.                     :  Brittleness Index from Poisson's Ratio
BRIT_YM.                     :  Brittleness Index from Young's Modulus
CS   .M/MIN                 :  Compressive Strength
DTCO .US/F                 :  Compressional slowness
DTSM .US/F                 :  Fast Shear Slowness
IP   .RAYL/M2                 :  P Impedence
IS   .RAYL/M2                 :  S Impedance
KBULK.                     :  Bulk Mudulus
LAMBDA.                     :  Lambda
LAMRHO.                     :  
MU   .CP                   :  Mu
MURHO.(GF/C3S)2                 :  Mu*Rho
PR   .                     :  Poisson's ratio
PRESS_FG.PSI                  :  Fracture Gradient Pressure
PRESS_OB.PSI                  :  Over-burden Pressure
PRESS_PP.PSI                  :  Pore Pressure
PRESS_SHMAX.PSI                  :  Horizontal Stress (Max)
PRESS_SHMIN.PSI                  :  Horizontal Stress (Min)
PR_STAT.                     :  Poisson's ratio (Static)
PZS  .PSI                  :  Processed Zone Stress
SHMAX_GRAD.                     :  Horizontal Stress Gradient (Max)
SHMIN_GRAD.                     :  Horizontal Stress Gradient (Min)
STRESS_CUM.PSI                  :  Cumulative stress (SHPZ)
UCS_BF.PSI                  :  Uniaxial Compressive Strength (BF)
UCS_LAL.PSI                  :  Uniaxial Compressive Strength (lal)
VP   .FT/S                 :  Compressional velocity
VPVS .                     :  Vp / Vs ratio
VS   .FT/S                 :  Shear velocity
YM   .                     :  Youngs' Modulus
YM_STAT.                     :  Youngs' Modulus (Static)
~Parameter Information Block
#MNEM.UNIT            Value   Description
#---------- ----------------  -----------
PROJECT.          RDG_13Jul21:  
SET  .              GEOMECH:  
~Other Information Block
~Ascii Log Data
# ...
    3693.10920 
       40.6901        79.9838        62.2425        97.7252      1247.0861 
       64.2145       106.3679     12878.4053      7774.7173        16.5712 
       16.5712        44.9609        22.2787    0.000650638       0.213272 
     -999.2500     11906.1826      5345.1543     12160.0527      6828.7783 
      0.191945      1974.3186         2.5294         1.4204     10806.1934 
     3522.2778      5433.9717     15572.8057         1.6564      9401.3320 
        7.8408         5.3555
    3693.26160 
       40.7452        80.5666        62.7853        98.3480      1249.5118 
       64.0519       105.9080     12888.1602      7794.6064        16.4648 
       16.4648        44.5929        22.4326    0.000653971       0.211644 
     -999.2500     11906.7852      5345.1792     12161.4229      6814.0366 
      0.190480      2002.9971         2.5296         1.4173     10834.0674 
     3546.0261      5451.4478     15612.3379         1.6535      9442.1582 
        7.8844         5.3954
    3693.41400 
       40.8228        81.5348        63.6272        99.4423      1252.9392 
       63.8231       105.2387     12922.4238      7836.9380        16.3178 
       16.3178        44.1538        22.6979    0.000661094       0.209118 
     -999.2500     11907.3896      5345.2041     12163.1992      6791.1968 
      0.188206      1891.7578         2.5298         1.4125     10565.9092 
     3587.9150      5476.1904     15668.3076         1.6489      9502.2080 
        7.9610         5.4656
    3693.56640 
       40.8643        82.7437        64.8801       100.6072      1254.7764 
       63.7009       104.6128     12965.0127      7894.6650        16.0320 
       16.0320        43.4401        23.0019    0.000670869       0.205360 
     -999.2500     11907.9922      5345.2295     12165.5254      6757.3267 
      0.184824      1916.0620         2.5302         1.4054     10546.7773 
     3632.7302      5489.4780     15698.3652         1.6422      9559.0596 
        8.0425         5.5408
    3693.71880 
       40.8933        83.8225        66.0901       101.5550      1256.0601 
       63.6157       104.0721     12993.6377      7942.5645        15.7326 
       15.7326        42.6660        23.2617    0.000679034       0.201730 
     -999.2500     11908.5947      5345.2539     12167.7813      6724.8667 
      0.181557      2015.9679         2.5306         1.3986     10681.6699 
     3669.3608      5498.7725     15719.3896         1.6359      9608.7227 
        8.1088         5.6023
    3693.87120 
       40.9557        84.3465        66.3398       102.3531      1258.8267 
       63.4326       103.6911     13033.1611      7972.9819        15.7525 
       15.7525        42.7264        23.4366    0.000684245       0.200981 
     -999.2500     11909.1992      5345.2793     12168.7402      6718.3691 
      0.180883      1877.6005         2.5306         1.3972     10391.9395 
     3700.3298      5518.8315     15764.7656         1.6347      9644.0293 
        8.1647         5.6543
    3694.02360 
       41.1143        83.3776        64.2536       102.5017      1265.8833 
       62.9687       103.6190     13059.5723      7936.2305        16.5253 
       16.5253        44.5849        23.3448    0.000677951       0.207239 
     -999.2500     11909.8018      5345.3042     12166.5430      6774.9771 
      0.186515      1481.5952         2.5301         1.4089      9713.1445 
     3706.1074      5570.1743     15880.9053         1.6456      9650.7393 
        8.1751         5.6640
    3694.17600 
       41.3583        80.3658        59.1754       101.5562      1276.8063 
       62.2595       104.2104     13086.2373      7818.2461        18.3311 
       18.3311        48.9997        22.8672    0.000657944       0.222474 
     -999.2500     11910.4043      5345.3286     12160.1357      6915.7827 
      0.200226      1066.6033         2.5286         1.4381      9164.7715 
     3669.4075      5650.1460     16061.8066         1.6738      9595.9717 
        8.1089         5.6024
    3694.32840 
       41.7386        74.8565        50.5645        99.1485      1293.9924 
       61.1650       105.7030     13142.1543      7604.7026        21.6334 
       21.6334        57.0532        21.9285    0.000622493       0.248306 
     -999.2500     11911.0068      5345.3530     12148.2695      7165.7554 
      0.223476       939.3342         2.5260         1.4900      9410.1787 
     3576.6465      5777.2041     16349.2197         1.7282      9460.4697 
        7.9404         5.4467
    3694.48080 
       42.1518        69.2058        41.5012        96.9105      1312.9016 
       59.9902       107.7678     13362.2783      7438.2676        25.8161 
       25.8161        67.8948        21.0377    0.000595544       0.275497 
     -999.2500     11911.6094      5345.3784     12134.9102      7445.6118 
      0.247947       936.5352         2.5231         1.5481      9964.2949 
     3491.3135      5918.7437     16669.3906         1.7964      9279.2090 
        7.7837         5.3036
    3694.63320 
       42.3892        65.6057        35.9928        95.2185      1323.8771 
       59.3221       109.4504     13550.3770      7344.3022        28.7174 
       28.7174        75.7352        20.4526    0.000580592       0.292022 
     -999.2500     11912.2129      5345.4028     12126.5801      7624.8550 
      0.262819      1007.1875         2.5213         1.5853     10464.0850 
     3427.3682      6001.7358     16857.1230         1.8450      9136.5586 
        7.6653         5.1962
    3694.78560 
       42.3252        64.4192        34.5418        94.2966      1320.9088 
       59.5018       110.6076     13634.5459      7334.7588        29.4188 
       29.4188        78.3035        20.2123    0.000579084       0.296375 
     -999.2500     11912.8154      5345.4277     12124.7852      7673.4189 
      0.266737      1120.2042         2.5208         1.5954     10787.2461 
     3392.7351      5979.2305     16806.2148         1.8589      9040.9707 
        7.6008         5.1381
    3694.93800 
       41.9082        64.4918        36.5611        92.4224      1301.7251 
       60.6809       111.6355     13447.0156      7309.2969        27.6310 
       27.6310        73.9706        19.9567    0.000575071       0.290317 
     -999.2500     11913.4189      5345.4526     12128.7773      7606.2563 
      0.261285      1248.3800         2.5215         1.5813     10909.2734 
     3322.7688      5834.8643     16479.6484         1.8397      8957.7236 
        7.4696         5.0207
    3695.09040 
       41.3455        63.9804        38.7308        89.2300      1276.2307 
       62.2966       113.3859     13174.4395      7238.3145        25.5433 
       25.5433        68.7795        19.4578    0.000563956       0.283808 
     -999.2500     11914.0225      5345.4771     12132.9697      7535.0698 
      0.255427      1458.5178         2.5223         1.5664     11187.1758 
     3204.9795      5645.9175     16052.2393         1.8201      8819.4385 
        7.2461         4.8231
    3695.24280 
       40.6129        61.9814        39.8909        84.0720      1243.6924 
       64.4429       116.6419     12840.8486      7094.3765        23.6572 
       23.6572        64.2270        18.5385    0.000541749       0.280327 
     -999.2500     11914.6250      5345.5020     12135.4922      7497.2852 
      0.252295      1678.1566         2.5227         1.5585     11550.8828 
     3018.3528      5409.5718     15517.6133         1.8100      8573.2490 
        6.8850         4.5099
    3695.39520 
       39.8845        59.1249        39.9012        78.3485      1212.0375 
       66.6260       120.5874     12502.3994      6907.7271        22.2755 
       22.2755        60.8766        17.4602    0.000513618       0.280296 
     -999.2500     11915.2285      5345.5264     12136.1543      7496.7183 
      0.252267      1876.6882         2.5227         1.5583     11946.8135 
     2816.5930      5184.7954     15009.1553         1.8099      8292.7402 
        6.4844         4.1714
