~Version Information Block
VERS .                  2.0:  CWLS LOG ASCII STANDARD - VERSION 2.0
WRAP .                  YES:  Multiple lines per depth step
~Well Information Block
#MNEM.UNIT        Data Type   Information
#---------- ----------------  -----------
STRT .M          2686.96440:  START DEPTH
STOP .M          3645.86520:  STOP DEPTH
STEP .M             0.15240:  STEP
NULL .              -999.25:  NULL VALUE
COMP .                     :  COMPANY
WELL .      RAAG-105-07-212:  WELL
FLD  .                     :  FIELD
LOC  .                     :  LOCATION
CTRY .                     :  COUNTRY
STAT .                     :  STATE
CNTY .                     :  COUNTY
SRVC .                     :  SERVICE COMPANY
DATE .                     :  DATE
API  .                     :  API NUMBER
UWI  .                     :  UNIQUE WELL ID
~Curve Information Block
#MNEM.UNIT         API CODE   Curve Description
#---------- ----------------  -----------------
DEPTH.M                    :  
ANGLE_FAIL.DEG                  :  Fail Angle
BRIT_IND.                     :  Brittleness Index
BRIT_PR.                     :  Brittleness Index from Poisson's Ratio
BRIT_YM.                     :  Brittleness Index from Young's Modulus
CS   .M/MIN                 :  Compressive Strength
DTCO .US/F                 :  Compressional slowness
DTSM .US/F                 :  Shear slowness
IP   .RAYL/M2                 :  P Impedence
IS   .RAYL/M2                 :  S Impedance
KBULK.                     :  Bulk Mudulus
LAMBDA.                     :  Lambda
LAMRHO.                     :  
MU   .CP                   :  Mu
MURHO.(GF/C3S)2                 :  Mu*Rho
PR   .                     :  Poisson's ratio
PRESS_FG.PSI                  :  Fracture Gradient Pressure
PRESS_OB.PSI                  :  Over-burden Pressure
PRESS_PP.PSI                  :  Pore Pressure
PRESS_SHMAX.PSI                  :  Horizontal Stress (Max)
PRESS_SHMIN.PSI                  :  Horizontal Stress (Min)
PR_STAT.                     :  Poisson's ratio (Static)
PZS  .PSI                  :  Processed Zone Stress
SHMAX_GRAD.                     :  Horizontal Stress Gradient (Max)
SHMIN_GRAD.                     :  Horizontal Stress Gradient (Min)
STRESS_CUM.PSI                  :  Cumulative stress (SHPZ)
UCS_BF.PSI                  :  Uniaxial Compressive Strength (BF)
UCS_LAL.PSI                  :  Uniaxial Compressive Strength (lal)
VP   .FT/S                 :  Compressional velocity
VPVS .                     :  Vp / Vs ratio
VS   .FT/S                 :  Shear velocity
YM   .                     :  Youngs' Modulus
YM_STAT.                     :  Youngs' Modulus (Static)
~Parameter Information Block
#MNEM.UNIT            Value   Description
#---------- ----------------  -----------
ALPHA.                 0.98:  Biot's Constant
CALIB_SHMINPZS.                 6800:  Calibration Factor for processing zones
EXT_FACT.                1e-06:  Extension Factor
PR_FAC.                  0.9:  Poisson's ratio factor
PR_MAX.                  0.4:  Maximum Poisson's ratio
PR_MIN.                  0.1:  Minimum Poisson's ratio
TECT_FACT.                 1.05:  Techtonic Factor
YM_MAX.                    8:  Maximum Youngs' Modulus
YM_MIN.                    1:  Minimum Youngs' Modulus
PROJECT.          RDG_13Jul21:  
SET  .              GEOMECH:  
~Other Information Block
~Ascii Log Data
# ...
    3196.59000 
       38.3486        49.3598        34.8040        63.9156      1147.4364 
       71.3932       132.5309     11757.0078      6333.3940        21.0628 
       21.0628        58.0035        14.5658    0.000431761       0.295588 
     -999.2500     10494.6748      5231.3149     10665.5635      7076.9043 
      0.266029      2281.6282         2.4841         1.6482     11917.0654 
     2332.7065      4741.7393     14006.9355         1.8564      7545.4102 
        5.4741         3.3594
    3196.74240 
       38.4190        49.0985        34.4342        63.7628      1150.3372 
       71.1697       132.3716     11732.5586      6308.0200        21.1975 
       21.1975        58.0707        14.5249    0.000428308       0.296697 
     -999.2500     10495.2637      5231.3862     10665.6709      7087.1201 
      0.267028      2538.6196         2.4840         1.6505     12451.4795 
     2327.7742      4761.1851     14050.9229         1.8599      7554.4902 
        5.4634         3.3511
    3196.89480 
       38.3227        49.4414        35.2064        63.6764      1146.3738 
       71.4753       132.4065     11696.5088      6313.9771        20.8091 
       20.8091        57.0757        14.5348    0.000429117       0.294381 
     -999.2500     10495.8525      5231.4570     10667.3164      7066.5811 
      0.264943      2670.0210         2.4842         1.6457     12673.2041 
     2324.9863      4734.6265     13990.8467         1.8525      7552.5000 
        5.4573         3.3464
    3197.04720 
       38.0679        50.0622        37.0676        63.0568      1135.9283 
       72.2890       132.6536     11565.6943      6302.6753        19.8022 
       19.8022        54.3179        14.4817    0.000427582       0.288797 
     -999.2500     10496.4424      5231.5288     10670.4063      7017.1611 
      0.259917      2653.5779         2.4848         1.6341     12541.4775 
     2305.0366      4665.0068     13833.3633         1.8350      7538.4312 
        5.4140         3.3130
    3197.19960 
       37.8277        50.0445        38.3197        61.7693      1126.1519 
       73.0616       133.2453     11386.6963      6243.5991        18.9387 
       18.9387        51.6918        14.2823    0.000419604       0.285041 
     -999.2500     10497.0313      5231.5996     10672.6670      6984.3066 
      0.256537      2552.8999         2.4852         1.6263     12274.4131 
     2263.7925      4600.3394     13687.0811         1.8237      7504.9551 
        5.3239         3.2438
    3197.35200 
       37.6354        49.9268        39.3017        60.5519      1118.3676 
       73.6845       133.7445     11218.8340      6180.8462        18.2354 
       18.2354        49.4565        14.0860    0.000411212       0.282095 
     -999.2500     10497.6201      5231.6709     10674.5615      6958.7817 
      0.253885      2500.3298         2.4855         1.6203     12118.2227 
     2225.0542      4549.1885     13571.3750         1.8151      7476.9429 
        5.2386         3.1788
    3197.50440 
       37.4786        50.1701        40.6499        59.6903      1112.0529 
       74.1949       133.8136     11059.6592      6132.1895        17.4984 
       17.4984        47.1086        13.9679    0.000404763       0.278050 
     -999.2500     10498.2100      5231.7417     10676.9199      6923.9961 
      0.250245      2212.2322         2.4859         1.6121     11472.4561 
     2197.7920      4507.9165     13478.0156         1.8035      7473.0820 
        5.1783         3.1330
    3197.65680 
       37.4832        50.1613        41.0246        59.2980      1112.2388 
       74.1798       133.5527     10970.0352      6093.1382        17.2631 
       17.2631        46.0890        13.9060    0.000399624       0.276926 
     -999.2500     10498.7988      5231.8130     10678.0107      6914.5508 
      0.249234      2260.3887         2.4861         1.6099     11549.8789 
     2185.4211      4509.1294     13480.7578         1.8004      7487.6807 
        5.1509         3.1123
    3197.80920 
       37.5347        50.4772        41.5980        59.3565      1114.3092 
       74.0120       132.8976     10910.6465      6076.2485        17.0611 
       17.0611        45.2006        13.9358    0.000397412       0.275206 
     -999.2500     10499.3867      5231.8838     10679.3535      6900.0640 
      0.247685      2154.6980         2.4863         1.6064     11309.5234 
     2187.2615      4522.6406     13511.3223         1.7956      7524.5903 
        5.1550         3.1153
    3197.96160 
       37.5644        51.2722        42.9076        59.6369      1115.5074 
       73.9151       131.9349     10841.6523      6073.9185        16.6429 
       16.6429        43.7565        14.0321    0.000397107       0.271277 
     -999.2500     10499.9766      5231.9551     10681.6309      6866.8975 
      0.244150      1883.4543         2.4867         1.5986     10700.7031 
     2196.1057      4530.4712     13529.0352         1.7850      7579.4956 
        5.1746         3.1302
    3198.11400 
       37.5566        52.2576        44.5511        59.9641      1115.1932 
       73.9405       131.0213     10777.4561      6082.1440        16.1289 
       16.1289        42.1686        14.1491    0.000398184       0.266347 
     -999.2500     10500.5654      5232.0259     10684.3115      6825.6421 
      0.239712      1824.3625         2.4872         1.5889     10500.0098 
     2206.4404      4528.4170     13524.3877         1.7720      7632.3472 
        5.1975         3.1475
    3198.26640 
       37.5535        53.2177        45.8219        60.6136      1115.0658 
       73.9508       130.3207     10786.7539      6120.9697        15.8273 
       15.8273        41.4215        14.3160    0.000403284       0.262534 
     -999.2500     10501.1543      5232.0967     10686.5049      6794.1475 
      0.236281      1614.3605         2.4875         1.5815     10017.0156 
     2227.0117      4527.5840     13522.5039         1.7623      7673.3784 
        5.2430         3.1820
    3198.41880 
       37.6245        53.5422        45.8054        61.2790      1117.9302 
       73.7197       129.9226     10849.6748      6156.2407        15.9736 
       15.9736        41.9169        14.4426    0.000407945       0.262584 
     -999.2500     10501.7432      5232.1680     10687.0889      6794.8340 
      0.236325      1726.0760         2.4876         1.5816     10241.8203 
     2248.1594      4546.3237     13564.8936         1.7624      7696.8896 
        5.2895         3.2175
    3198.57120 
       37.6997        53.6863        45.4355        61.9371      1120.9685 
       73.4756       129.6984     10933.0527      6193.6973        16.2425 
       16.2425        42.8079        14.5556    0.000412924       0.263693 
     -999.2500     10502.3330      5232.2393     10687.2334      6804.3325 
      0.237324      1861.9417         2.4875         1.5837     10532.5488 
     2269.1514      4566.2461     13609.9600         1.7652      7710.1958 
        5.3356         3.2528
    3198.72360 
       37.8862        53.2607        43.9647        62.5567      1128.5259 
       72.8730       129.4631     11034.2510      6211.0278        16.9063 
       16.9063        44.6010        14.6229    0.000415238       0.268106 
     -999.2500     10502.9219      5232.3101     10685.9922      6841.5210 
      0.241295      1934.7075         2.4871         1.5923     10752.4570 
     2288.9817      4615.9985     13722.5039         1.7766      7724.2080 
        5.3790         3.2860
    3198.87600 
       38.0331        53.4647        43.2849        63.6446      1134.5103 
       72.4004       129.0127     11167.3223      6266.9692        17.4014 
       17.4014        46.1593        14.8061    0.000422752       0.270145 
     -999.2500     10503.5107      5232.3804     10685.7354      6859.0249 
      0.243131      2103.3567         2.4869         1.5963     11124.7627 
     2323.9604      4655.5977     13812.0781         1.7819      7751.1748 
        5.4551         3.3447
