~Version Information Block
VERS .                  2.0:  CWLS LOG ASCII STANDARD - VERSION 2.0
WRAP .                  YES:  Multiple lines per depth step
~Well Information Block
#MNEM.UNIT        Data Type   Information
#---------- ----------------  -----------
STRT .M          2945.58720:  START DEPTH
STOP .M          3894.88680:  STOP DEPTH
STEP .M             0.15240:  STEP
NULL .              -999.25:  NULL VALUE
COMP .                     :  COMPANY
WELL .       RAAG-97-02-106:  WELL
FLD  .                     :  FIELD
LOC  .                     :  LOCATION
CTRY .                     :  COUNTRY
STAT .                     :  STATE
CNTY .                     :  COUNTY
SRVC .                     :  SERVICE COMPANY
DATE .                     :  DATE
API  .                     :  API NUMBER
UWI  .                     :  UNIQUE WELL ID
~Curve Information Block
#MNEM.UNIT         API CODE   Curve Description
#---------- ----------------  -----------------
DEPTH.M                    :  
ANGLE_FAIL.DEG                  :  Fail Angle
BRIT_IND.                     :  Brittleness Index
BRIT_PR.                     :  Brittleness Index from Poisson's Ratio
BRIT_YM.                     :  Brittleness Index from Young's Modulus
CS   .M/MIN                 :  Compressive Strength
DEN  .G/C3                 :  (HDRS-H)                (2in)                   Standard Resolution Formation Density
DTCO .US/F                 :  Compressional slowness
DTSM .US/F                 :  Description
IP   .RAYL/M2                 :  P Impedence
IS   .RAYL/M2                 :  S Impedance
KBULK.                     :  Bulk Mudulus
LAMBDA.                     :  Lambda
LAMRHO.                     :  
MU   .CP                   :  Mu
MURHO.(GF/C3S)2                 :  Mu*Rho
PR   .                     :  Poisson's ratio
PRESS_FG.PSI                  :  Fracture Gradient Pressure
PRESS_OB.PSI                  :  Over-burden Pressure
PRESS_PP.PSI                  :  Pore Pressure
PRESS_SHMAX.PSI                  :  Horizontal Stress (Max)
PRESS_SHMIN.PSI                  :  Horizontal Stress (Min)
PR_STAT.                     :  Poisson's ratio (Static)
PZS  .PSI                  :  Processed Zone Stress
SHMAX_GRAD.                     :  Horizontal Stress Gradient (Max)
SHMIN_GRAD.                     :  Horizontal Stress Gradient (Min)
STRESS_CUM.PSI                  :  Cumulative stress (SHPZ)
UCS_BF.PSI                  :  Uniaxial Compressive Strength (BF)
UCS_LAL.PSI                  :  Uniaxial Compressive Strength (lal)
VP   .FT/S                 :  Compressional velocity
VPVS .                     :  Vp / Vs ratio
VS   .FT/S                 :  Shear velocity
YM   .                     :  Youngs' Modulus
YM_STAT.                     :  Youngs' Modulus (Static)
~Parameter Information Block
#MNEM.UNIT            Value   Description
#---------- ----------------  -----------
PROJECT.          RDG_13Jul21:  
SET  .              GEOMECH:  
~Other Information Block
~Ascii Log Data
# ...
    3338.16960 
       39.6372        62.2970        46.6379        77.9561      1201.4429 
        2.6623        67.3785       118.3271     12043.3438      6857.7871 
       19.1504        19.1504        50.9837        17.6650         0.0005 
      0.260086      -999.2500     10345.5137      5212.6362     10527.0723 
     6714.3486       0.234078      2957.8074         2.4836         1.5841 
    12544.3115      2802.9658      5110.6958     14841.5381         1.7562 
     8451.1494         6.4569         4.1485
    3338.32200 
       40.9285        58.3091        34.1163        82.5018      1257.6202 
        2.7126        63.5124       118.3271     13017.9902      6987.4380 
       26.4762        26.4762        71.8195        17.9990         0.0005 
      0.297651      -999.2500     10346.1006      5212.7119     10511.8564 
     7030.9819       0.267886      3072.1858         2.4799         1.6587 
    13406.3359      2962.4443      5510.0796     15744.9688         1.8631 
     8451.1494         6.7751         4.4161
    3338.47440 
       42.2075        64.6722        32.8523        96.4921      1315.4681 
        2.7847        59.8331       112.2276     14185.9404      7563.0962 
       31.1843        31.1843        86.8400        20.5407         0.0006 
      0.301443      -999.2500     10346.6885      5212.7876     10510.7246 
     7065.9639       0.271299      3077.7991         2.4795         1.6669 
    13487.5264      3475.4573      5938.0952     16713.1660         1.8757 
     8910.4619         7.7544         5.2769
    3338.62680 
       42.8661        71.1388        34.8150       107.4626      1346.1760 
        2.8289        57.9951       107.6530     14867.5996      8009.5044 
       32.7835        32.7835        92.7412        22.6775         0.0007 
      0.295555      -999.2500     10347.2764      5212.8643     10513.8779 
     7015.2456       0.265999      3079.2876         2.4801         1.6548 
    13389.0664      3901.1660      6172.2539     17242.8457         1.8562 
     9289.1025         8.5224         5.9913
    3338.77920 
       43.2507        75.1259        36.2914       113.9604      1364.4106 
        2.8388        56.9393       104.8949     15196.5313      8249.0186 
       33.4086        33.4086        94.8420        23.9697         0.0007 
      0.291126      -999.2500     10347.8633      5212.9404     10516.3818 
     6977.5034       0.262013      3079.2876         2.4806         1.6458 
    13313.5820      4163.0229      6313.5913     17562.5586         1.8422 
     9533.3506         8.9772         6.4307
    3338.93160 
       43.7527        73.1668        31.8498       114.4838      1388.5652 
        2.8174        55.5802       104.8227     15450.7236      8192.4385 
       37.0879        37.0879       104.4928        23.8217         0.0007 
      0.304450      -999.2500     10348.4512      5213.0161     10511.1113 
     7095.2329       0.274005      3079.2876         2.4792         1.6735 
    13549.0410      4184.4312      6503.4507     17992.0313         1.8860 
     9539.9160         9.0139         6.4666
    3339.08400 
       43.7702        72.8500        31.7461       113.9539      1389.4156 
        2.8036        55.5331       104.7940     15388.0576      8154.5405 
       37.0232        37.0232       103.7993        23.7180         0.0007 
      0.304762      -999.2500     10349.0391      5213.0923     10511.5791 
     7098.2402       0.274285      3079.2876         2.4792         1.6742 
    13555.0557      4162.7578      6510.1904     18007.2773         1.8871 
     9542.5342         8.9768         6.4302
    3339.23640 
       43.4565        74.5052        34.7990       114.2114      1374.2648 
        2.8220        56.3795       104.6628     15256.5947      8218.3799 
       34.6133        34.6133        97.6802        23.9336         0.0007 
      0.295603      -999.2500     10349.6260      5213.1685     10516.2412 
     7017.3306       0.266043      3079.2876         2.4802         1.6550 
    13393.2363      4173.2832      6390.6836     17736.9453         1.8564 
     9554.4883         8.9948         6.4479
    3339.38880 
       43.5937        75.4584        34.1275       116.7893      1380.8723 
        2.8565        56.0083       104.3404     15545.2578      8344.4482 
       35.8464        35.8464       102.3954        24.3759         0.0007 
      0.297617      -999.2500     10350.2139      5213.2441     10515.9473 
     7035.5396       0.267856      2978.0713         2.4800         1.6592 
    13227.2217      4279.2822      6442.6567     17854.5117         1.8629 
     9584.0195         9.1752         6.6258
    3339.54120 
       43.4214        78.2327        37.4700       118.9953      1372.5779 
        2.8762        56.4748       103.4266     15522.8916      8476.0811 
       33.8202        33.8202        97.2723        24.9792         0.0008 
      0.287590      -999.2500     10350.8008      5213.3203     10520.9053 
     6948.7236       0.258831      2920.6287         2.4810         1.6386 
    12938.7051      4370.8950      6377.4512     17707.0137         1.8314 
     9668.6934         9.3297         6.7795
    3339.69360 
       43.4100        80.9620        40.3855       121.5384      1372.0332 
        2.8723        56.5056       102.0367     15493.6250      8580.0166 
       32.3152        32.3152        92.8190        25.6299         0.0008 
      0.278843      -999.2500     10351.3896      5213.3960     10525.2197 
     6874.7886       0.250959      2784.0012         2.4819         1.6211 
    12517.5791      4477.5381      6373.1812     17697.3555         1.8058 
     9800.3926         9.5077         6.9584
    3339.84600 
       43.3279        82.3711        42.9639       121.7784      1368.0992 
        2.8494        56.7289       101.2327     15309.8252      8579.3389 
       30.5957        30.5957        87.1806        25.8314         0.0008 
      0.271108      -999.2500     10351.9766      5213.4722     10529.0498 
     6810.5176       0.243997      2516.0994         2.4827         1.6059 
    11853.2344      4487.6587      6342.3901     17627.7051         1.7845 
     9878.2344         9.5245         6.9754
    3339.99840 
       43.2488        81.2033        42.7506       119.6560      1364.3204 
        2.8304        56.9445       101.7151     15149.7637      8481.4883 
       30.2590        30.2590        85.6440        25.4157         0.0008 
      0.271748      -999.2500     10352.5635      5213.5479     10529.3994 
     6815.8560       0.244574      2279.2239         2.4826         1.6071 
    11390.1592      4398.4932      6312.8882     17560.9688         1.7862 
     9831.3848         9.3759         6.8258
    3340.15080 
       43.2278        77.3955        39.1572       115.6338      1363.3209 
        2.8206        57.0017       103.5353     15082.3584      8303.6348 
       31.7580        31.7580        89.5768        24.4453         0.0007 
      0.282528      -999.2500     10353.1514      5213.6240     10525.5010 
     6906.1479       0.254275      2711.3987         2.4816         1.6283 
    12435.0938      4231.6304      6305.0972     17543.3438         1.8164 
     9658.5381         9.0944         6.5458
    3340.30320 
       42.8597        75.9765        39.7935       112.1595      1345.8760 
        2.8304        58.0127       105.0517     14870.9180      8212.1611 
       30.4782        30.4782        86.2650        23.8270         0.0007 
      0.280620      -999.2500     10353.7383      5213.6997     10526.9307 
     6889.8950       0.252558      3031.2351         2.4818         1.6244 
    13042.2607      4089.7231      6169.9429     17237.6172         1.8108 
     9519.1230         8.8512         6.3077
    3340.45560 
       42.1189        73.2217        41.0624       105.3809      1311.3868 
        2.8477        60.0832       108.1543     14446.1592      8025.3076 
       28.0511        28.0511        79.8804        22.6169         0.0007 
      0.276813      -999.2500     10354.3262      5213.7759     10529.1680 
     6857.4819       0.249131      2821.6821         2.4822         1.6166 
    12558.3271      3818.8018      5907.3379     16643.5879         1.8001 
     9246.0508         8.3767         5.8531
