~Version Information Block
VERS .                  2.0:  CWLS LOG ASCII STANDARD - VERSION 2.0
WRAP .                  YES:  Multiple lines per depth step
~Well Information Block
#MNEM.UNIT        Data Type   Information
#---------- ----------------  -----------
STRT .M          2888.43720:  START DEPTH
STOP .M          3831.03120:  STOP DEPTH
STEP .M             0.15240:  STEP
NULL .              -999.25:  NULL VALUE
COMP .                     :  COMPANY
WELL .       RAAG-99-02-105:  WELL
FLD  .                     :  FIELD
LOC  .                     :  LOCATION
CTRY .                     :  COUNTRY
STAT .                     :  STATE
CNTY .                     :  COUNTY
SRVC .                     :  SERVICE COMPANY
DATE .                     :  DATE
API  .                     :  API NUMBER
UWI  .                     :  UNIQUE WELL ID
~Curve Information Block
#MNEM.UNIT         API CODE   Curve Description
#---------- ----------------  -----------------
DEPTH.M                    :  
ANGLE_FAIL.DEG                  :  Fail Angle
BRIT_IND.                     :  Brittleness Index
BRIT_PR.                     :  Brittleness Index from Poisson's Ratio
BRIT_YM.                     :  Brittleness Index from Young's Modulus
CS   .M/MIN                 :  Compressive Strength
DTCO .US/F                 :  Compressional slowness
DTSM .US/F                 :  Fast Shear Slowness
IP   .RAYL/M2                 :  P Impedence
IS   .RAYL/M2                 :  S Impedance
KBULK.                     :  Bulk Mudulus
LAMBDA.                     :  Lambda
LAMRHO.                     :  
MU   .CP                   :  Mu
MURHO.(GF/C3S)2                 :  Mu*Rho
PR   .                     :  Poisson's ratio
PRESS_FG.PSI                  :  Fracture Gradient Pressure
PRESS_OB.PSI                  :  Over-burden Pressure
PRESS_PP.PSI                  :  Pore Pressure
PRESS_SHMAX.PSI                  :  Horizontal Stress (Max)
PRESS_SHMIN.PSI                  :  Horizontal Stress (Min)
PR_STAT.                     :  Poisson's ratio (Static)
PZS  .PSI                  :  Processed Zone Stress
SHMAX_GRAD.                     :  Horizontal Stress Gradient (Max)
SHMIN_GRAD.                     :  Horizontal Stress Gradient (Min)
STRESS_CUM.PSI                  :  Cumulative stress (SHPZ)
UCS_BF.PSI                  :  Uniaxial Compressive Strength (BF)
UCS_LAL.PSI                  :  Uniaxial Compressive Strength (lal)
VP   .FT/S                 :  Compressional velocity
VPVS .                     :  Vp / Vs ratio
VS   .FT/S                 :  Shear velocity
YM   .                     :  Youngs' Modulus
YM_STAT.                     :  Youngs' Modulus (Static)
~Parameter Information Block
#MNEM.UNIT            Value   Description
#---------- ----------------  -----------
PROJECT.          RDG_13Jul21:  
SET  .              GEOMECH:  
~Other Information Block
~Ascii Log Data
# ...
    3012.79560 
       35.9917        59.3122        68.5750        50.0494      1053.4404 
       79.1593       128.5079      8897.6123      5480.8208         8.2607 
        8.2607        19.0887        12.9996    0.000323341       0.194275 
     -999.2500      9273.2080      5039.2241      9443.8604      5860.1582 
      0.174847       570.6818         2.4601         1.5265      6061.6797 
     1901.3920      4134.2476     12632.7539         1.6234      7781.6226 
        4.5035         2.6357
    3012.94800 
       36.0775        57.7709        65.5575        49.9842      1056.7615 
       78.8667       129.2394      8955.5508      5465.0112         8.8334 
        8.8334        20.4692        12.8888    0.000321479       0.203327 
     -999.2500      9273.7842      5039.3359      9441.8340      5912.7871 
      0.182995       725.4578         2.4594         1.5402      6476.4897 
     1899.4427      4154.9673     12679.6230         1.6387      7737.5791 
        4.4989         2.6324
    3013.10040 
       36.1410        56.1665        62.1895        50.1435      1059.2244 
       78.6506       130.3035      9075.0654      5477.6685         9.5430 
        9.5430        22.3471        12.8131    0.000322970       0.213432 
     -999.2500      9274.3613      5039.4478      9439.4404      5972.7798 
      0.192088       883.5610         2.4587         1.5557      6912.6812 
     1904.2085      4170.3687     12714.4619         1.6567      7674.3906 
        4.5100         2.6404
    3013.25280 
       36.2048        54.6141        58.9952        50.2330      1061.7018 
       78.4340       131.3658      9189.3896      5486.6685        10.2499 
       10.2499        24.2378        12.7304    0.000324032       0.223015 
     -999.2500      9274.9375      5039.5601      9437.1367      6030.9556 
      0.200713      1051.5007         2.4579         1.5708      7364.9126 
     1906.8894      4185.8906     12749.5732         1.6749      7612.3311 
        4.5163         2.6449
    3013.40520 
       36.1869        53.3640        56.5065        50.2215      1061.0078 
       78.4946       132.6339      9301.9707      5505.0371        10.8184 
       10.8184        25.9158        12.6509    0.000326205       0.230481 
     -999.2500      9275.5137      5039.6724      9435.4287      6077.2090 
      0.207433      1325.1096         2.4573         1.5827      8004.6372 
     1906.5444      4181.5391     12739.7305         1.6897      7539.5513 
        4.5155         2.6443
    3013.55760 
       36.0330        52.1364        54.7556        49.5173      1055.0388 
       79.0183       134.3782      9341.5381      5493.0967        11.1143 
       11.1143        26.9161        12.4596    0.000324791       0.235733 
     -999.2500      9276.0908      5039.7842      9434.3828      6110.2510 
      0.212160      1775.2958         2.4569         1.5912      8971.0938 
     1885.4958      4144.2129     12655.2959         1.7006      7441.6836 
        4.4662         2.6090
    3013.71000 
       35.7471        50.7758        53.1047        48.4470      1044.0121 
       79.9977       136.8911      9377.2881      5479.9878        11.3252 
       11.3252        27.8730        12.2017    0.000323243       0.240686 
     -999.2500      9276.6680      5039.8960      9433.4131      6141.7651 
      0.216617      2387.4824         2.4565         1.5994     10258.4951 
     1853.6703      4075.7192     12500.3584         1.7112      7305.0767 
        4.3913         2.5556
    3013.86240 
       35.4240        49.2792        51.3559        47.2025      1031.6450 
       81.1149       139.7433      9406.5576      5460.0967        11.5279 
       11.5279        28.8580        11.9092    0.000320901       0.245932 
     -999.2500      9277.2441      5040.0083      9432.3301      6175.5229 
      0.221339      2763.9607         2.4561         1.6081     11078.9678 
     1816.9086      3999.6082     12328.1914         1.7228      7155.9780 
        4.3042         2.4939
    3014.01480 
       35.1590        47.7169        49.3872        46.0467      1021.5771 
       82.0393       142.4467      9437.5117      5435.3442        11.8026 
       11.8026        29.9807        11.6303    0.000317998       0.251838 
     -999.2500      9277.8213      5040.1201      9431.0117      6214.0117 
      0.226655      2953.3508         2.4556         1.6180     11534.7256 
     1783.0073      3938.1990     12189.2803         1.7363      7020.1699 
        4.2233         2.4370
    3014.16720 
       35.0335        46.2559        47.1752        45.3367      1016.8307 
       82.4798       144.5204      9498.3428      5420.8359        12.2351 
       12.2351        31.4476        11.4328    0.000316302       0.258475 
     -999.2500      9278.3975      5040.2324      9429.4219      6257.9053 
      0.232627      3031.0405         2.4551         1.6293     11777.8916 
     1762.2931      3909.4204     12124.1816         1.7522      6919.4380 
        4.1736         2.4022
    3014.31960 
       35.0647        44.9430        44.9337        44.9523      1018.0076 
       82.3703       145.7154      9555.5205      5401.5649        12.7615 
       12.7615        32.9542        11.2987    0.000314058       0.265199 
     -999.2500      9278.9736      5040.3438      9427.7676      6303.1084 
      0.238679      3045.8557         2.4545         1.6410     11897.9287 
     1751.1168      3916.5452     12140.2979         1.7690      6862.6929 
        4.1467         2.3835
    3014.47200 
       35.2827        44.2909        43.0360        45.5457      1026.2682 
       81.6069       145.5803      9679.9063      5426.1948        13.4327 
       13.4327        34.8134        11.3608    0.000316928       0.270892 
     -999.2500      9279.5508      5040.4556      9426.4258      6342.0488 
      0.243803      2998.8291         2.4540         1.6510     11881.7549 
     1768.3820      3966.7505     12253.8652         1.7839      6869.0605 
        4.1882         2.4125
    3014.62440 
       35.6082        44.1332        41.4875        46.7788      1038.6815 
       80.4768       144.5795      9844.8857      5479.9258        14.1814 
       14.1814        36.8626        11.5527    0.000323236       0.275537 
     -999.2500      9280.1279      5040.5679      9425.4180      6374.3188 
      0.247984      2879.0342         2.4536         1.6594     11706.7061 
     1804.4554      4042.8210     12425.9414         1.7965      6916.6099 
        4.2745         2.4730
    3014.77680 
       35.9344        44.5915        40.8714        48.3117      1051.2249 
       79.3553       142.9726      9993.9297      5547.0161        14.7351 
       14.7351        38.3399        11.8256    0.000331199       0.277386 
     -999.2500      9280.7041      5040.6797      9425.3652      6387.4883 
      0.249647      2766.0144         2.4535         1.6627     11507.0059 
     1849.6616      4120.4546     12601.5527         1.8017      6994.3477 
        4.3818         2.5488
    3014.92920 
       36.2174        45.4470        41.0672        49.8267      1062.1924 
       78.3912       141.1069     10097.6719      5609.7085        15.0270 
       15.0270        39.0253        12.1173    0.000338728       0.276798 
     -999.2500      9281.2803      5040.7915      9426.1553      6383.7769 
      0.249118      2658.3738         2.4535         1.6616     11284.3008 
     1894.7343      4188.9678     12756.5342         1.8000      7086.8257 
        4.4879         2.6245
    3015.08160 
       36.4124        46.1088        41.6552        50.5624      1069.7960 
       77.7317       139.5400     10086.6484      5618.8354        15.0049 
       15.0049        38.5978        12.2733    0.000339831       0.275034 
     -999.2500      9281.8574      5040.9033      9427.3564      6371.8833 
      0.247531      2528.4702         2.4537         1.6584     11000.7070 
     1916.7635      4236.8140     12864.7656         1.7951      7166.4043 
        4.5394         2.6614
