~Version Information Block
VERS .                  2.0:  CWLS LOG ASCII STANDARD - VERSION 2.0
WRAP .                  YES:  Multiple lines per depth step
~Well Information Block
#MNEM.UNIT        Data Type   Information
#---------- ----------------  -----------
STRT .M          2686.96440:  START DEPTH
STOP .M          3645.86520:  STOP DEPTH
STEP .M             0.15240:  STEP
NULL .              -999.25:  NULL VALUE
COMP .                     :  COMPANY
WELL .      RAAG-105-07-212:  WELL
FLD  .                     :  FIELD
LOC  .                     :  LOCATION
CTRY .                     :  COUNTRY
STAT .                     :  STATE
CNTY .                     :  COUNTY
SRVC .                     :  SERVICE COMPANY
DATE .                     :  DATE
API  .                     :  API NUMBER
UWI  .                     :  UNIQUE WELL ID
~Curve Information Block
#MNEM.UNIT         API CODE   Curve Description
#---------- ----------------  -----------------
DEPTH.M                    :  
ANGLE_FAIL.DEG                  :  Fail Angle
BRIT_IND.                     :  Brittleness Index
BRIT_PR.                     :  Brittleness Index from Poisson's Ratio
BRIT_YM.                     :  Brittleness Index from Young's Modulus
CS   .M/MIN                 :  Compressive Strength
DTCO .US/F                 :  Compressional slowness
DTSM .US/F                 :  Shear slowness
IP   .RAYL/M2                 :  P Impedence
IS   .RAYL/M2                 :  S Impedance
KBULK.                     :  Bulk Mudulus
LAMBDA.                     :  Lambda
LAMRHO.                     :  
MU   .CP                   :  Mu
MURHO.(GF/C3S)2                 :  Mu*Rho
PR   .                     :  Poisson's ratio
PRESS_FG.PSI                  :  Fracture Gradient Pressure
PRESS_OB.PSI                  :  Over-burden Pressure
PRESS_PP.PSI                  :  Pore Pressure
PRESS_SHMAX.PSI                  :  Horizontal Stress (Max)
PRESS_SHMIN.PSI                  :  Horizontal Stress (Min)
PR_STAT.                     :  Poisson's ratio (Static)
PZS  .PSI                  :  Processed Zone Stress
SHMAX_GRAD.                     :  Horizontal Stress Gradient (Max)
SHMIN_GRAD.                     :  Horizontal Stress Gradient (Min)
STRESS_CUM.PSI                  :  Cumulative stress (SHPZ)
UCS_BF.PSI                  :  Uniaxial Compressive Strength (BF)
UCS_LAL.PSI                  :  Uniaxial Compressive Strength (lal)
VP   .FT/S                 :  Compressional velocity
VPVS .                     :  Vp / Vs ratio
VS   .FT/S                 :  Shear velocity
YM   .                     :  Youngs' Modulus
YM_STAT.                     :  Youngs' Modulus (Static)
~Parameter Information Block
#MNEM.UNIT            Value   Description
#---------- ----------------  -----------
ALPHA.                 0.98:  Biot's Constant
CALIB_SHMINPZS.                 6800:  Calibration Factor for processing zones
EXT_FACT.                1e-06:  Extension Factor
PR_FAC.                  0.9:  Poisson's ratio factor
PR_MAX.                  0.4:  Maximum Poisson's ratio
PR_MIN.                  0.1:  Minimum Poisson's ratio
TECT_FACT.                 1.05:  Techtonic Factor
YM_MAX.                    8:  Maximum Youngs' Modulus
YM_MIN.                    1:  Minimum Youngs' Modulus
PROJECT.          RDG_13Jul21:  
SET  .              GEOMECH:  
~Other Information Block
~Ascii Log Data
# ...
    3003.95640 
       43.3535        71.1307        31.2630       110.9984      1369.3250 
       56.6592       107.2061     15403.6455      8140.9380        36.5731 
       36.5731       104.7225        23.1457    0.000713377       0.306211 
     -999.2500      9754.8955      5125.7310      9901.0449      6831.9033 
      0.275590      2417.5142         2.4634         1.6998     11698.8350 
     4042.7607      6351.9751     17649.3848         1.8921      9327.8271 
        8.7699         6.2289
    3004.10880 
       43.6931        71.0133        28.9403       113.0862      1385.6744 
       55.7405       106.8759     15736.5938      8207.3291        39.2377 
       39.2377       112.9199        23.4065    0.000725060       0.313179 
     -999.2500      9755.4766      5125.8267      9898.7754      6889.5010 
      0.281861      2739.4131         2.4627         1.7140     12457.8291 
     4127.3740      6480.5708     17940.2773         1.9174      9356.6465 
        8.9160         6.3709
    3004.26120 
       43.4720        72.9363        32.2303       113.6423      1375.0110 
       56.3374       106.0290     15507.5371      8239.7676        36.5263 
       36.5263       104.6962        23.6867    0.000730802       0.303309 
     -999.2500      9756.0576      5125.9224      9903.4004      6809.2095 
      0.272978      2822.2820         2.4637         1.6939     12462.9834 
     4150.0337      6396.5420     17750.1973         1.8820      9431.3818 
        8.9550         6.4089
    3004.41360 
       43.9362        72.4886        29.4052       115.5720      1397.4939 
       55.0888       105.3411     15787.3682      8256.1045        39.5723 
       39.5723       112.9145        23.8887    0.000733703       0.311785 
     -999.2500      9756.6396      5126.0186      9900.5322      6878.7959 
      0.280606      2660.6934         2.4628         1.7111     12278.9785 
     4229.0864      6574.3945     18152.5098         1.9122      9492.9707 
        9.0900         6.5415
    3004.56600 
       43.8231        71.5858        29.7147       113.4570      1391.9862 
       55.3912       105.7303     15570.8203      8157.4199        38.6487 
       38.6487       109.3635        23.5163    0.000716268       0.310856 
     -999.2500      9757.2217      5126.1138      9901.5205      6871.2324 
      0.279770      2727.0967         2.4629         1.7092     12396.6582 
     4142.4780      6530.5840     18053.4102         1.9088      9458.0264 
        8.9420         6.3962
    3004.71840 
       43.5491        69.5506        30.2617       108.8396      1378.7202 
       56.1288       106.8034     15131.8818      7952.3159        36.7824 
       36.7824       102.4952        22.6947    0.000680702       0.309215 
     -999.2500      9757.8027      5126.2100      9902.8115      6857.6128 
      0.278293      2751.7739         2.4631         1.7057     12418.7744 
     3956.0540      6425.7046     17816.1660         1.9028      9362.9980 
        8.6188         6.0834
    3004.87080 
       42.9457        68.5239        33.8909       103.1568      1349.9314 
       57.7755       107.7674     14396.0898      7717.9302        32.2905 
       32.2905        88.1145        21.8287    0.000641168       0.298327 
     -999.2500      9758.3838      5126.3057      9907.8340      6769.3877 
      0.268495      2809.0959         2.4642         1.6837     12356.9678 
     3731.6248      6201.2227     17308.3730         1.8653      9279.2441 
        8.2210         5.7068
    3005.02320 
       41.9277        68.9911        41.5363        96.4459      1302.6154 
       60.6255       108.8914     13444.1201      7485.0400        25.6885 
       25.6885        68.6927        20.9515    0.000603057       0.275391 
     -999.2500      9758.9658      5126.4014      9917.3535      6591.2183 
      0.247852      2584.3289         2.4665         1.6393     11551.0947 
     3473.7078      5841.5220     16494.7090         1.7961      9183.4619 
        7.7512         5.2740
    3005.17560 
       41.4455        66.6491        42.4210        90.8772      1280.7274 
       62.0075       110.9240     12980.8447      7256.4072        23.9291 
       23.9291        63.1914        19.9394    0.000566778       0.272737 
     -999.2500      9759.5469      5126.4971      9918.9717      6571.0557 
      0.245463      2190.5732         2.4667         1.6342     10723.2578 
     3265.5383      5679.0024     16127.0820         1.7889      9015.1807 
        7.3614         4.9247
    3005.32800 
       40.6305        66.0706        46.2662        85.8749      1244.4636 
       64.3909       113.2587     12525.7373      7121.2500        20.9625 
       20.9625        55.4697        19.1646    0.000545862       0.261201 
     -999.2500      9760.1289      5126.5928      9923.8535      6485.6260 
      0.235081      2033.9230         2.4678         1.6128     10239.0977 
     3083.0671      5415.1118     15530.1455         1.7589      8829.3438 
        7.0112         4.6185
    3005.48040 
       39.7111        68.0163        53.2129        82.8196      1204.6023 
       67.1529       114.8639     12177.8115      7119.5161        17.4895 
       17.4895        46.9241        18.8922    0.000545596       0.240361 
     -999.2500      9760.7109      5126.6885      9931.8818      6337.2900 
      0.216325      2183.0796         2.4697         1.5758     10240.7393 
     2973.7241      5132.7339     14891.3896         1.7105      8705.9551 
        6.7974         4.4350
    3005.63280 
       39.2768        69.7066        57.0167        82.3965      1186.1404 
       68.4852       115.5083     12134.2842      7194.4517        16.0358 
       16.0358        43.7206        18.9845    0.000557141       0.228950 
     -999.2500      9761.2920      5126.7842      9936.3955      6259.2212 
      0.206055      2159.7942         2.4707         1.5564     10038.0303 
     2958.7080      5004.6675     14601.6953         1.6866      8657.3867 
        6.7678         4.4098
    3005.78520 
       39.2803        69.5612        56.7866        82.3358      1186.2896 
       68.4743       115.5855     12137.9971      7190.7017        16.1060 
       16.1060        43.9186        18.9619    0.000556561       0.229640 
     -999.2500      9761.8730      5126.8799      9936.7617      6264.1152 
      0.206676      2107.4458         2.4706         1.5575      9943.1221 
     2956.5566      5005.6953     14604.0195         1.6880      8651.6035 
        6.7635         4.4062
    3005.93760 
       39.3783        69.7438        57.1212        82.3664      1190.4335 
       68.1723       114.9375     12069.1270      7158.5005        15.9944 
       15.9944        43.1756        18.9835    0.000551587       0.228636 
     -999.2500      9762.4561      5126.9756      9937.7012      6257.5386 
      0.205773      2101.9949         2.4707         1.5558      9919.0674 
     2957.6431      5034.2949     14668.7139         1.6860      8700.3809 
        6.7657         4.4080
    3006.09000 
       39.5294        70.1103        57.7168        82.5039      1196.8506 
       67.7081       113.9126     11970.5000      7115.1025        15.8111 
       15.8111        42.0435        19.0381    0.000544920       0.226850 
     -999.2500      9763.0371      5127.0713      9938.9033      6245.7026 
      0.204165      2151.4602         2.4709         1.5527      9994.3252 
     2962.5161      5078.7534     14769.2822         1.6824      8778.6602 
        6.7753         4.4162
    3006.24240 
       39.7689        70.5942        57.3543        83.8341      1207.0759 
       66.9770       112.8281     12024.3486      7137.8916        16.1552 
       16.1552        42.6860        19.2827    0.000548416       0.227937 
     -999.2500      9763.6182      5127.1665      9939.1318      6253.3584 
      0.205143      2158.8667         2.4708         1.5546     10024.4502 
     3009.8533      5150.0234     14930.4980         1.6846      8863.0400 
        6.8684         4.4957
