~Version Information Block
VERS .                  2.0:  CWLS LOG ASCII STANDARD - VERSION 2.0
WRAP .                  YES:  Multiple lines per depth step
~Well Information Block
#MNEM.UNIT        Data Type   Information
#---------- ----------------  -----------
STRT .M          2556.50000:  START DEPTH
STOP .M          3600.74480:  STOP DEPTH
STEP .M             0.15240:  STEP
NULL .              -999.25:  NULL VALUE
COMP .                     :  COMPANY
WELL .      RAAG-100-07-213:  WELL
FLD  .                     :  FIELD
LOC  .                     :  LOCATION
CTRY .                     :  COUNTRY
STAT .                     :  STATE
CNTY .                     :  COUNTY
SRVC .                     :  SERVICE COMPANY
DATE .                     :  DATE
API  .                     :  API NUMBER
UWI  .                     :  UNIQUE WELL ID
~Curve Information Block
#MNEM.UNIT         API CODE   Curve Description
#---------- ----------------  -----------------
DEPTH.M                    :  
ANGLE_FAIL.DEG                  :  Fail Angle
BRIT_IND.                     :  Brittleness Index
BRIT_PR.                     :  Brittleness Index from Poisson's Ratio
BRIT_YM.                     :  Brittleness Index from Young's Modulus
CS   .M/MIN                 :  Compressive Strength
DTCO .US/F                 :  Compressional slowness
DTSM .US/F                 :  Description
IP   .RAYL/M2                 :  P Impedence
IS   .RAYL/M2                 :  S Impedance
KBULK.                     :  Bulk Mudulus
LAMBDA.                     :  Lambda
LAMRHO.                     :  
MU   .CP                   :  Mu
MURHO.(GF/C3S)2                 :  Mu*Rho
PR   .                     :  Poisson's ratio
PRESS_FG.PSI                  :  Fracture Gradient Pressure
PRESS_OB.PSI                  :  Over-burden Pressure
PRESS_PP.PSI                  :  Pore Pressure
PRESS_SHMAX.PSI                  :  Horizontal Stress (Max)
PRESS_SHMIN.PSI                  :  Horizontal Stress (Min)
PR_STAT.                     :  Poisson's ratio (Static)
PZS  .PSI                  :  Processed Zone Stress
SHMAX_GRAD.                     :  Horizontal Stress Gradient (Max)
SHMIN_GRAD.                     :  Horizontal Stress Gradient (Min)
STRESS_CUM.PSI                  :  Cumulative stress (SHPZ)
UCS_BF.PSI                  :  Uniaxial Compressive Strength (BF)
UCS_LAL.PSI                  :  Uniaxial Compressive Strength (lal)
VP   .FT/S                 :  Compressional velocity
VPVS .                     :  Vp / Vs ratio
VS   .FT/S                 :  Shear velocity
YM   .                     :  Youngs' Modulus
YM_STAT.                     :  Youngs' Modulus (Static)
~Parameter Information Block
#MNEM.UNIT            Value   Description
#---------- ----------------  -----------
PROJECT.          RDG_13Jul21:  
SET  .              GEOMECH:  
~Other Information Block
~Ascii Log Data
# ...
    3000.28880 
       42.1765        70.5404        42.6646        98.4163      1314.0374 
       59.9206       107.0726     13421.3174      7510.9160        25.5085 
       25.5085        67.3041        21.3811    0.000607234       0.272006 
     -999.2500     10095.3896      5178.3721     10264.6865      6709.4385 
      0.244805      2189.5537         2.4758         1.6183     10997.9844 
     3548.6335      5927.3027     16688.7520         1.7869      9339.4561 
        7.8891         5.3997
    3000.44120 
       42.0387        71.8503        46.5499        97.1506      1307.6991 
       60.3104       105.9539     13030.1387      7416.9346        23.1795 
       23.1795        59.7627        21.3365    0.000592133       0.260350 
     -999.2500     10095.9736      5178.4570     10269.8535      6618.3896 
      0.234315      1899.2910         2.4769         1.5962     10235.3613 
     3500.4287      5879.6196     16580.8887         1.7568      9438.0703 
        7.8005         5.3188
    3000.59360 
       42.0073        72.9316        48.6237        97.2395      1306.2612 
       60.3993       105.1986     12900.0449      7406.5024        22.1801 
       22.1801        56.6986        21.4594    0.000590468       0.254129 
     -999.2500     10096.5586      5178.5410     10272.8379      6570.9707 
      0.228716      1755.7615         2.4775         1.5847      9853.4648 
     3503.8062      5868.8306     16556.4824         1.7417      9505.8301 
        7.8068         5.3245
    3000.74600 
       41.8574        73.7944        50.0449        97.5440      1299.4037 
       60.8257       105.3343     12921.6709      7461.6694        21.5682 
       21.5682        55.6166        21.5914    0.000599297       0.249865 
     -999.2500     10097.1436      5178.6255     10275.0527      6538.9609 
      0.224879      1810.8517         2.4779         1.5769      9899.6250 
     3515.3828      5817.5215     16440.4199         1.7317      9493.5840 
        7.8281         5.3439
    3000.89840 
       41.6172        72.6951        49.1702        96.2199      1288.4839 
       61.5130       106.9002     12976.9629      7467.2603        21.7194 
       21.7194        56.8816        21.2911    0.000600195       0.252489 
     -999.2500     10097.7295      5178.7104     10274.6709      6558.9043 
      0.227240      2048.4890         2.4777         1.5816     10414.7871 
     3465.1567      5736.3154     16256.7266         1.7378      9354.5156 
        7.7354         5.2597
    3001.05080 
       41.4511        71.7017        48.5034        94.8999      1280.9802 
       61.9913       108.0246     12971.3574      7443.7778        21.7714 
       21.7714        57.4365        21.0032    0.000596426       0.254490 
     -999.2500     10098.3145      5178.7944     10274.5186      6574.2217 
      0.229041      2316.3782         2.4775         1.5853     10981.2002 
     3415.3843      5680.8657     16131.2959         1.7426      9257.1484 
        7.6430         5.1761
    3001.20320 
       41.6166        70.3117        45.6853        94.9380      1288.4587 
       61.5146       108.4683     13095.8174      7426.9048        23.1490 
       23.1490        61.1826        20.8699    0.000593726       0.262944 
     -999.2500     10098.8984      5178.8784     10271.8701      6639.4722 
      0.236650      2478.0151         2.4768         1.6009     11434.9746 
     3416.8140      5736.1284     16256.3037         1.7633      9219.2813 
        7.6457         5.1785
    3001.35560 
       41.7925        70.1719        44.7387        95.6051      1296.4451 
       61.0109       108.0217     13145.8477      7424.8052        23.7739 
       23.7739        62.5579        20.9502    0.000593390       0.265784 
     -999.2500     10099.4844      5178.9629     10271.3633      6661.9004 
      0.239205      2439.3359         2.4765         1.6062     11402.4727 
     3441.9370      5795.4595     16390.5137         1.7705      9257.4004 
        7.6924         5.2207
    3001.50800 
       41.8764        72.5714        46.6197        98.5230      1300.2701 
       60.7716       106.7326     13285.8408      7564.7178        23.4295 
       23.4295        62.0637        21.6028    0.000615964       0.260141 
     -999.2500     10100.0693      5179.0474     10274.1455      6618.5415 
      0.234127      2425.6304         2.4770         1.5957     11288.3438 
     3552.7117      5823.9917     16455.0566         1.7563      9369.2109 
        7.8966         5.4066
    3001.66040 
       41.6777        74.1429        49.3235        98.9623      1291.2266 
       61.3394       106.5324     13249.8896      7629.0415        22.1848 
       22.1848        59.1550        21.8275    0.000626484       0.252030 
     -999.2500     10100.6543      5179.1318     10277.8467      6556.7983 
      0.226827      2811.3484         2.4778         1.5807     11936.2930 
     3569.5154      5756.6548     16302.7354         1.7368      9386.8135 
        7.9274         5.4348
    3001.81280 
       41.9962        71.5040        43.9716        99.0365      1305.7509 
       60.4309       107.3557     13493.6631      7595.6304        24.9286 
       24.9286        66.6918        21.5652    0.000621009       0.268085 
     -999.2500     10101.2393      5179.2163     10272.2539      6680.9624 
      0.241277      3067.8506         2.4763         1.6106     12697.6260 
     3572.3562      5865.0029     16547.8262         1.7765      9314.8281 
        7.9326         5.4395
    3001.96520 
       42.3175        69.6988        40.2049        99.1928      1320.5529 
       59.5234       107.5777     13653.4023      7554.5137        27.1062 
       27.1062        72.2740        21.4042    0.000614304       0.279385 
     -999.2500     10101.8242      5179.3003     10268.3496      6771.3169 
      0.251447      2994.1404         2.4753         1.6323     12730.9150 
     3578.3455      5976.5342     16800.1152         1.8073      9295.6104 
        7.9435         5.4496
    3002.11760 
       42.3001        70.5097        41.3170        99.7023      1319.7460 
       59.5724       107.1083     13619.6289      7575.0806        26.5712 
       26.5712        70.7306        21.5565    0.000617653       0.276049 
     -999.2500     10102.4092      5179.3848     10270.2920      6744.7529 
      0.248444      2785.3096         2.4756         1.6258     12260.1250 
     3597.8975      5970.4253     16786.2969         1.7980      9336.3447 
        7.9792         5.4824
    3002.27000 
       42.0260        72.5558        45.0699       100.0417      1307.1198 
       60.3462       106.6910     13499.2578      7635.4014        24.5565 
       24.5565        65.6313        21.8132    0.000627529       0.264790 
     -999.2500     10102.9951      5179.4688     10275.3477      6655.9512 
      0.238311      2497.0391         2.4767         1.6043     11505.9805 
     3610.9434      5875.2710     16571.0508         1.7680      9372.8584 
        8.0029         5.5043
    3002.42240 
       42.1714        73.4437        44.8222       102.0651      1313.8022 
       59.9350       106.0782     13665.9404      7721.3647        25.1259 
       25.1259        67.5190        22.1862    0.000641739       0.265533 
     -999.2500     10103.5801      5179.5532     10275.6504      6662.1694 
      0.238980      2570.2791         2.4766         1.6057     11664.8965 
     3689.1426      5925.5303     16684.7422         1.7699      9427.0117 
        8.1446         5.6355
    3002.57480 
       42.8540        72.9732        39.7984       106.1479      1345.6075 
       58.0284       105.0777     14167.2539      7823.7607        29.0260 
       29.0260        78.2886        22.6945    0.000658872       0.280605 
     -999.2500     10104.1650      5179.6372     10270.2324      6782.8027 
      0.252544      2559.5520         2.4752         1.6347     11884.7100 
     3849.0627      6167.8755     17232.9414         1.8108      9516.7646 
        8.4304         5.9039
