~Version Information Block
VERS .                  2.0:  CWLS LOG ASCII STANDARD - VERSION 2.0
WRAP .                  YES:  Multiple lines per depth step
~Well Information Block
#MNEM.UNIT        Data Type   Information
#---------- ----------------  -----------
STRT .M          2676.97280:  START DEPTH
STOP .M          3838.10840:  STOP DEPTH
STEP .M             0.15240:  STEP
NULL .              -999.25:  NULL VALUE
COMP .                     :  COMPANY
WELL .      RAAG-107-07-210:  WELL
FLD  .                     :  FIELD
LOC  .                     :  LOCATION
CTRY .                     :  COUNTRY
STAT .                     :  STATE
CNTY .                     :  COUNTY
SRVC .                     :  SERVICE COMPANY
DATE .                     :  DATE
API  .                     :  API NUMBER
UWI  .                     :  UNIQUE WELL ID
~Curve Information Block
#MNEM.UNIT         API CODE   Curve Description
#---------- ----------------  -----------------
DEPTH.M                    :  
ANGLE_FAIL.DEG                  :  Fail Angle
BRIT_IND.                     :  Brittleness Index
BRIT_PR.                     :  Brittleness Index from Poisson's Ratio
BRIT_YM.                     :  Brittleness Index from Young's Modulus
CS   .M/MIN                 :  Compressive Strength
DTCO .US/F                 :  Compressional slowness
DTSM .US/F                 :  Fast Shear Slowness
IP   .RAYL/M2                 :  P Impedence
IS   .RAYL/M2                 :  S Impedance
KBULK.                     :  Bulk Mudulus
LAMBDA.                     :  Lambda
LAMRHO.                     :  
MU   .CP                   :  Mu
MURHO.(GF/C3S)2                 :  Mu*Rho
PR   .                     :  Poisson's ratio
PRESS_FG.PSI                  :  Fracture Gradient Pressure
PRESS_OB.PSI                  :  Over-burden Pressure
PRESS_PP.PSI                  :  Pore Pressure
PRESS_SHMAX.PSI                  :  Horizontal Stress (Max)
PRESS_SHMIN.PSI                  :  Horizontal Stress (Min)
PR_STAT.                     :  Poisson's ratio (Static)
PZS  .PSI                  :  Processed Zone Stress
SHMAX_GRAD.                     :  Horizontal Stress Gradient (Max)
SHMIN_GRAD.                     :  Horizontal Stress Gradient (Min)
STRESS_CUM.PSI                  :  Cumulative stress (SHPZ)
UCS_BF.PSI                  :  Uniaxial Compressive Strength (BF)
UCS_LAL.PSI                  :  Uniaxial Compressive Strength (lal)
VP   .FT/S                 :  Compressional velocity
VPVS .                     :  Vp / Vs ratio
VS   .FT/S                 :  Shear velocity
YM   .                     :  Youngs' Modulus
YM_STAT.                     :  Youngs' Modulus (Static)
~Parameter Information Block
#MNEM.UNIT            Value   Description
#---------- ----------------  -----------
PROJECT.          RDG_13Jul21:  
SET  .              GEOMECH:  
~Other Information Block
~Ascii Log Data
# ...
    3349.97120 
       39.8551        65.3369        48.8026        81.8712      1210.7747 
       66.7151       116.1141     12272.7529      7051.4951        19.0499 
       19.0499        51.1733        18.5102    0.000535220       0.253592 
     -999.2500     10515.1816      5233.7813     10704.5605      6727.5903 
      0.228233      2481.9934         2.4888         1.5641     11619.1680 
     2940.1067      5175.9336     14989.1094         1.7404      8612.2188 
        6.7310         4.3786
    3350.12360 
       39.8505        64.4128        47.7575        81.0682      1210.5751 
       66.7292       116.6389     12247.3018      7006.6904        19.3225 
       19.3225        51.8090        18.3098    0.000528440       0.256727 
     -999.2500     10515.7627      5233.8506     10703.8809      6753.3823 
      0.231055      2494.6289         2.4885         1.5700     11696.0225 
     2911.7651      5174.5337     14985.9424         1.7479      8573.4688 
        6.6748         4.3311
    3350.27600 
       39.8465        63.7970        47.1424        80.4516      1210.4052 
       66.7412       116.9594     12214.9404      6970.2808        19.4548 
       19.4548        52.0351        18.1648    0.000522963       0.258573 
     -999.2500     10516.3418      5233.9204     10703.7227      6768.7324 
      0.232715      2432.4167         2.4883         1.5735     11602.2988 
     2890.0791      5173.3423     14983.2480         1.7524      8549.9766 
        6.6316         4.2947
    3350.42840 
       39.8634        64.2794        47.7480        80.8108      1211.1301 
       66.6900       116.5750     12207.7607      6983.7930        19.2743 
       19.2743        51.4827        18.2600    0.000524992       0.256756 
     -999.2500     10516.9229      5233.9893     10705.0674      6754.0415 
      0.231080      2402.5945         2.4885         1.5700     11513.2725 
     2902.7053      5178.4277     14994.7520         1.7480      8578.1680 
        6.6568         4.3159
    3350.58080 
       39.9359        65.1561        48.3717        81.9404      1214.2494 
       66.4703       115.8922     12267.1074      7035.8340        19.2420 
       19.2420        51.4760        18.5045    0.000532845       0.254885 
     -999.2500     10517.5029      5234.0586     10706.4268      6739.0229 
      0.229396      2487.8687         2.4887         1.5665     11653.7832 
     2942.5569      5200.3379     15044.3135         1.7435      8628.7090 
        6.7358         4.3827
    3350.73320 
       40.0529        64.9393        47.3151        82.5635      1219.2970 
       66.1168       115.7815     12357.6387      7056.8052        19.8143 
       19.8143        53.1142        18.5774    0.000536027       0.258055 
     -999.2500     10518.0830      5234.1279     10705.7227      6765.2979 
      0.232249      2589.5188         2.4884         1.5725     11909.6328 
     2964.6335      5235.8965     15124.7490         1.7512      8636.9580 
        6.7794         4.4198
    3350.88560 
       40.1544        63.8168        45.3099        82.3237      1223.6865 
       65.8114       116.2326     12421.5322      7033.1255        20.6430 
       20.6430        55.3648        18.4432    0.000532435       0.264070 
     -999.2500     10518.6641      5234.1978     10703.8271      6815.3936 
      0.237663      2626.5994         2.4878         1.5841     12083.9854 
     2956.1282      5266.9243     15194.9365         1.7661      8603.4385 
        6.7627         4.4055
    3351.03800 
       40.2299        63.0019        43.8648        82.1391      1226.9623 
       65.5847       116.5665     12469.4639      7015.7896        21.2609 
       21.2609        57.0449        18.3450    0.000529814       0.268406 
     -999.2500     10519.2441      5234.2671     10702.6055      6852.0088 
      0.241565      2619.3411         2.4874         1.5925     12142.6992 
     2949.5886      5290.1431     15247.4580         1.7773      8578.7939 
        6.7497         4.3945
    3351.19040 
       40.2557        62.7676        43.3640        82.1712      1228.0842 
       65.5073       116.6884     12499.6885      7017.1572        21.5012 
       21.5012        57.7612        18.3294    0.000530020       0.269908 
     -999.2500     10519.8242      5234.3359     10702.5674      6864.9443 
      0.242917      2660.0247         2.4873         1.5954     12249.9375 
     2950.7271      5298.1074     15265.4736         1.7813      8569.8320 
        6.7520         4.3964
    3351.34280 
       40.1807        62.8343        43.8196        81.8490      1224.8264 
       65.7324       116.8524     12463.5967      7011.0850        21.2178 
       21.2178        57.0306        18.2878    0.000529103       0.268541 
     -999.2500     10520.4043      5234.4058     10703.7451      6853.5938 
      0.241687      2643.5737         2.4875         1.5927     12194.3350 
     2939.3215      5274.9976     15213.1982         1.7777      8557.8037 
        6.7294         4.3773
    3351.49520 
       40.0519        63.1082        44.9638        81.2527      1219.2524 
       66.1199       116.9527     12368.3154      6992.5005        20.5681 
       20.5681        55.1851        18.2237    0.000526302       0.265109 
     -999.2500     10520.9844      5234.4746     10705.7881      6824.9077 
      0.238598      2660.3337         2.4878         1.5860     12170.4834 
     2918.2671      5235.5825     15124.0391         1.7688      8550.4658 
        6.6877         4.3420
    3351.64760 
       39.9450        63.4908        46.1292        80.8524      1214.6407 
       66.4428       116.9360     12287.1006      6981.5063        19.9706 
       19.9706        53.4900        18.1977    0.000524648       0.261612 
     -999.2500     10521.5654      5234.5439     10707.8467      6795.9370 
      0.235451      2630.5371         2.4882         1.5792     12052.9482 
     2904.1687      5203.0903     15050.5391         1.7599      8551.6865 
        6.6597         4.3183
    3351.80000 
       39.9212        63.6921        46.5180        80.8663      1213.6165 
       66.5148       116.8696     12272.9932      6985.0132        19.8059 
       19.8059        53.0455        18.2172    0.000525176       0.260446 
     -999.2500     10522.1455      5234.6138     10708.9287      6786.4868 
      0.234401      2517.0405         2.4883         1.5769     11807.0547 
     2904.6555      5195.8882     15034.2490         1.7570      8556.5449 
        6.6606         4.3191
    3351.95240 
       39.9957        63.9591        46.4487        81.4695      1216.8265 
       66.2895       116.5079     12314.1563      7006.3853        19.9614 
       19.9614        53.4596        18.3296    0.000528394       0.260654 
     -999.2500     10522.7256      5234.6826     10709.4375      6788.4800 
      0.234588      2469.7407         2.4883         1.5773     11716.4414 
     2925.9153      5218.4775     15085.3467         1.7576      8583.1094 
        6.7029         4.3548
    3352.10480 
       40.0843        64.7044        46.9953        82.4136      1220.6523 
       66.0223       115.7710     12344.5068      7039.8696        19.9210 
       19.9210        53.2673        18.5345    0.000533457       0.259014 
     -999.2500     10523.3066      5234.7515     10710.7119      6775.2080 
      0.233113      2450.4666         2.4885         1.5741     11651.3486 
     2959.3137      5245.4668     15146.3975         1.7535      8637.7422 
        6.7689         4.4109
    3352.25720 
       40.1275        65.2672        47.5085        83.0258      1222.5210 
       65.8923       115.2953     12360.2070      7063.9697        19.8257 
       19.8257        52.9754        18.6746    0.000537116       0.257474 
     -999.2500     10523.8867      5234.8208     10711.9414      6762.7827 
      0.231727      2427.4683         2.4886         1.5711     11580.5020 
     2981.0535      5258.6768     15176.2793         1.7498      8673.3799 
        6.8118         4.4473
