~Version Information Block
VERS .                  2.0:  CWLS LOG ASCII STANDARD - VERSION 2.0
WRAP .                   NO:  One line per depth step
~Well Information Block
#MNEM.UNIT        Data Type   Information
#---------- ----------------  -----------
STRT .M                0.00:  START DEPTH
STOP .M             3613.00:  STOP DEPTH
STEP .M                0.50:  STEP
NULL .              -999.25:  NULL VALUE
COMP .                     :  COMPANY
WELL .      RAAG-100-07-213:  WELL
FLD  .                     :  FIELD
LOC  .                     :  LOCATION
CTRY .                     :  COUNTRY
STAT .                     :  STATE
CNTY .                     :  COUNTY
SRVC .                     :  SERVICE COMPANY
DATE .                     :  DATE
API  .                     :  API NUMBER
UWI  .                     :  UNIQUE WELL ID
~Curve Information Block
#MNEM.UNIT         API CODE   Curve Description
#---------- ----------------  -----------------
DEPTH.M                    :  
OBG  .G/CC                 :  2.174+0.00008962*TVDSS
PP   .G/CC                 :  2.1087-0.00029524*TVDSS
~Parameter Information Block
#MNEM.UNIT            Value   Description
#---------- ----------------  -----------
PROJECT.          RDG_13Jul21:  
SET  .              GEOMECH:  
~Other Information Block
# 
~A       DEPTH            OBG             PP 
# ...
        445.00         2.2076         1.9979
        445.50         2.2077         1.9977
        446.00         2.2077         1.9976
        446.50         2.2078         1.9974
        447.00         2.2078         1.9973
        447.50         2.2079         1.9971
        448.00         2.2079         1.9970
        448.50         2.2079         1.9969
        449.00         2.2080         1.9967
        449.50         2.2080         1.9966
        450.00         2.2081         1.9964
        450.50         2.2081         1.9963
        451.00         2.2082         1.9961
        451.50         2.2082         1.9960
        452.00         2.2083         1.9958
        452.50         2.2083         1.9957
        453.00         2.2083         1.9956
        453.50         2.2084         1.9954
        454.00         2.2084         1.9953
        454.50         2.2085         1.9951
        455.00         2.2085         1.9950
        455.50         2.2086         1.9948
        456.00         2.2086         1.9947
        456.50         2.2086         1.9946
        457.00         2.2087         1.9944
        457.50         2.2087         1.9943
        458.00         2.2088         1.9941
        458.50         2.2088         1.9940
        459.00         2.2089         1.9938
        459.50         2.2089         1.9937
        460.00         2.2090         1.9935
        460.50         2.2090         1.9934
        461.00         2.2090         1.9933
        461.50         2.2091         1.9931
        462.00         2.2091         1.9930
        462.50         2.2092         1.9928
        463.00         2.2092         1.9927
        463.50         2.2093         1.9925
        464.00         2.2093         1.9924
        464.50         2.2093         1.9922
        465.00         2.2094         1.9921
        465.50         2.2094         1.9920
        466.00         2.2095         1.9918
        466.50         2.2095         1.9917
        467.00         2.2096         1.9915
        467.50         2.2096         1.9914
        468.00         2.2097         1.9912
        468.50         2.2097         1.9911
        469.00         2.2097         1.9910
        469.50         2.2098         1.9908
        470.00         2.2098         1.9907
        470.50         2.2099         1.9905
        471.00         2.2099         1.9904
        471.50         2.2100         1.9902
        472.00         2.2100         1.9901
        472.50         2.2100         1.9899
        473.00         2.2101         1.9898
        473.50         2.2101         1.9897
        474.00         2.2102         1.9895
        474.50         2.2102         1.9894
        475.00         2.2103         1.9892
        475.50         2.2103         1.9891
        476.00         2.2104         1.9889
        476.50         2.2104         1.9888
        477.00         2.2104         1.9886
        477.50         2.2105         1.9885
        478.00         2.2105         1.9884
        478.50         2.2106         1.9882
        479.00         2.2106         1.9881
        479.50         2.2107         1.9879
        480.00         2.2107         1.9878
        480.50         2.2107         1.9876
        481.00         2.2108         1.9875
        481.50         2.2108         1.9873
        482.00         2.2109         1.9872
        482.50         2.2109         1.9871
        483.00         2.2110         1.9869
        483.50         2.2110         1.9868
        484.00         2.2111         1.9866
        484.50         2.2111         1.9865
        485.00         2.2111         1.9863
        485.50         2.2112         1.9862
        486.00         2.2112         1.9861
        486.50         2.2113         1.9859
        487.00         2.2113         1.9858
        487.50         2.2114         1.9856
        488.00         2.2114         1.9855
        488.50         2.2114         1.9853
        489.00         2.2115         1.9852
        489.50         2.2115         1.9850
        490.00         2.2116         1.9849
        490.50         2.2116         1.9848
        491.00         2.2117         1.9846
        491.50         2.2117         1.9845
        492.00         2.2118         1.9843
        492.50         2.2118         1.9842
        493.00         2.2118         1.9840
        493.50         2.2119         1.9839
        494.00         2.2119         1.9837
        494.50         2.2120         1.9836
        495.00         2.2120         1.9835
        495.50         2.2121         1.9833
        496.00         2.2121         1.9832
        496.50         2.2121         1.9830
        497.00         2.2122         1.9829
        497.50         2.2122         1.9827
        498.00         2.2123         1.9826
        498.50         2.2123         1.9824
        499.00         2.2124         1.9823
        499.50         2.2124         1.9822
        500.00         2.2125         1.9820
        500.50         2.2125         1.9819
        501.00         2.2125         1.9817
        501.50         2.2126         1.9816
        502.00         2.2126         1.9814
        502.50         2.2127         1.9813
        503.00         2.2127         1.9811
        503.50         2.2128         1.9810
        504.00         2.2128         1.9809
        504.50         2.2128         1.9807
        505.00         2.2129         1.9806
        505.50         2.2129         1.9804
        506.00         2.2130         1.9803
        506.50         2.2130         1.9801
        507.00         2.2131         1.9800
        507.50         2.2131         1.9798
        508.00         2.2132         1.9797
        508.50         2.2132         1.9796
        509.00         2.2132         1.9794
        509.50         2.2133         1.9793
        510.00         2.2133         1.9791
        510.50         2.2134         1.9790
        511.00         2.2134         1.9788
        511.50         2.2135         1.9787
        512.00         2.2135         1.9786
        512.50         2.2136         1.9784
        513.00         2.2136         1.9783
        513.50         2.2136         1.9781
        514.00         2.2137         1.9780
        514.50         2.2137         1.9778
        515.00         2.2138         1.9777
        515.50         2.2138         1.9775
        516.00         2.2139         1.9774
        516.50         2.2139         1.9773
        517.00         2.2139         1.9771
        517.50         2.2140         1.9770
        518.00         2.2140         1.9768
        518.50         2.2141         1.9767
        519.00         2.2141         1.9765
        519.50         2.2142         1.9764
        520.00         2.2142         1.9762
        520.50         2.2143         1.9761
        521.00         2.2143         1.9760
        521.50         2.2143         1.9758
        522.00         2.2144         1.9757
        522.50         2.2144         1.9755
        523.00         2.2145         1.9754
        523.50         2.2145         1.9752
        524.00         2.2146         1.9751
        524.50         2.2146         1.9749
        525.00         2.2146         1.9748
        525.50         2.2147         1.9747
        526.00         2.2147         1.9745
        526.50         2.2148         1.9744
        527.00         2.2148         1.9742
        527.50         2.2149         1.9741
        528.00         2.2149         1.9739
        528.50         2.2150         1.9738
        529.00         2.2150         1.9736
        529.50         2.2150         1.9735
        530.00         2.2151         1.9734
        530.50         2.2151         1.9732
        531.00         2.2152         1.9731
        531.50         2.2152         1.9729
        532.00         2.2153         1.9728
        532.50         2.2153         1.9726
        533.00         2.2153         1.9725
        533.50         2.2154         1.9723
