~Version Information Block
VERS .                  2.0:  CWLS LOG ASCII STANDARD - VERSION 2.0
WRAP .                  YES:  Multiple lines per depth step
~Well Information Block
#MNEM.UNIT        Data Type   Information
#---------- ----------------  -----------
STRT .M          2784.04320:  START DEPTH
STOP .M          3715.96920:  STOP DEPTH
STEP .M             0.15240:  STEP
NULL .              -999.25:  NULL VALUE
COMP .                     :  COMPANY
WELL .      RAAG-101-02-104:  WELL
FLD  .                     :  FIELD
LOC  .                     :  LOCATION
CTRY .                     :  COUNTRY
STAT .                     :  STATE
CNTY .                     :  COUNTY
SRVC .                     :  SERVICE COMPANY
DATE .                     :  DATE
API  .                     :  API NUMBER
UWI  .                     :  UNIQUE WELL ID
~Curve Information Block
#MNEM.UNIT         API CODE   Curve Description
#---------- ----------------  -----------------
DEPTH.M                    :  
ANGLE_FAIL.DEG                  :  Fail Angle
BRIT_IND.                     :  Brittleness Index
BRIT_PR.                     :  Brittleness Index from Poisson's Ratio
BRIT_YM.                     :  Brittleness Index from Young's Modulus
CS   .M/MIN                 :  Compressive Strength
DTCO .US/F                 :  Compressional slowness
DTSM .US/F                 :  Fast Shear slowness
IP   .RAYL/M2                 :  P Impedence
IS   .RAYL/M2                 :  S Impedance
KBULK.                     :  Bulk Mudulus
LAMBDA.                     :  Lambda
LAMRHO.                     :  
MU   .CP                   :  Mu
MURHO.(GF/C3S)2                 :  Mu*Rho
PR   .                     :  Poisson's ratio
PRESS_FG.PSI                  :  Fracture Gradient Pressure
PRESS_OB.PSI                  :  Over-burden Pressure
PRESS_PP.PSI                  :  Pore Pressure
PRESS_SHMAX.PSI                  :  Horizontal Stress (Max)
PRESS_SHMIN.PSI                  :  Horizontal Stress (Min)
PR_STAT.                     :  Poisson's ratio (Static)
PZS  .PSI                  :  Processed Zone Stress
SHMAX_GRAD.                     :  Horizontal Stress Gradient (Max)
SHMIN_GRAD.                     :  Horizontal Stress Gradient (Min)
STRESS_CUM.PSI                  :  Cumulative stress (SHPZ)
UCS_BF.PSI                  :  Uniaxial Compressive Strength (BF)
UCS_LAL.PSI                  :  Uniaxial Compressive Strength (lal)
VP   .FT/S                 :  Compressional velocity
VPVS .                     :  Vp / Vs ratio
VS   .FT/S                 :  Shear velocity
YM   .                     :  Youngs' Modulus
YM_STAT.                     :  Youngs' Modulus (Static)
~Parameter Information Block
#MNEM.UNIT            Value   Description
#---------- ----------------  -----------
PROJECT.          RDG_13Jul21:  
SET  .              GEOMECH:  
~Other Information Block
~Ascii Log Data
# ...
    2835.24960 
       37.3833        48.4520        40.6192        56.2847      1108.2267 
       74.5064       134.3947     10597.0869      5874.8657        16.7041 
       16.7041        43.2702        13.3239         0.0004       0.278142 
     -999.2500      9576.5430      5095.3594      9728.9814      6527.7642 
      0.250328      2537.4351         2.4614         1.6515     11330.3984 
     2091.2739      4483.0059     13421.6650         1.8038      7440.7695 
        4.9399         2.9543
    2835.40200 
       36.0957        47.6670        44.7021        50.6319      1057.4648 
       78.8049       139.5488     10033.1279      5665.8291        14.0555 
       14.0555        36.4604        12.3752         0.0003       0.265894 
     -999.2500      9577.1221      5095.4614      9734.0293      6438.9829 
      0.239304      2506.3833         2.4625         1.6289     11090.7324 
     1918.8490      4159.3628     12689.5664         1.7708      7165.9517 
        4.5442         2.6649
    2835.55440 
       35.3121        46.1883        45.6752        46.7015      1027.3849 
       81.5044       143.7225      9689.1250      5494.6606        12.9285 
       12.9285        33.4966        11.6528         0.0003       0.262974 
     -999.2500      9577.7021      5095.5630      9735.6758      6418.2236 
      0.236677      2440.6584         2.4628         1.6236     10917.7646 
     1802.1848      3973.5632     12269.2764         1.7634      6957.8525 
        4.2691         2.4692
    2835.70680 
       35.1527        44.7762        44.3919        45.1606      1021.3350 
       82.0617       145.5134      9586.1885      5406.0923        12.9580 
       12.9580        33.4433        11.3239         0.0003       0.266824 
     -999.2500      9578.2822      5095.6650      9734.9072      6445.7759 
      0.240142      2379.5588         2.4625         1.6305     10850.6689 
     1757.1692      3936.7280     12185.9531         1.7732      6872.2197 
        4.1612         2.3936
    2835.85920 
       35.1616        44.1216        43.6349        44.6084      1021.6744 
       82.0303       145.9447      9540.0889      5362.1426        13.0508 
       13.0508        33.5081        11.1986         0.0003       0.269095 
     -999.2500      9578.8613      5095.7666      9734.6914      6462.2739 
      0.242186      2353.5332         2.4623         1.6345     10831.6143 
     1741.1376      3938.7903     12190.6182         1.7792      6851.9102 
        4.1226         2.3667
    2836.01160 
       35.2195        42.9517        42.0693        43.8341      1023.8677 
       81.8278       146.6147      9489.6865      5296.3320        13.3268 
       13.3268        33.9519        11.0106         0.0003       0.273792 
     -999.2500      9579.4414      5095.8682      9733.5918      6496.4360 
      0.246413      2365.9822         2.4618         1.6431     10924.8369 
     1718.7422      3952.1270     12220.7861         1.7917      6820.5986 
        4.0684         2.3292
    2836.16400 
       35.3364        40.8031        38.9016        42.7046      1028.3069 
       81.4199       148.0698      9467.7969      5206.1060        14.0098 
       14.0098        35.4321        10.7167         0.0003       0.283295 
     -999.2500      9580.0215      5095.9702      9730.6973      6566.5151 
      0.254966      2384.5051         2.4610         1.6607     11102.0410 
     1686.2593      3979.1924     12282.0098         1.8186      6753.5723 
        3.9893         2.2747
    2836.31640 
       35.4955        39.0746        36.0190        42.1303      1034.3713 
       80.8669       149.1811      9514.5527      5157.5723        14.7864 
       14.7864        37.3256        10.5377         0.0003       0.291943 
     -999.2500      9580.6006      5096.0723      9728.0430      6631.7627 
      0.262749      2455.4521         2.4602         1.6771     11374.4297 
     1669.8284      4016.3220     12365.9990         1.8448      6703.2617 
        3.9491         2.2471
    2836.46880 
       35.7395        37.8094        33.2609        42.3579      1043.7195 
       80.0239       149.7692      9667.9121      5165.7085        15.7979 
       15.7979        40.0994        10.5129         0.0003       0.300217 
     -999.2500      9581.1807      5096.1738      9725.4609      6695.5649 
      0.270196      2522.0076         2.4594         1.6932     11635.1455 
     1676.3337      4073.9099     12496.2666         1.8716      6676.9404 
        3.9651         2.2580
    2836.62120 
       35.8948        37.9461        32.6123        43.2800      1049.6984 
       79.4907       149.2931      9813.7227      5225.2896        16.2937 
       16.2937        41.7019        10.6681         0.0003       0.302163 
     -999.2500      9581.7607      5096.2754      9725.2979      6711.0308 
      0.271947      2560.2207         2.4592         1.6970     11742.5029 
     1702.7800      4110.9653     12580.0879         1.8781      6698.2329 
        4.0296         2.3024
    2836.77360 
       36.2351        38.6798        32.2617        45.0978      1062.8818 
       78.3311       147.3966     10006.0498      5317.5229        16.9432 
       16.9432        43.5689        10.9961         0.0003       0.303215 
     -999.2500      9582.3408      5096.3774      9725.4756      6719.6372 
      0.272893      2565.2412         2.4591         1.6991     11769.7578 
     1755.3433      4193.2944     12766.3213         1.8817      6784.4165 
        4.1568         2.3906
    2836.92600 
       36.4917        39.8245        32.8038        46.8451      1072.8959 
       77.4649       145.3374     10139.3174      5404.2603        17.2275 
       17.2275        44.3937        11.3338         0.0003       0.301589 
     -999.2500      9582.9199      5096.4790      9726.6982      6707.3521 
      0.271430      2549.8889         2.4593         1.6959     11714.4824 
     1806.4032      4256.4014     12909.0723         1.8762      6880.5410 
        4.2792         2.4763
    2837.07840 
       36.7870        40.6601        32.9127        48.4075      1084.5074 
       76.4760       143.3976     10256.2100      5469.7837        17.6241 
       17.6241        45.3528        11.6263         0.0003       0.301262 
     -999.2500      9583.4990      5096.5806      9727.4150      6705.1943 
      0.271136      2449.7793         2.4593         1.6952     11509.9473 
     1852.5009      4330.1948     13075.9980         1.8751      6973.6177 
        4.3885         2.5536
    2837.23080 
       36.5648        41.7241        35.1650        48.2831      1075.7651 
       77.2190       143.0772     10144.7920      5475.1611        16.7160 
       16.7160        42.9620        11.6638         0.0003       0.294505 
     -999.2500      9584.0801      5096.6821      9730.6172      6653.3335 
      0.265054      2356.9258         2.4600         1.6820     11220.5186 
     1848.8142      4274.5742     12950.1807         1.8529      6989.2344 
        4.3798         2.5474
    2837.38320 
       35.9184        42.5846        38.6993        46.4700      1050.6077 
       79.4100       144.5560      9858.8027      5415.8081        15.0024 
       15.0024        38.5340        11.4194         0.0003       0.283902 
     -999.2500      9584.6592      5096.7832      9735.2227      6573.3940 
      0.255512      2301.8911         2.4610         1.6617     10950.5703 
     1795.3960      4116.6167     12592.8721         1.8204      6917.7344 
        4.2529         2.4578
    2837.53560 
       35.4152        42.4290        40.3091        44.5489      1031.3083 
       81.1456       146.5838      9643.0967      5338.2085        14.0214 
       14.0214        35.9964        11.1000         0.0003       0.279073 
     -999.2500      9585.2393      5096.8853      9737.6143      6537.7261 
      0.251165      2292.6782         2.4615         1.6526     10860.8086 
     1739.4110      3997.5464     12323.5273         1.8064      6822.0366 
        4.1184         2.3638
