~Version Information Block
VERS .                  2.0:  CWLS LOG ASCII STANDARD - VERSION 2.0
WRAP .                  YES:  Multiple lines per depth step
~Well Information Block
#MNEM.UNIT        Data Type   Information
#---------- ----------------  -----------
STRT .M          2888.43720:  START DEPTH
STOP .M          3831.03120:  STOP DEPTH
STEP .M             0.15240:  STEP
NULL .              -999.25:  NULL VALUE
COMP .                     :  COMPANY
WELL .       RAAG-99-02-105:  WELL
FLD  .                     :  FIELD
LOC  .                     :  LOCATION
CTRY .                     :  COUNTRY
STAT .                     :  STATE
CNTY .                     :  COUNTY
SRVC .                     :  SERVICE COMPANY
DATE .                     :  DATE
API  .                     :  API NUMBER
UWI  .                     :  UNIQUE WELL ID
~Curve Information Block
#MNEM.UNIT         API CODE   Curve Description
#---------- ----------------  -----------------
DEPTH.M                    :  
ANGLE_FAIL.DEG                  :  Fail Angle
BRIT_IND.                     :  Brittleness Index
BRIT_PR.                     :  Brittleness Index from Poisson's Ratio
BRIT_YM.                     :  Brittleness Index from Young's Modulus
CS   .M/MIN                 :  Compressive Strength
DTCO .US/F                 :  Compressional slowness
DTSM .US/F                 :  Fast Shear Slowness
IP   .RAYL/M2                 :  P Impedence
IS   .RAYL/M2                 :  S Impedance
KBULK.                     :  Bulk Mudulus
LAMBDA.                     :  Lambda
LAMRHO.                     :  
MU   .CP                   :  Mu
MURHO.(GF/C3S)2                 :  Mu*Rho
PR   .                     :  Poisson's ratio
PRESS_FG.PSI                  :  Fracture Gradient Pressure
PRESS_OB.PSI                  :  Over-burden Pressure
PRESS_PP.PSI                  :  Pore Pressure
PRESS_SHMAX.PSI                  :  Horizontal Stress (Max)
PRESS_SHMIN.PSI                  :  Horizontal Stress (Min)
PR_STAT.                     :  Poisson's ratio (Static)
PZS  .PSI                  :  Processed Zone Stress
SHMAX_GRAD.                     :  Horizontal Stress Gradient (Max)
SHMIN_GRAD.                     :  Horizontal Stress Gradient (Min)
STRESS_CUM.PSI                  :  Cumulative stress (SHPZ)
UCS_BF.PSI                  :  Uniaxial Compressive Strength (BF)
UCS_LAL.PSI                  :  Uniaxial Compressive Strength (lal)
VP   .FT/S                 :  Compressional velocity
VPVS .                     :  Vp / Vs ratio
VS   .FT/S                 :  Shear velocity
YM   .                     :  Youngs' Modulus
YM_STAT.                     :  Youngs' Modulus (Static)
~Parameter Information Block
#MNEM.UNIT            Value   Description
#---------- ----------------  -----------
PROJECT.          RDG_13Jul21:  
SET  .              GEOMECH:  
~Other Information Block
~Ascii Log Data
# ...
    3756.50760 
       38.1176        70.1419        71.6387        68.6452      1137.9624 
       72.1296       116.0306     10341.1992      6428.5332         9.9249 
        9.9249        24.2883        16.8871    0.000444830       0.185084 
     -999.2500     12157.5674      5353.8442     12433.8271      6632.3623 
      0.166576      1036.2056         2.5387         1.3542      8537.1357 
     2487.3457      4678.5215     13863.9336         1.6086      8618.4160 
        5.8052         3.6189
    3756.66000 
       39.4616        65.2601        56.7450        73.7751      1193.9667 
       67.9162       114.6606     10974.5811      6500.5054        14.6923 
       14.6923        35.9283        17.2802    0.000454846       0.229765 
     -999.2500     12158.1729      5353.8613     12413.4063      7053.4941 
      0.206789       860.7523         2.5344         1.4401      9028.4932 
     2659.4048      5058.7476     14724.0283         1.6883      8721.3916 
        6.1643         3.9076
    3756.81240 
       40.0650        58.3089        45.1599        71.4579      1219.8159 
       66.0806       116.7838     11079.9883      6269.4678        18.3810 
       18.3810        44.1537        16.3630    0.000423089       0.264520 
     -999.2500     12158.7773      5353.8779     12396.1455      7411.4287 
      0.238068       677.5482         2.5308         1.5131      9377.9541 
     2581.1265      5239.5596     15133.0361         1.7673      8562.8320 
        6.0021         3.7763
    3756.96480 
       39.8365        50.5660        36.7909        64.3411      1209.9751 
       66.7716       122.6988     10883.4785      5922.6924        20.2556 
       20.2556        48.2935        14.7127    0.000377580       0.289627 
     -999.2500     12159.3838      5353.8940     12382.9268      7688.5293 
      0.260665       565.9362         2.5280         1.5696      9708.9316 
     2346.4631      5170.3271     14976.4268         1.8376      8150.0391 
        5.5039         3.3825
    3757.11720 
       39.8052        38.7278        22.5944        54.8612      1208.6327 
       66.8666       133.3991     10936.2070      5481.7988        24.8004 
       24.8004        59.5004        12.5252    0.000323457       0.332217 
     -999.2500     12159.9893      5353.9111     12358.0107      8199.5684 
      0.298995       512.3345         2.5228         1.6739     10623.8047 
     2047.3387      5160.9209     14955.1494         1.9950      7496.3027 
        4.8403         2.8806
    3757.26960 
       40.9203        27.3864         6.8294        47.9433      1257.2539 
       63.5366       144.1844     11685.6328      5149.4150        34.2874 
       34.2874        83.5211        10.8857    0.000285421       0.379512 
     -999.2500     12160.5947      5353.9277     12326.7666      8837.1455 
      0.341561       499.9587         2.5163         1.8039     11874.2080 
     1838.7596      5507.4238     15738.9609         2.2693      6935.5625 
        4.3560         2.5306
    3757.42200 
       42.3633        24.8402         0.6469        49.0336      1322.6732 
       59.3949       144.3286     12575.8750      5175.2935        42.6774 
       42.6774       104.5853        10.9294    0.000288297       0.398059 
     -999.2500     12161.1992      5353.9443     12313.7197      9110.8037 
      0.358253       508.4684         2.5135         1.8597     12438.5439 
     1871.0887      5992.6021     16836.4609         2.4300      6928.6343 
        4.4324         2.5848
    3757.57440 
       43.1762        26.8202         0.4162        53.2242      1360.8610 
       57.1428       139.2496     12966.5928      5321.0020        45.8699 
       45.8699       111.5064        11.6470    0.000304759       0.398751 
     -999.2500     12161.8047      5353.9614     12313.7979      9121.9492 
      0.358876       492.2874         2.5134         1.8619     12428.4736 
     1997.2432      6285.9434     17500.0176         2.4369      7181.3491 
        4.7257         2.7965
    3757.72680 
       43.3602        27.1884         0.7521        53.6247      1369.6488 
       56.6408       137.4595     12832.1992      5287.5649        45.6046 
       45.6046       108.7487        11.7245    0.000300941       0.397744 
     -999.2500     12162.4102      5353.9780     12315.1768      9107.0830 
      0.357969       459.6291         2.5136         1.8588     12333.4238 
     2009.4552      6354.5093     17655.1172         2.4269      7274.8701 
        4.7537         2.8170
    3757.87920 
       43.0646        21.7827        -2.1972        45.7625      1355.5582 
       57.4486       144.7982     12335.3359      4894.0371        44.8426 
       44.8426       104.2573        10.3019    0.000257813       0.406592 
     -999.2500     12163.0166      5353.9946     12309.0596      9242.1484 
      0.365932       411.3238         2.5122         1.8863     12506.9453 
     1774.7048      6244.7627     17406.8652         2.5205      6906.1631 
        4.2034         2.4231
    3758.03160 
       41.8841        16.8113        -3.4406        37.0632      1300.6228 
       60.7496       155.7784     11514.7930      4490.4756        40.2010 
       40.2010        92.2617         8.7862    0.000217047       0.410322 
     -999.2500     12163.6221      5354.0117     12306.8066      9299.9307 
      0.369289       350.9677         2.5116         1.8980     12501.7959 
     1527.2876      5826.6260     16461.0137         2.5643      6419.3755 
        3.5944         2.0079
    3758.18400 
       39.8905        16.3962         0.2803        32.5121      1212.2971 
       66.6077       162.5870     10509.3975      4305.4287        31.9488 
       31.9488        73.3740         8.0713    0.000199528       0.399159 
     -999.2500     12164.2266      5354.0278     12316.0400      9127.9600 
      0.359243       284.2112         2.5134         1.8628     12024.3418 
     1403.0094      5186.6187     15013.2803         2.4410      6150.5532 
        3.2758         1.7994
    3758.33640 
       38.1144        19.2380         6.8642        31.6117      1137.8296 
       72.1400       163.6511      9779.7959      4311.0894        25.2620 
       25.2620        58.4734         8.0294    0.000200053       0.379407 
     -999.2500     12164.8320      5354.0444     12331.2373      8836.7275 
      0.341467       228.8981         2.5164         1.8033     11331.2510 
     1378.8427      4677.6382     13861.9346         2.2685      6110.5610 
        3.2128         1.7588
    3758.48880 
       36.8446        24.4991        15.8797        33.1186      1086.7845 
       76.2840       159.7715      9286.7227      4434.0093        20.1883 
       20.1883        46.9223         8.4589    0.000211623       0.352361 
     -999.2500     12165.4385      5354.0610     12350.5820      8462.5635 
      0.317125       205.8815         2.5202         1.7269     10536.8896 
     1419.3665      4344.7441     13108.9102         2.0944      6258.9385 
        3.3183         1.8268
    3758.64120 
       35.7593        30.6809        26.7588        34.6029      1044.4813 
       79.9557       155.3183      8848.9766      4555.3301        15.8543 
       15.8543        36.8023         8.9395    0.000223362       0.319723 
     -999.2500     12166.0439      5354.0771     12372.0977      8044.9766 
      0.287751       223.0494         2.5245         1.6416      9736.0518 
     1459.6646      4078.6218     12506.9258         1.9426      6438.3916 
        3.4222         1.8944
    3758.79360 
       34.5251        37.3425        39.8196        34.8654       997.7526 
       84.2814       152.6013      8396.4707      4637.3545        11.8405 
       11.8405        27.4906         9.2625    0.000231478       0.280541 
     -999.2500     12166.6494      5354.0942     12395.6416      7586.8057 
      0.252487       270.7708         2.5292         1.5480      8915.1523 
     1466.8297      3794.8489     11865.0137         1.8106      6553.0239 
        3.4406         1.9065
