~Version Information Block
VERS .                  2.0:  CWLS LOG ASCII STANDARD - VERSION 2.0
WRAP .                   NO:  One line per depth step
~Well Information Block
#MNEM.UNIT        Data Type   Information
#---------- ----------------  -----------
STRT .M                0.00:  START DEPTH
STOP .M             3613.00:  STOP DEPTH
STEP .M                0.50:  STEP
NULL .              -999.25:  NULL VALUE
COMP .                     :  COMPANY
WELL .      RAAG-100-07-213:  WELL
FLD  .                     :  FIELD
LOC  .                     :  LOCATION
CTRY .                     :  COUNTRY
STAT .                     :  STATE
CNTY .                     :  COUNTY
SRVC .                     :  SERVICE COMPANY
DATE .                     :  DATE
API  .                     :  API NUMBER
UWI  .                     :  UNIQUE WELL ID
~Curve Information Block
#MNEM.UNIT         API CODE   Curve Description
#---------- ----------------  -----------------
DEPTH.M                    :  
OBG  .G/CC                 :  2.174+0.00008962*TVDSS
PP   .G/CC                 :  2.1087-0.00029524*TVDSS
~Parameter Information Block
#MNEM.UNIT            Value   Description
#---------- ----------------  -----------
PROJECT.          RDG_13Jul21:  
SET  .              GEOMECH:  
~Other Information Block
# 
~A       DEPTH            OBG             PP 
# ...
       1424.00         2.2937         1.7144
       1424.50         2.2937         1.7142
       1425.00         2.2938         1.7141
       1425.50         2.2938         1.7139
       1426.00         2.2939         1.7138
       1426.50         2.2939         1.7136
       1427.00         2.2940         1.7135
       1427.50         2.2940         1.7133
       1428.00         2.2941         1.7132
       1428.50         2.2941         1.7130
       1429.00         2.2941         1.7129
       1429.50         2.2942         1.7128
       1430.00         2.2942         1.7126
       1430.50         2.2943         1.7125
       1431.00         2.2943         1.7123
       1431.50         2.2944         1.7122
       1432.00         2.2944         1.7120
       1432.50         2.2945         1.7119
       1433.00         2.2945         1.7117
       1433.50         2.2945         1.7116
       1434.00         2.2946         1.7114
       1434.50         2.2946         1.7113
       1435.00         2.2947         1.7111
       1435.50         2.2947         1.7110
       1436.00         2.2948         1.7108
       1436.50         2.2948         1.7107
       1437.00         2.2949         1.7105
       1437.50         2.2949         1.7104
       1438.00         2.2950         1.7102
       1438.50         2.2950         1.7101
       1439.00         2.2950         1.7099
       1439.50         2.2951         1.7098
       1440.00         2.2951         1.7097
       1440.50         2.2952         1.7095
       1441.00         2.2952         1.7094
       1441.50         2.2953         1.7092
       1442.00         2.2953         1.7091
       1442.50         2.2954         1.7089
       1443.00         2.2954         1.7088
       1443.50         2.2954         1.7086
       1444.00         2.2955         1.7085
       1444.50         2.2955         1.7083
       1445.00         2.2956         1.7082
       1445.50         2.2956         1.7080
       1446.00         2.2957         1.7079
       1446.50         2.2957         1.7077
       1447.00         2.2958         1.7076
       1447.50         2.2958         1.7074
       1448.00         2.2958         1.7073
       1448.50         2.2959         1.7071
       1449.00         2.2959         1.7070
       1449.50         2.2960         1.7068
       1450.00         2.2960         1.7067
       1450.50         2.2961         1.7066
       1451.00         2.2961         1.7064
       1451.50         2.2962         1.7063
       1452.00         2.2962         1.7061
       1452.50         2.2963         1.7060
       1453.00         2.2963         1.7058
       1453.50         2.2963         1.7057
       1454.00         2.2964         1.7055
       1454.50         2.2964         1.7054
       1455.00         2.2965         1.7052
       1455.50         2.2965         1.7051
       1456.00         2.2966         1.7049
       1456.50         2.2966         1.7048
       1457.00         2.2967         1.7046
       1457.50         2.2967         1.7045
       1458.00         2.2967         1.7043
       1458.50         2.2968         1.7042
       1459.00         2.2968         1.7040
       1459.50         2.2969         1.7039
       1460.00         2.2969         1.7037
       1460.50         2.2970         1.7036
       1461.00         2.2970         1.7035
       1461.50         2.2971         1.7033
       1462.00         2.2971         1.7032
       1462.50         2.2971         1.7030
       1463.00         2.2972         1.7029
       1463.50         2.2972         1.7027
       1464.00         2.2973         1.7026
       1464.50         2.2973         1.7024
       1465.00         2.2974         1.7023
       1465.50         2.2974         1.7021
       1466.00         2.2975         1.7020
       1466.50         2.2975         1.7018
       1467.00         2.2976         1.7017
       1467.50         2.2976         1.7015
       1468.00         2.2976         1.7014
       1468.50         2.2977         1.7012
       1469.00         2.2977         1.7011
       1469.50         2.2978         1.7009
       1470.00         2.2978         1.7008
       1470.50         2.2979         1.7006
       1471.00         2.2979         1.7005
       1471.50         2.2980         1.7004
       1472.00         2.2980         1.7002
       1472.50         2.2980         1.7001
       1473.00         2.2981         1.6999
       1473.50         2.2981         1.6998
       1474.00         2.2982         1.6996
       1474.50         2.2982         1.6995
       1475.00         2.2983         1.6993
       1475.50         2.2983         1.6992
       1476.00         2.2984         1.6990
       1476.50         2.2984         1.6989
       1477.00         2.2984         1.6987
       1477.50         2.2985         1.6986
       1478.00         2.2985         1.6984
       1478.50         2.2986         1.6983
       1479.00         2.2986         1.6981
       1479.50         2.2987         1.6980
       1480.00         2.2987         1.6978
       1480.50         2.2988         1.6977
       1481.00         2.2988         1.6975
       1481.50         2.2988         1.6974
       1482.00         2.2989         1.6973
       1482.50         2.2989         1.6971
       1483.00         2.2990         1.6970
       1483.50         2.2990         1.6968
       1484.00         2.2991         1.6967
       1484.50         2.2991         1.6965
       1485.00         2.2992         1.6964
       1485.50         2.2992         1.6962
       1486.00         2.2993         1.6961
       1486.50         2.2993         1.6959
       1487.00         2.2993         1.6958
       1487.50         2.2994         1.6956
       1488.00         2.2994         1.6955
       1488.50         2.2995         1.6953
       1489.00         2.2995         1.6952
       1489.50         2.2996         1.6950
       1490.00         2.2996         1.6949
       1490.50         2.2997         1.6947
       1491.00         2.2997         1.6946
       1491.50         2.2997         1.6944
       1492.00         2.2998         1.6943
       1492.50         2.2998         1.6942
       1493.00         2.2999         1.6940
       1493.50         2.2999         1.6939
       1494.00         2.3000         1.6937
       1494.50         2.3000         1.6936
       1495.00         2.3001         1.6934
       1495.50         2.3001         1.6933
       1496.00         2.3001         1.6931
       1496.50         2.3002         1.6930
       1497.00         2.3002         1.6928
       1497.50         2.3003         1.6927
       1498.00         2.3003         1.6925
       1498.50         2.3004         1.6924
       1499.00         2.3004         1.6922
       1499.50         2.3005         1.6921
       1500.00         2.3005         1.6919
       1500.50         2.3006         1.6918
       1501.00         2.3006         1.6916
       1501.50         2.3006         1.6915
       1502.00         2.3007         1.6913
       1502.50         2.3007         1.6912
       1503.00         2.3008         1.6911
       1503.50         2.3008         1.6909
       1504.00         2.3009         1.6908
       1504.50         2.3009         1.6906
       1505.00         2.3010         1.6905
       1505.50         2.3010         1.6903
       1506.00         2.3010         1.6902
       1506.50         2.3011         1.6900
       1507.00         2.3011         1.6899
       1507.50         2.3012         1.6897
       1508.00         2.3012         1.6896
       1508.50         2.3013         1.6894
       1509.00         2.3013         1.6893
       1509.50         2.3014         1.6891
       1510.00         2.3014         1.6890
       1510.50         2.3014         1.6888
       1511.00         2.3015         1.6887
       1511.50         2.3015         1.6885
       1512.00         2.3016         1.6884
       1512.50         2.3016         1.6882
