~Version Information Block
VERS .                  2.0:  CWLS LOG ASCII STANDARD - VERSION 2.0
WRAP .                  YES:  Multiple lines per depth step
~Well Information Block
#MNEM.UNIT        Data Type   Information
#---------- ----------------  -----------
STRT .M          2738.62800:  START DEPTH
STOP .M          3798.57000:  STOP DEPTH
STEP .M             0.15240:  STEP
NULL .              -999.25:  NULL VALUE
COMP .                     :  COMPANY
WELL .      RAAG-106-07-211:  WELL
FLD  .                     :  FIELD
LOC  .                     :  LOCATION
CTRY .                     :  COUNTRY
STAT .                     :  STATE
CNTY .                     :  COUNTY
SRVC .                     :  SERVICE COMPANY
DATE .                     :  DATE
API  .                     :  API NUMBER
UWI  .                     :  UNIQUE WELL ID
~Curve Information Block
#MNEM.UNIT         API CODE   Curve Description
#---------- ----------------  -----------------
DEPTH.M                    :  
ANGLE_FAIL.DEG                  :  Fail Angle
BRIT_IND.                     :  Brittleness Index
BRIT_PR.                     :  Brittleness Index from Poisson's Ratio
BRIT_YM.                     :  Brittleness Index from Young's Modulus
CS   .M/MIN                 :  Compressive Strength
DTCO .US/F                 :  Compressional slowness
DTSM .US/F                 :  Fast Shear Slowness
IP   .RAYL/M2                 :  P Impedence
IS   .RAYL/M2                 :  S Impedance
KBULK.                     :  Bulk Mudulus
LAMBDA.                     :  Lambda
LAMRHO.                     :  
MU   .CP                   :  Mu
MURHO.(GF/C3S)2                 :  Mu*Rho
PR   .                     :  Poisson's ratio
PRESS_FG.PSI                  :  Fracture Gradient Pressure
PRESS_OB.PSI                  :  Over-burden Pressure
PRESS_PP.PSI                  :  Pore Pressure
PRESS_SHMAX.PSI                  :  Horizontal Stress (Max)
PRESS_SHMIN.PSI                  :  Horizontal Stress (Min)
PR_STAT.                     :  Poisson's ratio (Static)
PZS  .PSI                  :  Processed Zone Stress
SHMAX_GRAD.                     :  Horizontal Stress Gradient (Max)
SHMIN_GRAD.                     :  Horizontal Stress Gradient (Min)
STRESS_CUM.PSI                  :  Cumulative stress (SHPZ)
UCS_BF.PSI                  :  Uniaxial Compressive Strength (BF)
UCS_LAL.PSI                  :  Uniaxial Compressive Strength (lal)
VP   .FT/S                 :  Compressional velocity
VPVS .                     :  Vp / Vs ratio
VS   .FT/S                 :  Shear velocity
YM   .                     :  Youngs' Modulus
YM_STAT.                     :  Youngs' Modulus (Static)
~Parameter Information Block
#MNEM.UNIT            Value   Description
#---------- ----------------  -----------
PROJECT.          RDG_13Jul21:  
SET  .              GEOMECH:  
~Other Information Block
~Ascii Log Data
# ...
    3116.58000 
       38.6060        47.1343        33.4755        60.7931      1158.0695 
       70.5784       131.9397     11281.5264      6034.8179        20.8378 
       20.8378        54.4348        13.9413    0.000392011       0.299573 
     -999.2500      9840.6006      5140.6919      9991.8740      6815.1392 
      0.269616      2702.9312         2.4663         1.6822     12236.1406 
     2232.7087      4813.2251     14168.6406         1.8694      7579.2197 
        5.2555         3.1916
    3116.73240 
       38.4933        47.1231        33.7375        60.5087      1153.4039 
       70.9344       132.4202     11270.7979      6037.5029        20.6360 
       20.6360        54.1280        13.8969    0.000392360       0.298787 
     -999.2500      9841.1738      5140.7832      9992.7813      6809.0190 
      0.268909      2648.6331         2.4664         1.6806     12115.3047 
     2223.6833      4781.7896     14097.5322         1.8668      7551.7183 
        5.2356         3.1765
    3116.88480 
       38.4057        47.1649        33.8262        60.5035      1149.7886 
       71.2119       132.8756     11305.7617      6059.0869        20.5932 
       20.5932        54.3952        13.8988    0.000395170       0.298521 
     -999.2500      9841.7471      5140.8750      9993.4775      6807.1328 
      0.268669      2730.9653         2.4664         1.6800     12276.1963 
     2223.5186      4757.5039     14042.5967         1.8659      7525.8364 
        5.2352         3.1762
    3117.03720 
       38.3146        47.1980        34.0729        60.3230      1146.0377 
       71.5013       133.2415     11301.2246      6064.5684        20.4292 
       20.4292        54.1597        13.8732    0.000395886       0.297781 
     -999.2500      9842.3213      5140.9663      9994.3662      6801.4072 
      0.268003      2795.7432         2.4665         1.6785     12394.3008 
     2217.7998      4732.3779     13985.7607         1.8635      7505.1689 
        5.2226         3.1666
    3117.18960 
       38.1587        47.2087        34.8862        59.5313      1139.6423 
       71.9983       133.5970     11184.4775      6027.5557        19.8451 
       19.8451        52.4297        13.7518    0.000391068       0.295342 
     -999.2500      9842.8936      5141.0576      9995.9395      6781.9722 
      0.265807      2961.4258         2.4668         1.6736     12686.7959 
     2192.7747      4689.6987     13889.2178         1.8556      7485.1978 
        5.1672         3.1246
    3117.34200 
       37.9292        47.2288        36.0635        58.3942      1130.2770 
       72.7343       134.1479     11020.8877      5975.4683        19.0301 
       19.0301        50.0475        13.5770    0.000384339       0.291810 
     -999.2500      9843.4678      5141.1494      9997.9453      6753.9233 
      0.262629      3060.8848         2.4671         1.6666     12829.6162 
     2157.0186      4627.5669     13748.6719         1.8444      7454.4585 
        5.0876         3.0646
    3117.49440 
       37.6867        46.9128        36.9312        56.8944      1120.4410 
       73.5179       135.0007     10836.4639      5901.2588        18.2799 
       18.2799        47.7792        13.3237    0.000374852       0.289206 
     -999.2500      9844.0410      5141.2407      9999.5723      6733.4233 
      0.260286      3051.3030         2.4674         1.6615     12769.4521 
     2110.1978      4562.7847     13602.1299         1.8363      7407.3691 
        4.9826         2.9860
    3117.64680 
       37.4948        46.3723        37.0268        55.7178      1112.7059 
       74.1419       136.0815     10739.9160      5851.4771        17.9395 
       17.9395        46.8662        13.1063    0.000368554       0.288920 
     -999.2500      9844.6143      5141.3320     10000.2783      6731.3330 
      0.260028      2936.2830         2.4674         1.6609     12535.2324 
     2073.7356      4512.1758     13487.6494         1.8354      7348.5376 
        4.9002         2.9248
    3117.79920 
       37.3525        45.6777        36.5389        54.8165      1106.9930 
       74.6072       137.2713     10708.3965      5820.0327        17.9022 
       17.9022        46.9242        12.9229    0.000364604       0.290383 
     -999.2500      9845.1875      5141.4238     10000.2910      6743.1221 
      0.261345      2612.0591         2.4673         1.6637     11910.3623 
     2045.9652      4474.9893     13403.5322         1.8399      7284.8438 
        4.8372         2.8782
    3117.95160 
       37.2102        44.9907        35.9992        53.9822      1101.3022 
       75.0745       138.5094     10690.3398      5794.3501        17.9007 
       17.9007        47.1344        12.7509    0.000361393       0.292002 
     -999.2500      9845.7607      5141.5151     10000.2393      6756.1963 
      0.262802      2369.7615         2.4672         1.6668     11451.9160 
     2020.3815      4438.1069     13320.1016         1.8450      7219.7271 
        4.7788         2.8353
    3118.10400 
       37.0555        44.2692        35.5556        52.9827      1095.1438 
       75.5845       139.7670     10642.6445      5755.4287        17.8147 
       17.8147        47.0160        12.5513    0.000356554       0.293333 
     -999.2500      9846.3340      5141.6064     10000.3008      6767.0059 
      0.264000      2300.0278         2.4670         1.6694     11334.0674 
     1989.8905      4398.3750     13230.2256         1.8491      7154.7646 
        4.7088         2.7842
    3118.25640 
       36.9311        43.3712        34.8852        51.8573      1090.2058 
       75.9967       141.0170     10578.3838      5700.8887        17.7825 
       17.7825        46.9019        12.3221    0.000349829       0.295345 
     -999.2500      9846.9082      5141.6982     10000.0879      6783.3086 
      0.265810      2345.8174         2.4669         1.6733     11458.2520 
     1955.7640      4366.6523     13158.4668         1.8556      7091.3442 
        4.6300         2.7269
    3118.40880 
       36.8499        42.3408        33.8763        50.8053      1086.9935 
       76.2664       142.2691     10533.7402      5646.8374        17.9025 
       17.9025        47.1861        12.0979    0.000343226       0.298371 
     -999.2500      9847.4814      5141.7891      9999.4600      6807.9033 
      0.268534      2462.1409         2.4666         1.6793     11740.0879 
     1924.0588      4346.0811     13111.9336         1.8654      7028.9326 
        4.5564         2.6737
    3118.56120 
       36.7493        41.2934        32.9319        49.6549      1083.0195 
       76.6018       143.6186     10475.7617      5587.4531        17.9669 
       17.9669        47.3023        11.8582    0.000336045       0.301204 
     -999.2500      9848.0557      5141.8809      9998.9023      6831.1045 
      0.271084      2642.8579         2.4663         1.6850     12147.9248 
     1889.6019      4320.7017     13054.5234         1.8749      6962.8857 
        4.4758         2.6159
    3118.71360 
       36.5497        40.4277        32.5053        48.3501      1075.1726 
       77.2697       145.2062     10389.2354      5528.5039        17.7721 
       17.7721        46.8075        11.6048    0.000328992       0.302484 
     -999.2500      9848.6279      5141.9722      9998.9736      6841.7310 
      0.272236      2403.0737         2.4662         1.6875     11689.6094 
     1850.7983      4270.8179     12941.6836         1.8792      6886.7578 
        4.3845         2.5508
    3118.86600 
       36.2356        39.7645        32.7547        46.7743      1062.9014 
       78.3294       146.9984     10244.8691      5459.0693        17.2268 
       17.2268        45.3545        11.3193    0.000320780       0.301736 
     -999.2500      9849.2012      5142.0635      9999.8721      6835.7822 
      0.271562      2181.4177         2.4663         1.6859     11234.3994 
     1804.3221      4193.4170     12766.5986         1.8767      6802.7949 
        4.2742         2.4728
