~Version Information Block
VERS .                  2.0:  CWLS LOG ASCII STANDARD - VERSION 2.0
WRAP .                  YES:  Multiple lines per depth step
~Well Information Block
#MNEM.UNIT        Data Type   Information
#---------- ----------------  -----------
STRT .M          2888.43720:  START DEPTH
STOP .M          3831.03120:  STOP DEPTH
STEP .M             0.15240:  STEP
NULL .              -999.25:  NULL VALUE
COMP .                     :  COMPANY
WELL .       RAAG-99-02-105:  WELL
FLD  .                     :  FIELD
LOC  .                     :  LOCATION
CTRY .                     :  COUNTRY
STAT .                     :  STATE
CNTY .                     :  COUNTY
SRVC .                     :  SERVICE COMPANY
DATE .                     :  DATE
API  .                     :  API NUMBER
UWI  .                     :  UNIQUE WELL ID
~Curve Information Block
#MNEM.UNIT         API CODE   Curve Description
#---------- ----------------  -----------------
DEPTH.M                    :  
ANGLE_FAIL.DEG                  :  Fail Angle
BRIT_IND.                     :  Brittleness Index
BRIT_PR.                     :  Brittleness Index from Poisson's Ratio
BRIT_YM.                     :  Brittleness Index from Young's Modulus
CS   .M/MIN                 :  Compressive Strength
DTCO .US/F                 :  Compressional slowness
DTSM .US/F                 :  Fast Shear Slowness
IP   .RAYL/M2                 :  P Impedence
IS   .RAYL/M2                 :  S Impedance
KBULK.                     :  Bulk Mudulus
LAMBDA.                     :  Lambda
LAMRHO.                     :  
MU   .CP                   :  Mu
MURHO.(GF/C3S)2                 :  Mu*Rho
PR   .                     :  Poisson's ratio
PRESS_FG.PSI                  :  Fracture Gradient Pressure
PRESS_OB.PSI                  :  Over-burden Pressure
PRESS_PP.PSI                  :  Pore Pressure
PRESS_SHMAX.PSI                  :  Horizontal Stress (Max)
PRESS_SHMIN.PSI                  :  Horizontal Stress (Min)
PR_STAT.                     :  Poisson's ratio (Static)
PZS  .PSI                  :  Processed Zone Stress
SHMAX_GRAD.                     :  Horizontal Stress Gradient (Max)
SHMIN_GRAD.                     :  Horizontal Stress Gradient (Min)
STRESS_CUM.PSI                  :  Cumulative stress (SHPZ)
UCS_BF.PSI                  :  Uniaxial Compressive Strength (BF)
UCS_LAL.PSI                  :  Uniaxial Compressive Strength (lal)
VP   .FT/S                 :  Compressional velocity
VPVS .                     :  Vp / Vs ratio
VS   .FT/S                 :  Shear velocity
YM   .                     :  Youngs' Modulus
YM_STAT.                     :  Youngs' Modulus (Static)
~Parameter Information Block
#MNEM.UNIT            Value   Description
#---------- ----------------  -----------
PROJECT.          RDG_13Jul21:  
SET  .              GEOMECH:  
~Other Information Block
~Ascii Log Data
    2888.43720 
       30.8045        49.1805        42.8567        55.5044       864.7536 
       98.3451       175.5815     13623.1768      7630.4893        15.7299 
       15.7299        69.1422        13.2461    0.000626722       0.271430 
     -999.2500      8804.9990      4941.3081      8938.8867      6127.2354 
      0.244287      -999.2500         2.4411         1.6732      -999.2500 
     2067.1467      3044.7629     10168.2744         1.7854      5695.3608 
        4.8853         2.9138
    2888.58960 
       30.7220        46.3476        47.2951        45.4001       861.9256 
       98.6752       172.8111     11367.3262      6490.7476        12.2163 
       12.2163        44.9565        11.4482    0.000453481       0.258115 
     -999.2500      8805.5693      4941.4355      8943.6016      6044.9229 
      0.232303      -999.2500         2.4422         1.6507      -999.2500 
     1764.1400      3029.7253     10134.2578         1.7513      5786.6655 
        4.1780         2.4053
    2888.74200 
       30.8198        39.5172        46.4328        32.6017       865.2775 
       98.2841       172.7521      8940.8604      5086.7368         9.7777 
        9.7777        28.1892         8.9749    0.000278515       0.260702 
     -999.2500      8806.1387      4941.5635      8943.4404      6060.1113 
      0.234632      -999.2500         2.4420         1.6547      -999.2500 
     1405.4215      3047.5527     10174.5850         1.7577      5788.6416 
        3.2821         1.8034
    2888.89440 
       31.0286        32.1143        41.2809        22.9476       872.4615 
       97.4524       175.2440      7279.3643      4048.0215         8.6862 
        8.6862        20.2162         7.0407    0.000176383       0.276157 
     -999.2500      8806.7090      4941.6909      8939.2578      6155.7207 
      0.248542      -999.2500         2.4407         1.6807      -999.2500 
     1153.3795      3085.9402     10261.4199         1.7983      5706.3291 
        2.6063         1.3805
    2889.04680 
       31.1456        28.0501        35.1377        20.9625       876.4996 
       96.9888       179.7336      7179.8433      3874.4253         9.4228 
        9.4228        21.5278         6.5704    0.000161579       0.294587 
     -999.2500      8807.2783      4941.8184      8933.8926      6274.9917 
      0.265128      -999.2500         2.4391         1.7132      -999.2500 
     1103.5306      3107.6235     10310.4688         1.8531      5563.7900 
        2.4674         1.2968
    2889.19920 
       31.0253        25.6990        31.0104        20.3876       872.3469 
       97.4656       184.6775      7349.8677      3878.9741        10.1809 
       10.1809        23.9277         6.4020    0.000161959       0.306969 
     -999.2500      8807.8486      4941.9458      8930.3232      6358.3438 
      0.276272      -999.2500         2.4380         1.7358      -999.2500 
     1089.2212      3085.3259     10260.0303         1.8948      5414.8447 
        2.4271         1.2728
    2889.35160 
       30.6852        24.5827        29.3738        19.7916       860.6658 
       98.8227       189.0036      7434.0854      3886.9968        10.3922 
       10.3922        25.0481         6.2684    0.000162629       0.311879 
     -999.2500      8808.4170      4942.0732      8929.2246      6392.2715 
      0.280691      -999.2500         2.4376         1.7450      -999.2500 
     1074.4442      3023.0383     10119.1318         1.9126      5290.9048 
        2.3854         1.2480
    2889.50400 
       30.1945        24.1679        29.4486        18.8872       843.9545 
      100.8057       192.7127      7376.8613      3858.7476        10.0987 
       10.0987        24.6382         6.1031    0.000160274       0.311654 
     -999.2500      8808.9883      4942.2007      8929.8887      6390.9697 
      0.280489      -999.2500         2.4376         1.7445      -999.2500 
     1052.1370      2935.0396      9920.0732         1.9117      5189.0713 
        2.3221         1.2106
    2889.65640 
       29.8215        23.7217        29.4152        18.0282       831.3632 
      102.3328       195.6700      7296.9800      3816.2234         9.8449 
        9.8449        24.1188         5.9446    0.000156761       0.311754 
     -999.2500      8809.5576      4942.3286      8930.4404      6391.9121 
      0.280579      -999.2500         2.4376         1.7447      -999.2500 
     1031.0819      2869.5964      9772.0381         1.9121      5110.6455 
        2.2620         1.1753
    2889.80880 
       29.6031        23.3304        29.2674        17.3935       824.0341 
      103.2350       197.5643      7226.6548      3776.2070         9.6848 
        9.6848        23.7051         5.8259    0.000153491       0.312198 
     -999.2500      8810.1279      4942.4556      8930.8721      6395.2349 
      0.280978      -999.2500         2.4376         1.7455      -999.2500 
     1015.6041      2831.8430      9686.6377         1.9137      5061.6431 
        2.2175         1.1493
    2889.96120 
       29.4451        22.8622        28.8750        16.8494       818.7494 
      103.8917       199.2764      7174.0518      3740.1541         9.6060 
        9.6060        23.4895         5.7207    0.000150574       0.313375 
     -999.2500      8810.6973      4942.5830      8931.0498      6403.6470 
      0.282038      -999.2500         2.4375         1.7477      -999.2500 
     1002.3904      2804.7751      9625.4072         1.9181      5018.1558 
        2.1795         1.1271
    2890.11360 
       29.3630        21.5534        27.1288        15.9781       816.0128 
      104.2338       202.0240      7115.0059      3670.9705         9.7286 
        9.7286        23.6713         5.5385    0.000145055       0.318614 
     -999.2500      8811.2676      4942.7104      8929.8086      6440.4346 
      0.286752      -999.2500         2.4370         1.7576      -999.2500 
      981.3368      2790.8093      9593.8164         1.9382      4949.9067 
        2.1185         1.0918
    2890.26600 
       29.3568        18.7698        22.9356        14.6041       815.8045 
      104.2599       207.5261      7097.4668      3565.7261        10.2750 
       10.2750        24.9452         5.2371    0.000136857       0.331193 
     -999.2500      8811.8369      4942.8379      8925.9082      6530.4136 
      0.298074      -999.2500         2.4358         1.7821      -999.2500 
      948.4002      2789.7478      9591.4150         1.9905      4818.6709 
        2.0223         1.0365
    2890.41840 
       29.3880        15.9231        18.6437        13.2025       816.8444 
      104.1297       213.5686      7092.4668      3458.0759        10.8899 
       10.8899        26.3865         4.9353    0.000128718       0.344069 
     -999.2500      8812.4072      4942.9653      8921.7490      6625.5708 
      0.309662      -999.2500         2.4345         1.8079      -999.2500 
      915.1359      2795.0496      9603.4082         2.0510      4682.3359 
        1.9242         0.9807
    2890.57080 
       29.3958        14.2571        16.1608        12.3533       817.1066 
      104.0969       217.5452      7094.6436      3394.8367        11.2605 
       11.2605        27.2841         4.7565    0.000124053       0.351518 
     -999.2500      8812.9766      4943.0928      8919.5137      6682.2363 
      0.316366      -999.2500         2.4337         1.8233      -999.2500 
      895.1461      2796.3872      9606.4336         2.0898      4596.7456 
        1.8647         0.9472
    2890.72320 
       29.3009        13.1413        14.6206        11.6620       813.9429 
      104.4935       221.0614      7084.4009      3348.7251        11.4302 
       11.4302        27.7608         4.6172    0.000120706       0.356138 
     -999.2500      8813.5469      4943.2202      8918.3203      6718.0693 
      0.320524      -999.2500         2.4333         1.8330      -999.2500 
      878.9611      2780.2688      9569.9727         2.1156      4523.6304 
        1.8163         0.9200
