~Version Information Block
VERS .                  2.0:  CWLS LOG ASCII STANDARD - VERSION 2.0
WRAP .                  YES:  Multiple lines per depth step
~Well Information Block
#MNEM.UNIT        Data Type   Information
#---------- ----------------  -----------
STRT .M          2676.97280:  START DEPTH
STOP .M          3838.10840:  STOP DEPTH
STEP .M             0.15240:  STEP
NULL .              -999.25:  NULL VALUE
COMP .                     :  COMPANY
WELL .      RAAG-107-07-210:  WELL
FLD  .                     :  FIELD
LOC  .                     :  LOCATION
CTRY .                     :  COUNTRY
STAT .                     :  STATE
CNTY .                     :  COUNTY
SRVC .                     :  SERVICE COMPANY
DATE .                     :  DATE
API  .                     :  API NUMBER
UWI  .                     :  UNIQUE WELL ID
~Curve Information Block
#MNEM.UNIT         API CODE   Curve Description
#---------- ----------------  -----------------
DEPTH.M                    :  
ANGLE_FAIL.DEG                  :  Fail Angle
BRIT_IND.                     :  Brittleness Index
BRIT_PR.                     :  Brittleness Index from Poisson's Ratio
BRIT_YM.                     :  Brittleness Index from Young's Modulus
CS   .M/MIN                 :  Compressive Strength
DTCO .US/F                 :  Compressional slowness
DTSM .US/F                 :  Fast Shear Slowness
IP   .RAYL/M2                 :  P Impedence
IS   .RAYL/M2                 :  S Impedance
KBULK.                     :  Bulk Mudulus
LAMBDA.                     :  Lambda
LAMRHO.                     :  
MU   .CP                   :  Mu
MURHO.(GF/C3S)2                 :  Mu*Rho
PR   .                     :  Poisson's ratio
PRESS_FG.PSI                  :  Fracture Gradient Pressure
PRESS_OB.PSI                  :  Over-burden Pressure
PRESS_PP.PSI                  :  Pore Pressure
PRESS_SHMAX.PSI                  :  Horizontal Stress (Max)
PRESS_SHMIN.PSI                  :  Horizontal Stress (Min)
PR_STAT.                     :  Poisson's ratio (Static)
PZS  .PSI                  :  Processed Zone Stress
SHMAX_GRAD.                     :  Horizontal Stress Gradient (Max)
SHMIN_GRAD.                     :  Horizontal Stress Gradient (Min)
STRESS_CUM.PSI                  :  Cumulative stress (SHPZ)
UCS_BF.PSI                  :  Uniaxial Compressive Strength (BF)
UCS_LAL.PSI                  :  Uniaxial Compressive Strength (lal)
VP   .FT/S                 :  Compressional velocity
VPVS .                     :  Vp / Vs ratio
VS   .FT/S                 :  Shear velocity
YM   .                     :  Youngs' Modulus
YM_STAT.                     :  Youngs' Modulus (Static)
~Parameter Information Block
#MNEM.UNIT            Value   Description
#---------- ----------------  -----------
PROJECT.          RDG_13Jul21:  
SET  .              GEOMECH:  
~Other Information Block
~Ascii Log Data
# ...
    3111.00800 
       42.1426        74.5312        45.3907       103.6717      1312.4746 
       60.0164       105.9608     13823.8867      7829.8755        25.1603 
       25.1603        68.4859        22.5229    0.000659903       0.263828 
     -999.2500      9611.6865      5101.4976      9770.1133      6443.1523 
      0.237445      2247.5481         2.4636         1.6247     10581.4004 
     3751.7322      5915.5264     16662.1113         1.7655      9437.4521 
        8.2570         5.7405
    3111.16040 
       42.3983        73.6742        42.6917       104.6568      1324.2960 
       59.2968       105.9450     14014.4961      7843.8315        26.9051 
       26.9051        73.3547        22.5664    0.000662257       0.271925 
     -999.2500      9612.2568      5101.5962      9767.7734      6501.9209 
      0.244732      2202.3923         2.4628         1.6394     10608.6270 
     3790.3267      6004.9160     16864.3164         1.7867      9438.8594 
        8.3260         5.8053
    3111.31280 
       42.9011        71.6586        37.7001       105.6171      1347.8253 
       57.8985       105.9133     14291.9248      7812.8145        30.2704 
       30.2704        82.1790        22.4839    0.000657030       0.286900 
     -999.2500      9612.8271      5101.6953      9762.7998      6613.3687 
      0.258210      2134.3279         2.4615         1.6674     10695.3936 
     3828.1113      6184.9678     17271.6055         1.8293      9441.6846 
        8.3932         5.8687
    3111.46520 
       43.3549        71.4847        35.3117       107.6578      1369.3918 
       56.6554       104.8959     14489.3984      7825.8794        32.4715 
       32.4715        87.4539        22.7400    0.000659229       0.294065 
     -999.2500      9613.3975      5101.7944      9760.6455      6668.4287 
      0.264658      2066.0593         2.4608         1.6812     10668.9756 
     3908.9246      6352.4980     17650.5684         1.8515      9533.2617 
        8.5360         6.0043
    3111.61760 
       43.4876        73.3545        36.5877       110.1214      1375.7582 
       56.2953       103.5534     14541.3369      7905.1860        32.1949 
       32.1949        86.4665        23.2682    0.000672658       0.290237 
     -999.2500      9613.9688      5101.8936      9762.6855      6639.6216 
      0.261213      2102.0759         2.4612         1.6738     10683.3945 
     4007.4382      6402.4102     17763.4707         1.8395      9656.8535 
        8.7085         6.1696
    3111.77000 
       43.2015        75.7521        40.5834       110.9207      1362.0679 
       57.0735       102.9665     14405.9043      7985.0767        29.6598 
       29.6598        80.0072        23.6373    0.000686323       0.278250 
     -999.2500      9614.5381      5101.9922      9767.7686      6549.9375 
      0.250425      2263.8669         2.4623         1.6511     10827.6084 
     4039.6265      6295.3369     17521.2656         1.8041      9711.8965 
        8.7645         6.2236
    3111.92240 
       42.6148        77.1648        45.9075       108.4220      1334.3826 
       58.6919       103.3926     14018.1299      7957.5391        25.8818 
       25.8818        69.8631        23.4587    0.000681597       0.262277 
     -999.2500      9615.1084      5102.0908      9774.1660      6433.9624 
      0.236050      2442.9355         2.4638         1.6218     10953.7959 
     3939.3748      6081.7529     17038.1270         1.7616      9671.8721 
        8.5895         6.0554
    3112.07480 
       41.9705        76.8816        50.3348       103.4284      1304.5747 
       60.5038       104.6558     13507.7686      7809.1357        22.5614 
       22.5614        60.4946        22.7434    0.000656411       0.248996 
     -999.2500      9615.6797      5102.1899      9779.4346      6340.5801 
      0.224096      2451.8201         2.4650         1.5982     10784.8008 
     3742.2234      5856.1890     16527.8887         1.7297      9555.1318 
        8.2400         5.7246
    3112.22720 
       41.4398        75.7695        52.8859        98.6531      1280.4716 
       62.0239       106.2232     13103.9863      7651.4395        20.4855 
       20.4855        54.6254        21.9553    0.000630168       0.241342 
     -999.2500      9616.2500      5102.2891      9782.6621      6288.0049 
      0.217208      2326.5840         2.4657         1.5849     10429.1777 
     3557.6846      5677.1177     16122.8174         1.7126      9414.1396 
        7.9057         5.4149
    3112.37960 
       41.1437        74.9286        53.8018        96.0555      1267.1931 
       62.8831       107.3210     12918.6260      7569.4712        19.6220 
       19.6220        52.2971        21.4979    0.000616739       0.238595 
     -999.2500      9616.8203      5102.3877      9784.1895      6269.4282 
      0.214735      2228.0149         2.4659         1.5801     10194.8867 
     3458.9414      5579.7314     15902.5244         1.7067      9317.8408 
        7.7239         5.2492
    3112.53200 
       41.1689        74.0228        52.7957        95.2499      1268.3195 
       62.8096       107.6059     12876.1963      7515.8398        19.9070 
       19.9070        52.8207        21.2891    0.000608030       0.241613 
     -999.2500      9617.3916      5102.4868      9783.7598      6290.0220 
      0.217452      2226.6304         2.4657         1.5852     10233.3037 
     3428.5522      5587.9580     15921.1328         1.7132      9293.1709 
        7.6675         5.1982
    3112.68440 
       41.4002        72.7189        50.5028        94.9349      1278.6880 
       62.1384       107.4115     12859.7578      7439.4717        20.8577 
       20.8577        54.6819        21.1109    0.000595737       0.248492 
     -999.2500      9617.9609      5102.5854      9781.9932      6337.3296 
      0.223642      2291.4309         2.4651         1.5970     10457.5205 
     3416.7002      5663.9839     16093.1074         1.7286      9309.9902 
        7.6454         5.1783
    3112.83680 
       41.5811        71.1852        48.4554        93.9150      1286.8521 
       61.6166       107.3928     12780.2041      7332.6396        21.5974 
       21.5974        55.7984        20.8113    0.000578750       0.254634 
     -999.2500      9618.5322      5102.6846      9780.4502      6380.1836 
      0.229170      2388.5322         2.4646         1.6077     10737.4316 
     3378.4382      5724.2319     16229.3926         1.7429      9311.6113 
        7.5740         5.1141
    3112.98920 
       41.5982        69.6652        47.0961        92.2344      1287.6250 
       61.5675       107.9138     12673.0146      7230.2690        21.8964 
       21.8964        56.0517        20.4217    0.000562703       0.258712 
     -999.2500      9619.1025      5102.7827      9779.6084      6408.9800 
      0.232841      2470.6216         2.4642         1.6149     10959.2031 
     3315.7839      5729.9536     16242.3359         1.7528      9266.6553 
        7.4564         5.0090
    3113.14160 
       41.4983        68.4385        46.7050        90.1720      1283.1091 
       61.8551       108.5964     12515.1758      7128.4819        21.6550 
       21.6550        54.9991        20.0077    0.000546971       0.259885 
     -999.2500      9619.6729      5102.8818      9779.7881      6417.3604 
      0.233896      2512.5522         2.4642         1.6169     11059.8252 
     3239.5540      5696.5684     16166.8164         1.7557      9208.4082 
        7.3120         4.8811
    3113.29400 
       41.4028        68.2164        47.3691        89.0638      1278.8046 
       62.1309       108.7770     12388.0615      7075.7734        21.1195 
       21.1195        53.3309        19.8268    0.000538912       0.257893 
     -999.2500      9620.2441      5102.9805      9781.0850      6403.4194 
      0.232103      2504.8074         2.4643         1.6133     11016.4531 
     3198.8945      5664.8428     16095.0508         1.7508      9193.1201 
        7.2345         4.8129
