~Version Information Block
VERS .                  2.0:  CWLS LOG ASCII STANDARD - VERSION 2.0
WRAP .                  YES:  Multiple lines per depth step
~Well Information Block
#MNEM.UNIT        Data Type   Information
#---------- ----------------  -----------
STRT .M          2945.58720:  START DEPTH
STOP .M          3894.88680:  STOP DEPTH
STEP .M             0.15240:  STEP
NULL .              -999.25:  NULL VALUE
COMP .                     :  COMPANY
WELL .       RAAG-97-02-106:  WELL
FLD  .                     :  FIELD
LOC  .                     :  LOCATION
CTRY .                     :  COUNTRY
STAT .                     :  STATE
CNTY .                     :  COUNTY
SRVC .                     :  SERVICE COMPANY
DATE .                     :  DATE
API  .                     :  API NUMBER
UWI  .                     :  UNIQUE WELL ID
~Curve Information Block
#MNEM.UNIT         API CODE   Curve Description
#---------- ----------------  -----------------
DEPTH.M                    :  
ANGLE_FAIL.DEG                  :  Fail Angle
BRIT_IND.                     :  Brittleness Index
BRIT_PR.                     :  Brittleness Index from Poisson's Ratio
BRIT_YM.                     :  Brittleness Index from Young's Modulus
CS   .M/MIN                 :  Compressive Strength
DEN  .G/C3                 :  (HDRS-H)                (2in)                   Standard Resolution Formation Density
DTCO .US/F                 :  Compressional slowness
DTSM .US/F                 :  Description
IP   .RAYL/M2                 :  P Impedence
IS   .RAYL/M2                 :  S Impedance
KBULK.                     :  Bulk Mudulus
LAMBDA.                     :  Lambda
LAMRHO.                     :  
MU   .CP                   :  Mu
MURHO.(GF/C3S)2                 :  Mu*Rho
PR   .                     :  Poisson's ratio
PRESS_FG.PSI                  :  Fracture Gradient Pressure
PRESS_OB.PSI                  :  Over-burden Pressure
PRESS_PP.PSI                  :  Pore Pressure
PRESS_SHMAX.PSI                  :  Horizontal Stress (Max)
PRESS_SHMIN.PSI                  :  Horizontal Stress (Min)
PR_STAT.                     :  Poisson's ratio (Static)
PZS  .PSI                  :  Processed Zone Stress
SHMAX_GRAD.                     :  Horizontal Stress Gradient (Max)
SHMIN_GRAD.                     :  Horizontal Stress Gradient (Min)
STRESS_CUM.PSI                  :  Cumulative stress (SHPZ)
UCS_BF.PSI                  :  Uniaxial Compressive Strength (BF)
UCS_LAL.PSI                  :  Uniaxial Compressive Strength (lal)
VP   .FT/S                 :  Compressional velocity
VPVS .                     :  Vp / Vs ratio
VS   .FT/S                 :  Shear velocity
YM   .                     :  Youngs' Modulus
YM_STAT.                     :  Youngs' Modulus (Static)
~Parameter Information Block
#MNEM.UNIT            Value   Description
#---------- ----------------  -----------
PROJECT.          RDG_13Jul21:  
SET  .              GEOMECH:  
~Other Information Block
~Ascii Log Data
# ...
    3633.21600 
       43.3509        64.1958        29.3414        99.0501      1369.2021 
        2.6366        56.6662       108.3974     14181.6689      7413.6563 
       34.5888        34.5888        91.1951        20.8463         0.0006 
      0.311976      -999.2500     11494.0596      5323.4556     11685.0098 
     7675.0669       0.280778      1165.0162         2.5082         1.6475 
    10880.1670      3572.8789      6351.0142     17647.2109         1.9129 
     9225.3145         7.9335         5.4404
    3633.36840 
       43.6637        62.7558        26.4792        99.0324      1384.2548 
        2.6297        55.8195       108.6185     14359.3438      7379.3232 
       36.9936        36.9936        97.2819        20.7075         0.0006 
      0.320562      -999.2500     11494.6602      5323.4941     11680.8818 
     7770.2095       0.288506      1124.7150         2.5072         1.6678 
    10989.8486      3572.2012      6469.3491     17914.8926         1.9459 
     9206.5342         7.9323         5.4393
    3633.52080 
       43.4365        64.3860        29.4235        99.3486      1373.3055 
        2.6198        56.4337       107.9013     14149.8740      7400.5522 
       34.6137        34.6137        90.6826        20.9051         0.0006 
      0.311730      -999.2500     11495.2588      5323.5322     11686.3750 
     7672.9170       0.280557      1072.9559         2.5083         1.6469 
    10691.7461      3584.3198      6383.1567     17719.9199         1.9120 
     9267.7285         7.9544         5.4596
    3633.67320 
       43.1246        67.9970        34.9082       101.0858      1358.4094 
        2.6134        57.2839       106.2814     13905.6289      7494.9028 
       31.0014        31.0014        81.0194        21.4943         0.0006 
      0.295275      -999.2500     11495.8574      5323.5708     11695.7920 
     7497.1572       0.265748      1041.6598         2.5102         1.6091 
    10277.6338      3651.2092      6266.8872     17456.9121         1.8553 
     9408.9854         8.0760         5.5719
    3633.82560 
       43.1063        70.9618        38.0649       103.8587      1357.5394 
        2.6159        57.3341       104.6928     13906.9287      7616.0054 
       29.5861        29.5861        77.3956        22.1730         0.0006 
      0.285805      -999.2500     11496.4561      5323.6084     11701.3076 
     7399.4248       0.257225      1060.0060         2.5112         1.5880 
    10118.8613      3759.0464      6260.1313     17441.6289         1.8260 
     9551.7520         8.2701         5.7528
    3633.97800 
       43.1705        73.0553        39.5425       106.5681      1360.5914 
        2.6309        57.1583       103.6284     14029.2832      7738.1274 
       29.2920        29.2920        77.0636        22.7600         0.0006 
      0.281373      -999.2500     11497.0557      5323.6470     11704.1738 
     7354.6880       0.253235      1148.4557         2.5117         1.5783 
    10206.2871      3865.6829      6283.8472     17495.2754         1.8130 
     9649.8643         8.4598         5.9317
    3634.13040 
       43.2378        74.8879        40.4319       109.3438      1363.7964 
        2.6571        56.9745       102.8609     14214.9316      7873.6235 
       29.3839        29.3839        78.0764        23.3313         0.0007 
      0.278704      -999.2500     11497.6543      5323.6851     11706.1279 
     7328.1777       0.250834      1278.8389         2.5120         1.5726 
    10414.0332      3976.2341      6308.8018     17551.7246         1.8054 
     9721.8672         8.6541         6.1173
    3634.28280 
       43.2868        76.9368        42.1937       111.6800      1366.1342 
        2.6621        56.8409       101.7867     14274.9365      7971.5713 
       28.8053        28.8053        76.6819        23.8709         0.0007 
      0.273419      -999.2500     11498.2529      5323.7236     11709.3828 
     7275.6641       0.246077      1323.4952         2.5126         1.5612 
    10398.3184      4070.2993      6327.0391     17592.9785         1.7907 
     9824.4697         8.8176         6.2751
    3634.43520 
       43.3142        79.5325        45.0578       114.0071      1367.4438 
        2.6541        56.7662       100.3669     14250.6563      8059.9829 
       27.5633        27.5633        73.1545        24.4770         0.0007 
      0.264827      -999.2500     11498.8525      5323.7612     11714.2246 
     7191.4141       0.238344      1288.8198         2.5136         1.5431 
    10160.4678      4164.9316      6337.2681     17616.1172         1.7681 
     9963.4434         8.9805         6.4339
    3634.58760 
       43.2644        81.4770        47.7179       115.2361      1365.0656 
        2.6489        56.9019        99.4776     14189.1787      8116.3066 
       26.2688        26.2688        69.5839        24.8684         0.0007 
      0.256846      -999.2500     11499.4512      5323.7998     11718.6934 
     7114.6079       0.231162      1271.3359         2.5144         1.5265 
     9971.8877      4215.2827      6318.6997     17574.1152         1.7482 
    10052.5127         9.0665         6.5184
    3634.74000 
       43.0895        82.7785        50.1364       115.4207      1356.7388 
        2.6603        57.3803        99.3315     14131.1299      8163.0581 
       24.9666        24.9666        66.4178        25.0484         0.0007 
      0.249591      -999.2500     11500.0508      5323.8379     11722.7559 
     7045.9419       0.224632      1355.6744         2.5151         1.5117 
    10003.2324      4222.8672      6253.9185     17427.5742         1.7311 
    10067.2988         9.0795         6.5311
    3634.89240 
       42.9546        83.9539        51.5645       116.3433      1350.3499 
        2.6927        57.7511        99.4115     14211.7832      8256.0488 
       24.3804        24.3804        65.6501        25.3134         0.0007 
      0.245306      -999.2500     11500.6504      5323.8760     11725.3789 
     7006.0806       0.220776      1554.3108         2.5156         1.5031 
    10320.7822      4260.8633      6204.4551     17315.6855         1.7214 
    10059.1982         9.1440         6.5949
    3635.04480 
       43.0150        84.1195        50.6956       117.5434      1353.2089 
        2.7147        57.5848        99.4642     14368.9424      8318.8984 
       25.0706        25.0706        68.0584        25.4926         0.0007 
      0.247913      -999.2500     11501.2490      5323.9141     11724.7734 
     7030.7642       0.223122      1704.8447         2.5153         1.5083 
    10671.2188      4310.5049      6226.5630     17365.6953         1.7273 
    10053.8691         9.2280         6.6782
    3635.19720 
       43.1692        83.0103        48.5255       117.4952      1360.5289 
        2.7070        57.1619        99.6000     14434.1914      8283.9932 
       26.2643        26.2643        71.0968        25.3510         0.0007 
      0.254424      -999.2500     11501.8477      5323.9521     11722.3154 
     7092.4971       0.228981      1671.9591         2.5147         1.5215 
    10728.9121      4308.5073      6283.3608     17494.1777         1.7424 
    10040.1621         9.2247         6.6748
    3635.34960 
       43.2938        81.0786        45.9479       116.2092      1366.4680 
        2.6899        56.8218       100.0809     14429.1318      8192.2637 
       27.5002        27.5002        73.9735        24.9498         0.0007 
      0.262156      -999.2500     11502.4463      5323.9902     11719.2236 
     7166.9097       0.235941      1571.0049         2.5139         1.5374 
    10675.8291      4255.3301      6329.6455     17598.8730         1.7613 
     9991.9121         9.1346         6.5856
    3635.50200 
       43.3268        79.1160        43.6060       114.6261      1368.0477 
        2.6886        56.7318       100.9477     14444.6563      8117.7822 
       28.5846        28.5846        76.8513        24.5107         0.0007 
      0.269182      -999.2500     11503.0449      5324.0283     11716.4121 
     7235.6978       0.242264      1572.3301         2.5132         1.5521 
    10816.0557      4190.2568      6341.9873     17626.7930         1.7794 
     9906.1172         9.0238         6.4764
