~Version Information Block
VERS .                  2.0:  CWLS LOG ASCII STANDARD - VERSION 2.0
WRAP .                  YES:  Multiple lines per depth step
~Well Information Block
#MNEM.UNIT        Data Type   Information
#---------- ----------------  -----------
STRT .M          2676.97280:  START DEPTH
STOP .M          3838.10840:  STOP DEPTH
STEP .M             0.15240:  STEP
NULL .              -999.25:  NULL VALUE
COMP .                     :  COMPANY
WELL .      RAAG-107-07-210:  WELL
FLD  .                     :  FIELD
LOC  .                     :  LOCATION
CTRY .                     :  COUNTRY
STAT .                     :  STATE
CNTY .                     :  COUNTY
SRVC .                     :  SERVICE COMPANY
DATE .                     :  DATE
API  .                     :  API NUMBER
UWI  .                     :  UNIQUE WELL ID
~Curve Information Block
#MNEM.UNIT         API CODE   Curve Description
#---------- ----------------  -----------------
DEPTH.M                    :  
ANGLE_FAIL.DEG                  :  Fail Angle
BRIT_IND.                     :  Brittleness Index
BRIT_PR.                     :  Brittleness Index from Poisson's Ratio
BRIT_YM.                     :  Brittleness Index from Young's Modulus
CS   .M/MIN                 :  Compressive Strength
DTCO .US/F                 :  Compressional slowness
DTSM .US/F                 :  Fast Shear Slowness
IP   .RAYL/M2                 :  P Impedence
IS   .RAYL/M2                 :  S Impedance
KBULK.                     :  Bulk Mudulus
LAMBDA.                     :  Lambda
LAMRHO.                     :  
MU   .CP                   :  Mu
MURHO.(GF/C3S)2                 :  Mu*Rho
PR   .                     :  Poisson's ratio
PRESS_FG.PSI                  :  Fracture Gradient Pressure
PRESS_OB.PSI                  :  Over-burden Pressure
PRESS_PP.PSI                  :  Pore Pressure
PRESS_SHMAX.PSI                  :  Horizontal Stress (Max)
PRESS_SHMIN.PSI                  :  Horizontal Stress (Min)
PR_STAT.                     :  Poisson's ratio (Static)
PZS  .PSI                  :  Processed Zone Stress
SHMAX_GRAD.                     :  Horizontal Stress Gradient (Max)
SHMIN_GRAD.                     :  Horizontal Stress Gradient (Min)
STRESS_CUM.PSI                  :  Cumulative stress (SHPZ)
UCS_BF.PSI                  :  Uniaxial Compressive Strength (BF)
UCS_LAL.PSI                  :  Uniaxial Compressive Strength (lal)
VP   .FT/S                 :  Compressional velocity
VPVS .                     :  Vp / Vs ratio
VS   .FT/S                 :  Shear velocity
YM   .                     :  Youngs' Modulus
YM_STAT.                     :  Youngs' Modulus (Static)
~Parameter Information Block
#MNEM.UNIT            Value   Description
#---------- ----------------  -----------
PROJECT.          RDG_13Jul21:  
SET  .              GEOMECH:  
~Other Information Block
~Ascii Log Data
# ...
    3769.37600 
       43.2288        64.7704        30.8392        98.7016      1363.3694 
       56.9989       108.1052     14027.9023      7396.2681        33.3066 
       33.3066        87.3725        20.8536    0.000588837       0.307482 
     -999.2500     12136.1777      5353.2373     12348.4922      7889.8989 
      0.276734      2584.1545         2.5252         1.6134     14148.1074 
     3559.5396      6305.4746     17544.1992         1.8966      9250.2490 
        7.9091         5.4180
    3769.52840 
       42.7991        68.6102        36.4090       100.8113      1343.0209 
       58.1804       107.1175     13922.9248      7562.1753        29.9046 
       29.9046        79.4748        21.5180    0.000615550       0.290773 
     -999.2500     12136.7764      5353.2549     12358.8086      7696.1147 
      0.261696      2563.2681         2.5272         1.5738     13718.7656 
     3640.6038      6147.9722     17187.9180         1.8411      9335.5430 
        8.0568         5.5541
    3769.68080 
       42.0786        72.1709        44.3244       100.0174      1309.5309 
       60.1974       106.7748     13527.0879      7626.2891        24.9522 
       24.9522        66.6615        21.7701    0.000626032       0.267027 
     -999.2500     12137.3721      5353.2715     12372.5674      7433.4756 
      0.240324      2547.9021         2.5299         1.5200     13162.7559 
     3610.0098      5893.3789     16612.0137         1.7737      9365.5049 
        8.0012         5.5027
    3769.83320 
       41.6227        74.0409        49.5005        98.5814      1288.7346 
       61.4971       106.7300     13225.9668      7620.7124        22.0257 
       22.0257        58.7757        21.7633    0.000625117       0.251499 
     -999.2500     12137.9688      5353.2891     12381.3896      7269.5483 
      0.226349      2512.9438         2.5316         1.4864     12764.9844 
     3554.9419      5738.1733     16260.9287         1.7355      9369.4365 
        7.9007         5.4103
    3769.98560 
       41.3802        74.5495        51.8844        97.2146      1277.7892 
       62.1962       106.9300     13041.9404      7585.8892        20.6670 
       20.6670        55.0008        21.6233    0.000619417       0.244347 
     -999.2500     12138.5664      5353.3062     12385.6924      7196.0591 
      0.219912      2473.1504         2.5324         1.4713     12538.4189 
     3502.8606      5657.3721     16078.1514         1.7192      9351.9121 
        7.8050         5.3229
    3770.13800 
       41.3940        74.3206        51.5820        97.0591      1278.4095 
       62.1563       106.9872     13036.5527      7573.8398        20.7734 
       20.7734        55.2256        21.5774    0.000617451       0.245254 
     -999.2500     12139.1631      5353.3237     12385.8467      7205.4893 
      0.220729      2420.4138         2.5323         1.4732     12451.8066 
     3496.9543      5661.9351     16088.4727         1.7213      9346.9131 
        7.7941         5.3130
    3770.29040 
       41.7905        73.8287        48.1216        99.5357      1296.3525 
       61.0167       106.4933     13339.1621      7642.8438        22.8839 
       22.8839        61.1071        21.8750    0.000628753       0.255635 
     -999.2500     12139.7598      5353.3403     12381.0820      7313.3066 
      0.230072      2310.8418         2.5312         1.4951     12448.2969 
     3591.4988      5794.7705     16388.9551         1.7453      9390.2617 
        7.9675         5.4717
    3770.44280 
       42.3193        73.9439        44.4322       103.4555      1320.6353 
       59.5184       105.5205     13767.2832      7765.3789        25.6425 
       25.6425        68.9359        22.4306    0.000649076       0.266703 
     -999.2500     12140.3574      5353.3579     12375.8105      7431.2935 
      0.240033      2302.4583         2.5300         1.5192     12667.5039 
     3743.2832      5977.1582     16801.5273         1.7729      9476.8320 
        8.2419         5.7264
    3770.59520 
       42.7215        74.6971        42.3424       107.0517      1339.3776 
       58.3954       104.4997     14112.3516      7886.1128        27.6570 
       27.6570        74.7769        23.0019    0.000669416       0.272973 
     -999.2500     12140.9541      5353.3750     12373.0156      7499.7280 
      0.245676      2324.3179         2.5293         1.5331     12848.0918 
     3884.8506      6119.9966     17124.6367         1.7895      9569.4053 
        8.4936         5.9639
    3770.74760 
       42.9037        75.7968        42.0927       109.5008      1347.9502 
       57.8912       103.7153     14296.9736      7980.2012        28.3696 
       28.3696        77.0362        23.4523    0.000685485       0.273722 
     -999.2500     12141.5518      5353.3921     12373.2129      7508.3359 
      0.246350      2334.9146         2.5293         1.5348     12886.5010 
     3982.5273      6185.9307     17273.7832         1.7916      9641.7793 
        8.6651         6.1278
    3770.90000 
       43.0635        76.5802        41.6747       111.4858      1355.5082 
       57.4515       103.1248     14456.9697      8054.0723        29.0893 
       29.0893        79.2678        23.8050    0.000698234       0.274976 
     -999.2500     12142.1494      5353.4092     12373.1348      7522.4556 
      0.247478      2367.3623         2.5291         1.5376     12979.6357 
     4062.4451      6244.3745     17405.9863         1.7950      9696.9883 
        8.8040         6.2619
    3771.05240 
       43.4072        76.8458        39.5287       114.1629      1371.9010 
       56.5131       102.4654     14744.0771      8131.8525        31.1423 
       31.1423        85.1338        24.1895    0.000711785       0.281414 
     -999.2500     12142.7461      5353.4263     12370.1797      7594.0815 
      0.253272      2461.7705         2.5284         1.5522     13311.7051 
     4171.3003      6372.1460     17695.0137         1.8131      9759.3916 
        8.9914         6.4446
    3771.20480 
       43.8109        77.1923        37.2010       117.1835      1391.3894 
       55.4241       101.6381     15057.7813      8211.1328        33.5606 
       33.5606        91.8914        24.6242    0.000725732       0.288397 
     -999.2500     12143.3438      5353.4434     12366.8584      7673.0454 
      0.259557      2584.3652         2.5276         1.5683     13714.8223 
     4295.5923      6525.8467     18042.6914         1.8338      9838.8301 
        9.2028         6.6531
    3771.35720 
       44.0779        77.8490        35.7452       119.9527      1404.4304 
       54.7111       101.0707     15349.8711      8309.1172        35.3996 
       35.3996        97.5357        25.0579    0.000743156       0.292764 
     -999.2500     12143.9404      5353.4604     12364.9727      7723.2920 
      0.263488      2726.2607         2.5271         1.5785     14099.1055 
     4410.9126      6629.7930     18277.8262         1.8474      9894.0635 
        9.3967         6.8466
    3771.50960 
       44.1959        77.7769        34.3286       121.2252      1410.2279 
       54.3981       101.2335     15583.5459      8373.8623        36.8917 
       36.8917       102.6038        25.2125    0.000754782       0.297014 
     -999.2500     12144.5381      5353.4775     12363.1357      7772.5820 
      0.267313      2862.1880         2.5267         1.5885     14469.5391 
     4464.3428      6676.2856     18382.9941         1.8610      9878.1533 
        9.4858         6.9363
    3771.66200 
       44.1523        75.8151        32.5183       119.1120      1408.0834 
       54.5136       102.4354     15608.3271      8306.3672        37.8385 
       37.8385       105.6284        24.7159    0.000742664       0.302445 
     -999.2500     12145.1348      5353.4941     12360.5967      7835.9014 
      0.272200      2932.7378         2.5260         1.6014     14737.2783 
     4375.7627      6659.0674     18344.0449         1.8791      9762.2500 
        9.3378         6.7877
