~Version Information Block
VERS .                  2.0:  CWLS LOG ASCII STANDARD - VERSION 2.0
WRAP .                  YES:  Multiple lines per depth step
~Well Information Block
#MNEM.UNIT        Data Type   Information
#---------- ----------------  -----------
STRT .M          2556.50000:  START DEPTH
STOP .M          3600.74480:  STOP DEPTH
STEP .M             0.15240:  STEP
NULL .              -999.25:  NULL VALUE
COMP .                     :  COMPANY
WELL .      RAAG-100-07-213:  WELL
FLD  .                     :  FIELD
LOC  .                     :  LOCATION
CTRY .                     :  COUNTRY
STAT .                     :  STATE
CNTY .                     :  COUNTY
SRVC .                     :  SERVICE COMPANY
DATE .                     :  DATE
API  .                     :  API NUMBER
UWI  .                     :  UNIQUE WELL ID
~Curve Information Block
#MNEM.UNIT         API CODE   Curve Description
#---------- ----------------  -----------------
DEPTH.M                    :  
ANGLE_FAIL.DEG                  :  Fail Angle
BRIT_IND.                     :  Brittleness Index
BRIT_PR.                     :  Brittleness Index from Poisson's Ratio
BRIT_YM.                     :  Brittleness Index from Young's Modulus
CS   .M/MIN                 :  Compressive Strength
DTCO .US/F                 :  Compressional slowness
DTSM .US/F                 :  Description
IP   .RAYL/M2                 :  P Impedence
IS   .RAYL/M2                 :  S Impedance
KBULK.                     :  Bulk Mudulus
LAMBDA.                     :  Lambda
LAMRHO.                     :  
MU   .CP                   :  Mu
MURHO.(GF/C3S)2                 :  Mu*Rho
PR   .                     :  Poisson's ratio
PRESS_FG.PSI                  :  Fracture Gradient Pressure
PRESS_OB.PSI                  :  Over-burden Pressure
PRESS_PP.PSI                  :  Pore Pressure
PRESS_SHMAX.PSI                  :  Horizontal Stress (Max)
PRESS_SHMIN.PSI                  :  Horizontal Stress (Min)
PR_STAT.                     :  Poisson's ratio (Static)
PZS  .PSI                  :  Processed Zone Stress
SHMAX_GRAD.                     :  Horizontal Stress Gradient (Max)
SHMIN_GRAD.                     :  Horizontal Stress Gradient (Min)
STRESS_CUM.PSI                  :  Cumulative stress (SHPZ)
UCS_BF.PSI                  :  Uniaxial Compressive Strength (BF)
UCS_LAL.PSI                  :  Uniaxial Compressive Strength (lal)
VP   .FT/S                 :  Compressional velocity
VPVS .                     :  Vp / Vs ratio
VS   .FT/S                 :  Shear velocity
YM   .                     :  Youngs' Modulus
YM_STAT.                     :  Youngs' Modulus (Static)
~Parameter Information Block
#MNEM.UNIT            Value   Description
#---------- ----------------  -----------
PROJECT.          RDG_13Jul21:  
SET  .              GEOMECH:  
~Other Information Block
~Ascii Log Data
# ...
    3195.36080 
       38.2257        44.0324        33.1164        54.9484      1142.3889 
       71.7843       134.4526     10613.0674      5666.3193        19.3729 
       19.3729        48.4228        12.8454    0.000345599       0.300651 
     -999.2500     10849.0322      5270.5034     11027.6045      7277.5806 
      0.270586       472.0219         2.4928         1.6451      8699.2041 
     2050.0200      4708.0029     13930.6221         1.8730      7437.5630 
        4.8464         2.8851
    3195.51320 
       37.5604        46.8457        39.9139        53.7775      1115.3429 
       73.9284       133.7961     10192.0693      5631.5815        16.3624 
       16.3624        40.4489        12.8293    0.000341374       0.280258 
     -999.2500     10849.6240      5270.5625     11037.7861      7086.3804 
      0.252232       618.7101         2.4950         1.6018      8610.1807 
     2014.1229      4529.3955     13526.6016         1.8098      7474.0625 
        4.7644         2.8248
    3195.66560 
       37.4448        47.6783        42.0302        53.3264      1110.6957 
       74.3052       133.1599     10027.3379      5595.4043        15.5166 
       15.5166        37.9304        12.8078    0.000337002       0.273909 
     -999.2500     10850.2168      5270.6221     11041.2822      7028.9063 
      0.246518       806.6252         2.4957         1.5887      8871.0625 
     2000.3560      4499.0723     13458.0088         1.7921      7509.7705 
        4.7328         2.8017
    3195.81800 
       37.4179        47.2916        41.9916        52.5916      1109.6172 
       74.3930       133.3407      9932.6758      5541.6040        15.3610 
       15.3610        37.2393        12.6674    0.000330553       0.274025 
     -999.2500     10850.8096      5270.6816     11041.8438      7030.1338 
      0.246623       745.9466         2.4957         1.5889      8752.1611 
     1978.0043      4492.0508     13442.1250         1.7924      7499.5845 
        4.6814         2.7642
    3195.97040 
       37.0902        46.3691        42.0860        50.6523      1096.5205 
       75.4701       135.2130      9778.0342      5457.6792        14.8848 
       14.8848        36.0374        12.3028    0.000320617       0.273742 
     -999.2500     10851.4023      5270.7407     11042.5879      7027.6836 
      0.246368       566.9700         2.4957         1.5883      8389.3066 
     1919.4612      4407.2407     13250.2803         1.7916      7395.7378 
        4.5457         2.6660
    3196.12280 
       36.4163        45.9592        44.4372        47.4813      1069.9468 
       77.7187       137.7849      9430.5537      5319.3794        13.4506 
       13.4506        32.3437        11.7672    0.000304573       0.266689 
     -999.2500     10851.9941      5270.8003     11046.3623      6964.6494 
      0.240020       402.1170         2.4964         1.5740      7933.5327 
     1825.1235      4237.7651     12866.9170         1.7729      7257.6880 
        4.3237         2.5077
    3196.27520 
       35.7443        47.0430        49.1085        44.9774      1043.9016 
       80.0076       139.0758      9055.0449      5209.1899        11.6634 
       11.6634        27.7225        11.4165    0.000292086       0.252674 
     -999.2500     10852.5869      5270.8599     11053.0918      6842.4980 
      0.227407       288.2710         2.4978         1.5463      7461.5381 
     1751.8452      4075.0356     12498.8125         1.7383      7190.3218 
        4.1484         2.3847
    3196.42760 
       34.5391        51.6126        61.5045        41.7207       998.2740 
       84.2315       139.8696      8472.8926      5102.4995         8.4215 
        8.4215        19.7189        11.1192    0.000280244       0.215486 
     -999.2500     10853.1807      5270.9189     11069.0039      6536.7134 
      0.193938       218.6880         2.5013         1.4771      6710.8032 
     1658.1414      3797.9565     11872.0439         1.6605      7149.5181 
        3.9204         2.2275
    3196.58000 
       34.8636        51.8386        60.6117        43.0655      1010.4265 
       83.0790       138.3730      8590.5352      5157.7490         8.7945 
        8.7945        20.5925        11.3612    0.000286346       0.218165 
     -999.2500     10853.7725      5270.9785     11068.5537      6558.1563 
      0.196348       229.0689         2.5011         1.4819      6774.4502 
     1696.6157      3870.7629     12036.7363         1.6656      7226.8452 
        4.0146         2.2920
    3196.73240 
       35.8440        49.6139        52.7757        46.4522      1047.7405 
       79.6648       136.4928      9056.8652      5286.0898        11.0433 
       11.0433        26.1413        11.8043    0.000300773       0.241673 
     -999.2500     10854.3652      5271.0381     11059.5820      6750.0273 
      0.217506       286.1560         2.4989         1.5252      7272.3667 
     1794.8750      4098.8115     12552.5947         1.7133      7326.3926 
        4.2517         2.4569
    3196.88480 
       36.8796        46.5720        43.7386        49.4053      1088.1674 
       76.1677       135.4518      9573.2979      5383.2881        14.0820 
       14.0820        33.6885        12.1137    0.000311936       0.268784 
     -999.2500     10854.9580      5271.0972     11048.4795      6984.5430 
      0.241906       374.3186         2.4963         1.5781      7917.7231 
     1882.1583      4353.5923     13128.9238         1.7783      7382.6997 
        4.4584         2.6034
    3197.03720 
       38.1554        42.0890        32.7777        51.4004      1139.5079 
       72.0088       135.1199     10129.7490      5398.3984        18.5222 
       18.5222        44.3264        12.1776    0.000313689       0.301667 
     -999.2500     10855.5508      5271.1563     11033.8311      7289.9492 
      0.271500       467.1289         2.4929         1.6470      8714.1563 
     1941.9683      4688.8037     13887.1934         1.8764      7400.8340 
        4.5980         2.7037
    3197.18960 
       38.5892        40.1777        28.7426        51.6128      1157.3728 
       70.6314       135.5844     10335.9180      5384.3989        20.3945 
       20.3945        48.8477        12.1044    0.000312065       0.313772 
     -999.2500     10856.1426      5271.2153     11028.5068      7408.8647 
      0.282395       519.0230         2.4915         1.6738      9055.7754 
     1948.3763      4808.5249     14158.0098         1.9196      7375.4810 
        4.6129         2.7145
    3197.34200 
       38.1914        40.8336        31.1049        50.5623      1140.9835 
       71.8937       136.1519     10131.0479      5349.6040        18.9994 
       18.9994        45.4016        11.9760    0.000308044       0.306685 
     -999.2500     10856.7363      5271.2749     11032.6152      7339.1611 
      0.276017       440.4925         2.4924         1.6580      8759.3076 
     1916.7617      4698.6318     13909.4248         1.8938      7344.7402 
        4.5394         2.6614
    3197.49440 
       37.7235        42.2694        34.8379        49.7009      1121.9285 
       73.3987       136.2297      9887.4414      5327.2173        17.2210 
       17.2210        41.0030        11.9191    0.000305472       0.295486 
     -999.2500     10857.3291      5271.3340     11038.6260      7231.3740 
      0.265938       341.6227         2.4936         1.6335      8345.9941 
     1890.9767      4572.5503     13624.2197         1.8560      7340.5420 
        4.4791         2.6182
    3197.64680 
       36.6739        45.3835        43.5634        47.2036      1080.0520 
       76.8535       136.7778      9336.2480      5245.9033        13.6472 
       13.6472        32.1265        11.6901    0.000296217       0.269310 
     -999.2500     10857.9209      5271.3931     11051.3057      6990.2329 
      0.242379       264.2531         2.4963         1.5790      7708.9727 
     1816.9437      4301.8008     13011.7695         1.7797      7311.1260 
        4.3043         2.4939
