~Version Information Block
VERS .                  2.0:  CWLS LOG ASCII STANDARD - VERSION 2.0
WRAP .                  YES:  Multiple lines per depth step
~Well Information Block
#MNEM.UNIT        Data Type   Information
#---------- ----------------  -----------
STRT .M          2556.50000:  START DEPTH
STOP .M          3600.74480:  STOP DEPTH
STEP .M             0.15240:  STEP
NULL .              -999.25:  NULL VALUE
COMP .                     :  COMPANY
WELL .      RAAG-100-07-213:  WELL
FLD  .                     :  FIELD
LOC  .                     :  LOCATION
CTRY .                     :  COUNTRY
STAT .                     :  STATE
CNTY .                     :  COUNTY
SRVC .                     :  SERVICE COMPANY
DATE .                     :  DATE
API  .                     :  API NUMBER
UWI  .                     :  UNIQUE WELL ID
~Curve Information Block
#MNEM.UNIT         API CODE   Curve Description
#---------- ----------------  -----------------
DEPTH.M                    :  
ANGLE_FAIL.DEG                  :  Fail Angle
BRIT_IND.                     :  Brittleness Index
BRIT_PR.                     :  Brittleness Index from Poisson's Ratio
BRIT_YM.                     :  Brittleness Index from Young's Modulus
CS   .M/MIN                 :  Compressive Strength
DTCO .US/F                 :  Compressional slowness
DTSM .US/F                 :  Description
IP   .RAYL/M2                 :  P Impedence
IS   .RAYL/M2                 :  S Impedance
KBULK.                     :  Bulk Mudulus
LAMBDA.                     :  Lambda
LAMRHO.                     :  
MU   .CP                   :  Mu
MURHO.(GF/C3S)2                 :  Mu*Rho
PR   .                     :  Poisson's ratio
PRESS_FG.PSI                  :  Fracture Gradient Pressure
PRESS_OB.PSI                  :  Over-burden Pressure
PRESS_PP.PSI                  :  Pore Pressure
PRESS_SHMAX.PSI                  :  Horizontal Stress (Max)
PRESS_SHMIN.PSI                  :  Horizontal Stress (Min)
PR_STAT.                     :  Poisson's ratio (Static)
PZS  .PSI                  :  Processed Zone Stress
SHMAX_GRAD.                     :  Horizontal Stress Gradient (Max)
SHMIN_GRAD.                     :  Horizontal Stress Gradient (Min)
STRESS_CUM.PSI                  :  Cumulative stress (SHPZ)
UCS_BF.PSI                  :  Uniaxial Compressive Strength (BF)
UCS_LAL.PSI                  :  Uniaxial Compressive Strength (lal)
VP   .FT/S                 :  Compressional velocity
VPVS .                     :  Vp / Vs ratio
VS   .FT/S                 :  Shear velocity
YM   .                     :  Youngs' Modulus
YM_STAT.                     :  Youngs' Modulus (Static)
~Parameter Information Block
#MNEM.UNIT            Value   Description
#---------- ----------------  -----------
PROJECT.          RDG_13Jul21:  
SET  .              GEOMECH:  
~Other Information Block
~Ascii Log Data
# ...
    3129.52400 
       40.0566        66.1853        50.2811        82.0895      1219.4531 
       66.1059       114.3704     12086.6982      6986.0903        18.4929 
       18.4929        48.4774        18.6181    0.000525338       0.249157 
     -999.2500     10593.5918      5242.9858     10787.2344      6720.7461 
      0.224241      2472.9402         2.4913         1.5521     11587.3721 
     2947.8315      5236.9985     15127.2412         1.7301      8743.5195 
        6.7463         4.3916
    3129.67640 
       40.2791        66.8216        49.6740        83.9692      1229.1018 
       65.4372       113.4888     12239.3535      7057.1621        19.1025 
       19.1025        50.1947        18.9536    0.000536081       0.250978 
     -999.2500     10594.1816      5243.0532     10787.0898      6736.0107 
      0.225880      2609.9324         2.4911         1.5556     11891.8857 
     3014.6807      5305.3369     15281.8271         1.7343      8811.4404 
        6.8778         4.5038
    3129.82880 
       40.1430        67.3230        50.9795        83.6664      1223.1907 
       65.8458       113.6058     12189.0811      7064.7808        18.5141 
       18.5141        48.7514        18.9545    0.000537239       0.247061 
     -999.2500     10594.7725      5243.1216     10789.2988      6704.2319 
      0.222355      2729.7712         2.4915         1.5482     12068.0068 
     3003.8716      5263.4146     15186.9971         1.7253      8802.3701 
        6.8567         4.4856
    3129.98120 
       39.6029        67.4412        54.1526        80.7298      1199.9791 
       67.4833       115.0203     11916.7910      6991.6724        16.7688 
       16.7688        44.2429        18.5277    0.000526177       0.237542 
     -999.2500     10595.3623      5243.1895     10793.7451      6627.6958 
      0.213788      2750.9102         2.4924         1.5304     11957.2119 
     2899.8542      5100.5029     14818.4805         1.7044      8694.1172 
        6.6511         4.3111
    3130.13360 
       39.3881        65.0936        52.2302        77.9569      1190.8479 
       68.1422       116.9958     11799.1113      6872.1885        16.9703 
       16.9703        44.7651        17.9036    0.000508347       0.243309 
     -999.2500     10595.9512      5243.2573     10792.0557      6673.8643 
      0.218978      2652.5374         2.4919         1.5410     11852.8027 
     2802.9941      5037.1597     14675.1953         1.7169      8547.3135 
        6.4570         4.1485
    3130.28600 
       39.6725        61.3808        45.9078        76.8538      1202.9506 
       67.2707       118.5050     11933.6094      6774.2466        19.2233 
       19.2233        50.6302        17.4237    0.000493960       0.262277 
     -999.2500     10596.5420      5243.3252     10784.8564      6830.2676 
      0.236049      2621.3379         2.4901         1.5770     12103.2109 
     2764.8247      5121.2065     14865.3125         1.7616      8438.4609 
        6.3798         4.0845
    3130.43840 
       40.1715        58.0042        39.2146        76.7938      1224.4279 
       65.7600       119.4106     12192.9482      6714.7139        22.2357 
       22.2357        58.4932        17.1396    0.000485317       0.282356 
     -999.2500     10597.1318      5243.3931     10776.8018      7003.7388 
      0.254120      2522.5569         2.4881         1.6170     12252.5918 
     2762.7568      5272.1748     15206.8115         1.8159      8374.4629 
        6.3756         4.0810
    3130.59080 
       40.2517        57.2288        38.0532        76.4045      1227.9102 
       65.5193       119.6460     12200.3633      6681.0356        22.7168 
       22.7168        59.5764        17.0200    0.000480460       0.285841 
     -999.2500     10597.7217      5243.4604     10775.8643      7034.8789 
      0.257256      2475.6689         2.4878         1.6241     12221.0957 
     2749.3398      5296.8716     15262.6768         1.8261      8357.9883 
        6.3483         4.0585
    3130.74320 
       39.5443        58.7110        43.6985        73.7234      1197.4814 
       67.6627       120.3485     11754.4590      6608.6294        19.4756 
       19.4756        50.8193        16.7373    0.000470103       0.268904 
     -999.2500     10598.3115      5243.5283     10783.8770      6886.9971 
      0.242014      2515.2622         2.4895         1.5899     12004.5186 
     2657.6467      5083.1343     14779.1924         1.7787      8309.2051 
        6.1606         3.9047
    3130.89560 
       38.8139        60.2143        49.6108        70.8179      1166.7118 
       69.9251       121.3031     11332.2354      6532.4590        16.5683 
       16.5683        43.0735        16.4142    0.000459329       0.251168 
     -999.2500     10598.9023      5243.5962     10791.9307      6738.3364 
      0.226051      2614.5745         2.4912         1.5555     11905.8223 
     2559.6694      4871.7446     14301.0156         1.7348      8243.8105 
        5.9573         3.7402
    3131.04800 
       38.8512        59.5395        48.4041        70.6749      1168.2667 
       69.8084       121.6961     11372.7363      6523.7319        16.9774 
       16.9774        44.2210        16.3393    0.000458102       0.254788 
     -999.2500     10599.4922      5243.6636     10791.0469      6768.3926 
      0.229309      2619.8022         2.4909         1.5623     11976.3896 
     2554.8843      4882.3135     14324.9219         1.7433      8217.1924 
        5.9472         3.7322
    3131.20040 
       39.3710        58.1581        43.7054        72.6108      1190.1254 
       68.1947       121.2910     11696.5908      6576.2939        19.2266 
       19.2266        50.3149        16.5260    0.000465514       0.268884 
     -999.2500     10600.0820      5243.7314     10785.7139      6887.4395 
      0.241996      2599.8740         2.4895         1.5897     12174.6270 
     2619.9568      5032.1646     14663.8945         1.7786      8244.6318 
        6.0828         3.8414
    3131.35280 
       39.8482        58.6253        41.6786        75.5719      1210.4774 
       66.7361       119.7884     11997.6904      6684.1133        20.7811 
       20.7811        54.5898        17.0076    0.000480903       0.274964 
     -999.2500     10600.6729      5243.7988     10783.6904      6940.3301 
      0.247468      2635.8064         2.4889         1.6019     12352.2725 
     2720.7334      5173.8491     14984.3936         1.7950      8348.0566 
        6.2900         4.0105
    3131.50520 
       40.0625        59.3766        41.5015        77.2517      1219.7112 
       66.0879       118.7217     12117.9736      6745.6221        21.2518 
       21.2518        55.8385        17.3184    0.000489795       0.275495 
     -999.2500     10601.2627      5243.8667     10784.0596      6945.3169 
      0.247946      2731.5110         2.4889         1.6029     12553.6563 
     2778.5698      5238.8203     15131.3633         1.7964      8423.0635 
        6.4076         4.1076
    3131.65760 
       39.9913        62.1684        45.2932        79.0436      1216.6353 
       66.3029       117.1091     12090.6807      6845.3003        19.9493 
       19.9493        52.4683        17.8163    0.000504377       0.264120 
     -999.2500     10601.8525      5243.9346     10789.5420      6848.0674 
      0.237708      2824.7202         2.4901         1.5804     12545.5752 
     2840.7959      5217.1289     15082.2969         1.7663      8539.0430 
        6.5331         4.2120
    3131.81000 
       40.0437        63.0512        46.0861        80.0162      1218.8973 
       66.1447       116.4328     12127.6797      6889.6563        19.8135 
       19.8135        52.1459        18.0359    0.000510934       0.261742 
     -999.2500     10602.4434      5244.0020     10791.1514      6828.2837 
      0.235568      2801.6758         2.4903         1.5758     12459.9199 
     2874.8030      5233.0762     15118.3701         1.7603      8588.6475 
        6.6011         4.2690
