~Version Information Block
VERS .                  2.0:  CWLS LOG ASCII STANDARD - VERSION 2.0
WRAP .                  YES:  Multiple lines per depth step
~Well Information Block
#MNEM.UNIT        Data Type   Information
#---------- ----------------  -----------
STRT .M          2945.58720:  START DEPTH
STOP .M          3894.88680:  STOP DEPTH
STEP .M             0.15240:  STEP
NULL .              -999.25:  NULL VALUE
COMP .                     :  COMPANY
WELL .       RAAG-97-02-106:  WELL
FLD  .                     :  FIELD
LOC  .                     :  LOCATION
CTRY .                     :  COUNTRY
STAT .                     :  STATE
CNTY .                     :  COUNTY
SRVC .                     :  SERVICE COMPANY
DATE .                     :  DATE
API  .                     :  API NUMBER
UWI  .                     :  UNIQUE WELL ID
~Curve Information Block
#MNEM.UNIT         API CODE   Curve Description
#---------- ----------------  -----------------
DEPTH.M                    :  
ANGLE_FAIL.DEG                  :  Fail Angle
BRIT_IND.                     :  Brittleness Index
BRIT_PR.                     :  Brittleness Index from Poisson's Ratio
BRIT_YM.                     :  Brittleness Index from Young's Modulus
CS   .M/MIN                 :  Compressive Strength
DEN  .G/C3                 :  (HDRS-H)                (2in)                   Standard Resolution Formation Density
DTCO .US/F                 :  Compressional slowness
DTSM .US/F                 :  Description
IP   .RAYL/M2                 :  P Impedence
IS   .RAYL/M2                 :  S Impedance
KBULK.                     :  Bulk Mudulus
LAMBDA.                     :  Lambda
LAMRHO.                     :  
MU   .CP                   :  Mu
MURHO.(GF/C3S)2                 :  Mu*Rho
PR   .                     :  Poisson's ratio
PRESS_FG.PSI                  :  Fracture Gradient Pressure
PRESS_OB.PSI                  :  Over-burden Pressure
PRESS_PP.PSI                  :  Pore Pressure
PRESS_SHMAX.PSI                  :  Horizontal Stress (Max)
PRESS_SHMIN.PSI                  :  Horizontal Stress (Min)
PR_STAT.                     :  Poisson's ratio (Static)
PZS  .PSI                  :  Processed Zone Stress
SHMAX_GRAD.                     :  Horizontal Stress Gradient (Max)
SHMIN_GRAD.                     :  Horizontal Stress Gradient (Min)
STRESS_CUM.PSI                  :  Cumulative stress (SHPZ)
UCS_BF.PSI                  :  Uniaxial Compressive Strength (BF)
UCS_LAL.PSI                  :  Uniaxial Compressive Strength (lal)
VP   .FT/S                 :  Compressional velocity
VPVS .                     :  Vp / Vs ratio
VS   .FT/S                 :  Shear velocity
YM   .                     :  Youngs' Modulus
YM_STAT.                     :  Youngs' Modulus (Static)
~Parameter Information Block
#MNEM.UNIT            Value   Description
#---------- ----------------  -----------
PROJECT.          RDG_13Jul21:  
SET  .              GEOMECH:  
~Other Information Block
~Ascii Log Data
# ...
    3691.73760 
       39.0258        51.3781        36.9932        65.7629      1175.5753 
        2.6078        69.2633       127.1486     11475.8926      6251.4111 
       20.5291        20.5291        53.5358        14.9859         0.0004 
      0.289020      -999.2500     11724.5107      5336.7383     11934.8389 
     7517.9385       0.260118      1055.4816         2.5168         1.5854 
    10346.8398      2392.6519      4932.1504     14437.6582         1.8357 
     7864.8125         5.6034         3.4600
    3691.89000 
       39.1026        51.5386        36.3429        66.7344      1178.7971 
        2.6345        69.0248       127.1259     11633.5205      6316.5840 
       21.0818        21.0818        55.5403        15.1448         0.0004 
      0.290971      -999.2500     11725.1123      5336.7690     11934.4111 
     7539.1333       0.261874      1225.8767         2.5166         1.5898 
    10730.0195      2424.4082      4954.2051     14487.5469         1.8417 
     7866.2173         5.6714         3.5133
    3692.04240 
       39.2016        52.1777        36.4471        67.9084      1182.9668 
        2.6468        68.7177       126.4937     11740.0615      6377.7900 
       21.3376        21.3376        56.4766        15.3680         0.0004 
      0.290659      -999.2500     11725.7139      5336.7998     11935.1943 
     7536.0996       0.261593      1358.7080         2.5167         1.5891 
    10989.6152      2463.0034      4982.8252     14552.2871         1.8408 
     7905.5322         5.7536         3.5780
    3692.19480 
       39.0759        53.4709        38.4416        68.5003      1177.6770 
        2.6557        69.1076       125.9594     11713.0781      6426.3794 
       20.5592        20.5592        54.5995        15.5507         0.0004 
      0.284675      -999.2500     11726.3145      5336.8311     11938.9980 
     7472.6470       0.256208      1354.1295         2.5174         1.5756 
    10853.5527      2482.5525      4946.5313     14470.1875         1.8227 
     7939.0669         5.7950         3.6108
    3692.34720 
       38.7987        54.7881        40.8171        68.7591      1166.0795 
        2.6849        69.9726       126.1000     11695.2451      6489.6670 
       19.5716        19.5716        52.5472        15.6864         0.0005 
      0.277549      -999.2500     11726.9170      5336.8613     11943.3535 
     7398.1743       0.249794      1316.5540         2.5182         1.5598 
    10629.4570      2491.1189      4867.4502     14291.3018         1.8021 
     7930.2139         5.8131         3.6252
    3692.49960 
       38.6994        55.8874        42.3717        69.4031      1161.9480 
        2.7009        70.2842       125.7582     11712.9297      6546.1665 
       19.0633        19.0633        51.4881        15.8659         0.0005 
      0.272885      -999.2500     11727.5176      5336.8926     11946.3818 
     7350.2256       0.245596      1304.8168         2.5187         1.5497 
    10510.0850      2512.4844      4839.4414     14227.9434         1.7893 
     7951.7666         5.8582         3.6611
    3692.65200 
       38.7300        57.5145        44.2655        70.7635      1163.2197 
        2.7034        70.1881       124.5280     11739.9580      6617.0288 
       18.5899        18.5899        50.2565        16.1961         0.0005 
      0.267204      -999.2500     11728.1182      5336.9233     11949.8984 
     7292.5239       0.240483      1352.6266         2.5193         1.5374 
    10490.3018      2557.8477      4848.0537     14247.4258         1.7742 
     8030.3203         5.9534         3.7372
    3692.80440 
       38.3644        59.5325        49.0234        70.0415      1148.0870 
        2.6906        71.3430       124.0571     11494.8994      6610.5063 
       16.6267        16.6267        44.7351        16.2416         0.0005 
      0.252930      -999.2500     11728.7197      5336.9536     11957.6406 
     7150.2891       0.227637      1525.1414         2.5208         1.5074 
    10550.8604      2533.7312      4746.0977     14016.7939         1.7389 
     8060.8027         5.9029         3.6967
    3692.95680 
       37.8694        62.4812        56.0006        68.9617      1127.8452 
        2.6750        72.9270       123.4527     11180.1064      6604.4053 
       14.1154        14.1154        37.7584        16.3060         0.0005 
      0.231998      -999.2500     11729.3213      5336.9849     11968.2900 
     6949.9487       0.208798      1699.7711         2.5230         1.4651 
    10499.4395      2497.8333      4611.5059     13712.3408         1.6928 
     8100.2681         5.8273         3.6365
    3693.10920 
       38.0804        64.5807        58.1800        70.9814      1136.4413 
        2.6616        72.2488       121.3527     11228.5400      6685.0420 
       13.7890        13.7890        36.7006        16.7907         0.0005 
      0.225460      -999.2500     11729.9229      5337.0151     11971.9395 
     6889.5938       0.202914      1773.7441         2.5236         1.4523 
    10526.6758      2565.1445      4668.4136     13841.0693         1.6797 
     8240.4404         5.9687         3.7494
    3693.26160 
       39.6102        63.4494        48.9718        77.9270      1200.2911 
        2.6315        67.4609       117.3313     11889.3525      6835.9141 
       18.2018        18.2018        47.8973        17.7581         0.0005 
      0.253085      -999.2500     11730.5234      5337.0459     11959.4004 
     7152.9878       0.227776      1757.8293         2.5209         1.5077 
    11021.6338      2801.9556      5102.6748     14823.3936         1.7392 
     8522.8730         6.4549         4.1468
    3693.41400 
       41.2831        62.5337        39.4668        85.6006      1273.4276 
        2.5994        62.4777       113.3135     12681.3115      6992.1001 
       24.2504        24.2504        63.0367        18.8079         0.0005 
      0.281600      -999.2500     11731.1260      5337.0762     11945.5137 
     7443.3643       0.253440      1660.0916         2.5178         1.5689 
    11406.9111      3073.1863      5625.3447     16005.7041         1.8137 
     8825.0713         6.9920         4.6019
    3693.56640 
       42.2507        62.0486        34.1764        89.9208      1317.4606 
        2.5802        59.7115       111.2106     13170.5547      7071.5654 
       28.4670        28.4670        73.4494        19.3814         0.0005 
      0.297471      -999.2500     11731.7266      5337.1069     11937.6162 
     7613.9399       0.267724      1450.9879         2.5160         1.6048 
    11329.8564      3230.3201      5953.1421     16747.2012         1.8625 
     8991.9473         7.2945         4.8656
    3693.71880 
       42.4050        62.6518        34.1787        91.1250      1324.6075 
        2.5722        59.2780       110.4019     13225.7822      7101.3057 
       28.7944        28.7944        74.0642        19.6054         0.0005 
      0.297464      -999.2500     11732.3281      5337.1372     11938.2344 
     7614.2041       0.267718      1357.7958         2.5160         1.6047 
    11144.0000      3274.6882      6007.2808     16869.6660         1.8624 
     9057.8125         7.3787         4.9401
    3693.87120 
       42.3027        64.4397        36.7577        92.1218      1319.8673 
        2.5684        59.5650       109.4743     13142.5566      7150.8711 
       27.4326        27.4326        70.4569        19.9096         0.0006 
      0.289727      -999.2500     11732.9297      5337.1685     11943.0352 
     7530.8218       0.260754      1315.9534         2.5169         1.5871 
    10893.5498      3311.6040      5971.3442     16788.3750         1.8379 
     9134.5625         7.4485         5.0020
    3694.02360 
       42.0681        66.2360        40.3346        92.1374      1309.0511 
        2.5577        60.2270       108.7827     12943.9736      7166.3608 
       25.3485        25.3485        64.8330        20.0795         0.0006 
      0.278996      -999.2500     11733.5313      5337.1992     11949.3311 
     7417.5244       0.251097      1292.2780         2.5182         1.5631 
    10619.6045      3312.1812      5889.7729     16603.8574         1.8062 
     9192.6348         7.4496         5.0030
