~Version Information Block
VERS .                  2.0:  CWLS LOG ASCII STANDARD - VERSION 2.0
WRAP .                  YES:  Multiple lines per depth step
~Well Information Block
#MNEM.UNIT        Data Type   Information
#---------- ----------------  -----------
STRT .M          2945.58720:  START DEPTH
STOP .M          3894.88680:  STOP DEPTH
STEP .M             0.15240:  STEP
NULL .              -999.25:  NULL VALUE
COMP .                     :  COMPANY
WELL .       RAAG-97-02-106:  WELL
FLD  .                     :  FIELD
LOC  .                     :  LOCATION
CTRY .                     :  COUNTRY
STAT .                     :  STATE
CNTY .                     :  COUNTY
SRVC .                     :  SERVICE COMPANY
DATE .                     :  DATE
API  .                     :  API NUMBER
UWI  .                     :  UNIQUE WELL ID
~Curve Information Block
#MNEM.UNIT         API CODE   Curve Description
#---------- ----------------  -----------------
DEPTH.M                    :  
ANGLE_FAIL.DEG                  :  Fail Angle
BRIT_IND.                     :  Brittleness Index
BRIT_PR.                     :  Brittleness Index from Poisson's Ratio
BRIT_YM.                     :  Brittleness Index from Young's Modulus
CS   .M/MIN                 :  Compressive Strength
DEN  .G/C3                 :  (HDRS-H)                (2in)                   Standard Resolution Formation Density
DTCO .US/F                 :  Compressional slowness
DTSM .US/F                 :  Description
IP   .RAYL/M2                 :  P Impedence
IS   .RAYL/M2                 :  S Impedance
KBULK.                     :  Bulk Mudulus
LAMBDA.                     :  Lambda
LAMRHO.                     :  
MU   .CP                   :  Mu
MURHO.(GF/C3S)2                 :  Mu*Rho
PR   .                     :  Poisson's ratio
PRESS_FG.PSI                  :  Fracture Gradient Pressure
PRESS_OB.PSI                  :  Over-burden Pressure
PRESS_PP.PSI                  :  Pore Pressure
PRESS_SHMAX.PSI                  :  Horizontal Stress (Max)
PRESS_SHMIN.PSI                  :  Horizontal Stress (Min)
PR_STAT.                     :  Poisson's ratio (Static)
PZS  .PSI                  :  Processed Zone Stress
SHMAX_GRAD.                     :  Horizontal Stress Gradient (Max)
SHMIN_GRAD.                     :  Horizontal Stress Gradient (Min)
STRESS_CUM.PSI                  :  Cumulative stress (SHPZ)
UCS_BF.PSI                  :  Uniaxial Compressive Strength (BF)
UCS_LAL.PSI                  :  Uniaxial Compressive Strength (lal)
VP   .FT/S                 :  Compressional velocity
VPVS .                     :  Vp / Vs ratio
VS   .FT/S                 :  Shear velocity
YM   .                     :  Youngs' Modulus
YM_STAT.                     :  Youngs' Modulus (Static)
~Parameter Information Block
#MNEM.UNIT            Value   Description
#---------- ----------------  -----------
PROJECT.          RDG_13Jul21:  
SET  .              GEOMECH:  
~Other Information Block
~Ascii Log Data
# ...
    3104.08320 
       37.8874        51.4155        42.7804        60.0507      1128.5759 
        2.5717        72.8690       130.1423     10757.1338      6023.1162 
       16.7825        16.7825        43.1601        14.1065         0.0004 
      0.271659      -999.2500      9450.0781      5072.6455      9601.3428 
     6424.7969       0.244493      2952.9619         2.4585         1.6451 
    11955.5166      2209.1782      4616.3291     13723.2500         1.7860 
     7683.8994         5.2035         3.1521
    3104.23560 
       38.3340        50.6484        39.9337        61.3631      1146.8361 
        2.5653        71.4396       129.2796     10945.0566      6048.2080 
       18.1781        18.1781        46.6326        14.2597         0.0004 
      0.280199      -999.2500      9450.6563      5072.7520      9598.8828 
     6486.1274       0.252179      3058.9270         2.4578         1.6608 
    12290.1094      2250.8372      4737.7202     13997.8447         1.8096 
     7735.1704         5.2954         3.2220
    3104.38800 
       38.7186        49.7040        37.1568        62.2512      1162.7446 
        2.5598        70.2240       128.8069     11110.7100      6057.4258 
       19.5571        19.5571        50.0631        14.3339         0.0004 
      0.288530      -999.2500      9451.2344      5072.8579      9596.4375 
     6547.1694       0.259677      3079.2876         2.4570         1.6763 
    12452.9141      2279.1973      4844.8354     14240.1455         1.8342 
     7763.5566         5.3576         3.2696
    3104.54040 
       38.9231        48.7084        35.1088        62.3080      1171.2727 
        2.5559        69.5835       128.9672     11195.8447      6040.6558 
       20.4888        20.4888        52.3679        14.2764         0.0004 
      0.294674      -999.2500      9451.8125      5072.9639      9594.7529 
     6593.0195       0.265206      3079.2876         2.4564         1.6879 
    12544.6143      2281.0139      4902.7783     14371.2158         1.8534 
     7753.9102         5.3616         3.2727
    3104.69280 
       38.6657        48.4616        35.7205        61.2028      1160.5458 
        2.5653        70.3904       130.0523     11107.8838      6012.1060 
       19.9178        19.9178        51.0942        14.0904         0.0004 
      0.292838      -999.2500      9452.3906      5073.0698      9596.0342 
     6579.5269       0.263555      3079.2876         2.4566         1.6844 
    12517.6289      2245.7332      4829.9551     14206.4854         1.8476 
     7689.2139         5.2842         3.2135
    3104.84520 
       38.2409        48.5961        37.5661        59.6260      1143.0120 
        2.5716        71.7359       131.3129     10926.5576      5969.1504 
       18.7152        18.7152        48.1282        13.8554         0.0004 
      0.287302      -999.2500      9452.9697      5073.1763      9598.6807 
     6538.7622       0.258572      2953.1462         2.4572         1.6739 
    12183.8174      2195.7625      4712.1606     13940.0273         1.8305 
     7615.4004         5.1738         3.1296
    3104.99760 
       37.8080        46.2115        36.1262        56.2968      1125.3536 
        2.5803        73.1252       134.8258     10755.0732      5833.2036 
       18.4551        18.4551        47.6191        13.1871         0.0004 
      0.291622      -999.2500      9453.5479      5073.2817      9597.6914 
     6570.6807       0.262459      2752.6638         2.4568         1.6819 
    11846.6885      2091.6484      4595.0806     13675.1846         1.8438 
     7416.9775         4.9408         2.9549
    3105.15000 
       37.2823        43.0315        34.1625        51.9006      1104.1831 
        2.5745        74.8375       139.3925     10485.4844      5629.4795 
       18.0864        18.0864        46.5633        12.3096         0.0003 
      0.297513      -999.2500      9454.1270      5073.3882      9596.0986 
     6614.6777       0.267761      2627.6526         2.4562         1.6931 
    11684.6611      1957.0725      4456.7578     13362.2910         1.8626 
     7173.9888         4.6330         2.7291
    3105.30240 
       36.6658        41.7675        34.8635        48.6716      1079.7314 
        2.5697        76.8808       142.6735     10187.7959      5489.7744 
       16.9342        16.9342        43.5159        11.7281         0.0003 
      0.295410      -999.2500      9454.7061      5073.4937      9597.4941 
     6598.9419       0.265869      2764.3176         2.4565         1.6890 
    11926.5186      1860.3323      4299.7617     13007.1563         1.8558 
     7009.0088         4.4070         2.5668
    3105.45480 
       36.4726        40.7436        34.0081        47.4791      1072.1486 
        2.5817        77.5291       144.5237     10149.8672      5444.8516 
       16.9371        16.9371        43.7270        11.4832         0.0003 
      0.297976      -999.2500      9455.2842      5073.6001      9597.1270 
     6618.4194       0.268178      2955.0776         2.4562         1.6939 
    12346.9941      1825.0582      4251.6743     12898.3799         1.8641 
     6919.2803         4.3235         2.5076
    3105.60720 
       36.4955        41.3549        34.3457        48.3642      1073.0461 
        2.6063        77.4520       144.1233     10256.5342      5511.8726 
       17.0493        17.0493        44.4350        11.6568         0.0003 
      0.296963      -999.2500      9455.8623      5073.7061      9598.0986 
     6611.1313       0.267267      3050.3569         2.4563         1.6919 
    12522.9766      1851.2163      4257.3521     12911.2236         1.8608 
     6938.5054         4.3855         2.5515
    3105.75960 
       36.6782        43.5660        36.3060        50.8259      1080.2203 
        2.6245        76.8392       141.5444     10410.6992      5651.5796 
       16.9563        16.9563        44.5019        12.1700         0.0003 
      0.291082      -999.2500      9456.4414      5073.8115      9600.8799 
     6567.6616       0.261974      3070.0408         2.4569         1.6807 
    12475.4053      1924.6775      4302.8721     13014.1934         1.8421 
     7064.9194         4.5578         2.6747
    3105.91200 
       37.0994        45.7195        37.5624        53.8766      1096.8875 
        2.6229        75.4396       138.0951     10597.1611      5789.0967 
       17.2608        17.2608        45.2725        12.7775         0.0004 
      0.287313      -999.2500      9457.0195      5073.9180      9602.8545 
     6540.3242       0.258581      2991.2146         2.4573         1.6736 
    12263.0781      2017.1520      4409.6055     13255.6299         1.8305 
     7241.3857         4.7714         2.8299
    3106.06440 
       37.6053        46.6156        36.9689        56.2622      1117.1559 
        2.6084        73.7821       135.4603     10775.6924      5869.2695 
       18.1023        18.1023        47.2189        13.2065         0.0004 
      0.289093      -999.2500      9457.5977      5074.0234      9602.7842 
     6553.8721       0.260184      2696.9414         2.4571         1.6770 
    11701.6270      2090.5759      4541.2539     13553.4268         1.8360 
     7382.2368         4.9384         2.9531
    3106.21680 
       37.9182        49.1698        39.1499        59.1897      1129.8289 
        2.5999        72.7698       132.1805     10889.8955      5995.2505 
       17.9636        17.9636        46.7038        13.8247         0.0004 
      0.282550      -999.2500      9458.1768      5074.1294      9605.7637 
     6506.4390       0.254295      2401.5703         2.4578         1.6648 
    11016.0186      2182.0105      4624.6055     13741.9727         1.8164 
     7565.4136         5.1433         3.1065
    3106.36920 
       37.7915        51.0706        42.3665        59.7747      1124.6853 
        2.5912        73.1784       130.9398     10792.5674      6031.6484 
       16.8720        16.8720        43.7179        14.0404         0.0004 
      0.272900      -999.2500      9458.7549      5074.2354      9609.8203 
     6437.4399       0.245610      2355.4729         2.4587         1.6470 
    10785.8262      2200.4575      4590.6792     13665.2285         1.7893 
     7637.0942         5.1842         3.1375
