~Version Information Block
VERS .                  2.0:  CWLS LOG ASCII STANDARD - VERSION 2.0
WRAP .                  YES:  Multiple lines per depth step
~Well Information Block
#MNEM.UNIT        Data Type   Information
#---------- ----------------  -----------
STRT .M          2682.11640:  START DEPTH
STOP .M          3633.09240:  STOP DEPTH
STEP .M             0.15240:  STEP
NULL .              -999.25:  NULL VALUE
COMP .                     :  COMPANY
WELL .       RAAG-94-07-216:  WELL
FLD  .                     :  FIELD
LOC  .                     :  LOCATION
CTRY .                     :  COUNTRY
STAT .                     :  STATE
CNTY .                     :  COUNTY
SRVC .                     :  SERVICE COMPANY
DATE .                     :  DATE
API  .                     :  API NUMBER
UWI  .                     :  UNIQUE WELL ID
~Curve Information Block
#MNEM.UNIT         API CODE   Curve Description
#---------- ----------------  -----------------
DEPTH.M                    :  
ANGLE_FAIL.DEG                  :  Fail Angle
BRIT_IND.                     :  Brittleness Index
BRIT_PR.                     :  Brittleness Index from Poisson's Ratio
BRIT_YM.                     :  Brittleness Index from Young's Modulus
CS   .M/MIN                 :  Compressive Strength
IP   .RAYL/M2                 :  P Impedence
IS   .RAYL/M2                 :  S Impedance
KBULK.                     :  Bulk Mudulus
LAMBDA.                     :  Lambda
LAMRHO.                     :  
MU   .CP                   :  Mu
MURHO.(GF/C3S)2                 :  Mu*Rho
PR   .                     :  Poisson's ratio
PRESS_FG.PSI                  :  Fracture Gradient Pressure
PRESS_OB.PSI                  :  Over-burden Pressure
PRESS_PP.PSI                  :  Pore Pressure
PRESS_SHMAX.PSI                  :  Horizontal Stress (Max)
PRESS_SHMIN.PSI                  :  Horizontal Stress (Min)
PR_STAT.                     :  Poisson's ratio (Static)
PZS  .PSI                  :  Processed Zone Stress
SHMAX_GRAD.                     :  Horizontal Stress Gradient (Max)
SHMIN_GRAD.                     :  Horizontal Stress Gradient (Min)
STRESS_CUM.PSI                  :  Cumulative stress (SHPZ)
UCS_BF.PSI                  :  Uniaxial Compressive Strength (BF)
UCS_LAL.PSI                  :  Uniaxial Compressive Strength (lal)
VP   .FT/S                 :  Compressional velocity
VPVS .                     :  Vp / Vs ratio
VS   .FT/S                 :  Shear velocity
YM   .                     :  Youngs' Modulus
YM_STAT.                     :  Youngs' Modulus (Static)
~Parameter Information Block
#MNEM.UNIT            Value   Description
#---------- ----------------  -----------
PROJECT.          RDG_13Jul21:  
SET  .              GEOMECH:  
~Other Information Block
~Ascii Log Data
# ...
    2744.29560 
       32.2311        23.1770        22.1625        24.1916       914.4499 
     8483.4775      4240.0269        13.9485        13.9485        36.0137 
        6.9630         0.0002       0.333513      -999.2500      9031.9980 
     4991.3921      9150.1250      6669.4478       0.300161      2906.6274 
        2.4405         1.7789     12352.1504      1184.9625      3315.1697 
    10779.9512         2.0008      5387.8003         2.6934         1.4335
    2744.44800 
       31.3275        20.7396        20.6732        20.8060       882.7985 
     8168.1968      4040.8677        13.2028        13.2028        34.0622 
        6.3291         0.0002       0.337980      -999.2500      9032.5635 
     4991.5107      9149.0039      6703.7549       0.304182      2982.6272 
        2.4401         1.7879     12572.7646      1099.6292      3141.6006 
    10387.3271         2.0214      5138.6880         2.4564         1.2903
    2744.60040 
       30.9766        18.9655        18.9208        19.0101       870.6680 
     8029.5063      3922.8865        13.0972        13.0972        33.6949 
        5.9817         0.0002       0.343238      -999.2500      9033.1279 
     4991.6289      9147.5479      6744.7197       0.308914      3000.2388 
        2.4396         1.7988     12689.9170      1055.1617      3076.3340 
    10239.6904         2.0468      5002.6919         2.3307         1.2157
    2744.75280 
       30.6855        18.2984        18.5615        18.0354       860.6744 
     7922.4482      3860.4199        12.8317        12.8317        32.9595 
        5.8019         0.0002       0.344316      -999.2500      9033.6924 
     4991.7471      9147.7070      6753.4072       0.309884      2938.3601 
        2.4395         1.8010     12583.5342      1031.2574      3023.0840 
    10119.2354         2.0522      4930.8618         2.2625         1.1756
    2744.90520 
       30.4763        18.1418        18.6611        17.6226       853.5308 
     7878.1128      3841.6228        12.6354        12.6354        32.5485 
        5.7291         0.0002       0.344017      -999.2500      9034.2568 
     4991.8652      9148.4023      6751.3613       0.309615      2908.7734 
        2.4395         1.8003     12520.2695      1021.1836      2985.3069 
    10033.7813         2.0507      4892.7964         2.2336         1.1587
    2745.05760 
       30.1130        18.2705        19.3122        17.2288       841.1944 
     7832.9629      3837.7388        12.2730        12.2730        31.8988 
        5.6666         0.0002       0.342063      -999.2500      9034.8223 
     4991.9839      9149.7422      6736.4097       0.307857      2970.5173 
        2.4397         1.7962     12613.8535      1011.6001      2920.6309 
     9887.4805         2.0410      4844.3438         2.2060         1.1426
    2745.21000 
       29.8549        18.1610        19.4819        16.8401       832.4848 
     7801.1172      3826.8108        12.0692        12.0692        31.5685 
        5.5989         0.0002       0.341554      -999.2500      9035.3867 
     4992.1021      9150.5186      6732.7412       0.307399      2973.8572 
        2.4398         1.7952     12613.1973      1002.1661      2875.3962 
     9785.1572         2.0385      4800.0747         2.1788         1.1267
    2745.36240 
       29.9540        17.8549        18.9163        16.7934       835.8224 
     7812.2847      3816.6362        12.2266        12.2266        31.8984 
        5.5834         0.0002       0.343251      -999.2500      9035.9512 
     4992.2197      9150.4355      6746.2759       0.308926      2882.6448 
        2.4396         1.7987     12457.8418      1001.0343      2892.6887 
     9824.2734         2.0469      4799.5791         2.1755         1.1248
    2745.51480 
       30.3813        17.8495        18.2573        17.4416       850.2942 
     7903.3965      3842.5095        12.6952        12.6952        32.9339 
        5.6915         0.0002       0.345228      -999.2500      9036.5166 
     4992.3384      9150.2363      6762.1138       0.310705      2954.9158 
        2.4394         1.8028     12634.0596      1016.7742      2968.2695 
     9995.2422         2.0568      4859.5332         2.2209         1.1513
    2745.66720 
       30.7742        18.3204        18.1957        18.4452       863.7126 
     8030.7856      3902.6606        13.1177        13.1177        34.0320 
        5.8707         0.0002       0.345413      -999.2500      9037.0820 
     4992.4565      9150.7383      6763.9458       0.310872      3006.1155 
        2.4394         1.8032     12740.1221      1041.2885      3039.2231 
    10155.7432         2.0578      4935.3105         2.2912         1.1924
    2745.81960 
       30.9139        18.6790        18.4584        18.8997       868.5098 
     8069.5405      3929.1130        13.2099        13.2099        34.2416 
        5.9557         0.0002       0.344625      -999.2500      9037.6465 
     4992.5747      9151.6240      6758.1055       0.310162      2922.1260 
        2.4395         1.8015     12560.4619      1052.4458      3064.7942 
    10213.5869         2.0538      4973.0635         2.3230         1.2111
    2745.97200 
       30.7547        18.7602        18.8823        18.6381       863.0458 
     8015.5498      3914.9690        12.9636        12.9636        33.5951 
        5.9143         0.0002       0.343353      -999.2500      9038.2109 
     4992.6929      9152.6992      6748.4492       0.309018      3006.1968 
        2.4397         1.7988     12709.2920      1046.0183      3035.6777 
    10147.7236         2.0474      4956.3691         2.3047         1.2003
    2746.12440 
       30.5648        18.5913        19.0414        18.1413       856.5480 
     7940.1108      3882.6145        12.7161        12.7161        32.8960 
        5.8272         0.0002       0.342876      -999.2500      9038.7764 
     4992.8110      9153.4648      6745.0088       0.308588      2897.4768 
        2.4398         1.7978     12484.9717      1033.8463      3001.2339 
    10069.8096         2.0450      4924.0103         2.2699         1.1799
    2746.27680 
       30.6398        18.3932        18.4967        18.2898       859.1099 
     8006.1011      3899.3245        12.9543        12.9543        33.6882 
        5.8467         0.0002       0.344510      -999.2500      9039.3408 
     4992.9292      9153.4023      6758.1196       0.310059      2857.8628 
        2.4396         1.8012     12431.9648      1037.4803      3014.7898 
    10100.4736         2.0532      4919.3765         2.2803         1.1860
    2746.42920 
       30.7687        18.5433        18.3061        18.7804       863.5264 
     8103.5552      3941.2449        13.2142        13.2142        34.6008 
        5.9323         0.0002       0.345082      -999.2500      9039.9063 
     4993.0474      9153.7539      6762.9546       0.310574      2894.0435 
        2.4396         1.8024     12513.9961      1049.5138      3038.2324 
    10153.5029         2.0561      4938.2573         2.3146         1.2062
    2746.58160 
       30.8177        19.2835        19.1862        19.3809       865.2064 
     8144.9507      3986.9629        13.1533        13.1533        34.5485 
        6.0519         0.0002       0.342441      -999.2500      9040.4717 
     4993.1650      9155.3633      6742.6406       0.308197      2962.1411 
        2.4398         1.7969     12609.5635      1064.2968      3047.1743 
    10173.7295         2.0429      4980.0522         2.3567         1.2310
    2746.73400 
       30.9329        20.7701        21.0783        20.4618       869.1637 
     8180.5244      4058.3928        12.9411        12.9411        33.9799 
        6.2727         0.0002       0.336765      -999.2500      9041.0361 
     4993.2837      9158.1348      6699.0581       0.303088      2970.7532 
        2.4404         1.7852     12539.6221      1091.0647      3068.2883 
    10221.4902         2.0157      5070.9243         2.4323         1.2759
