~Version Information Block
VERS .                  2.0:  CWLS LOG ASCII STANDARD - VERSION 2.0
WRAP .                  YES:  Multiple lines per depth step
~Well Information Block
#MNEM.UNIT        Data Type   Information
#---------- ----------------  -----------
STRT .M          2682.11640:  START DEPTH
STOP .M          3633.09240:  STOP DEPTH
STEP .M             0.15240:  STEP
NULL .              -999.25:  NULL VALUE
COMP .                     :  COMPANY
WELL .       RAAG-94-07-216:  WELL
FLD  .                     :  FIELD
LOC  .                     :  LOCATION
CTRY .                     :  COUNTRY
STAT .                     :  STATE
CNTY .                     :  COUNTY
SRVC .                     :  SERVICE COMPANY
DATE .                     :  DATE
API  .                     :  API NUMBER
UWI  .                     :  UNIQUE WELL ID
~Curve Information Block
#MNEM.UNIT         API CODE   Curve Description
#---------- ----------------  -----------------
DEPTH.M                    :  
ANGLE_FAIL.DEG                  :  Fail Angle
BRIT_IND.                     :  Brittleness Index
BRIT_PR.                     :  Brittleness Index from Poisson's Ratio
BRIT_YM.                     :  Brittleness Index from Young's Modulus
CS   .M/MIN                 :  Compressive Strength
IP   .RAYL/M2                 :  P Impedence
IS   .RAYL/M2                 :  S Impedance
KBULK.                     :  Bulk Mudulus
LAMBDA.                     :  Lambda
LAMRHO.                     :  
MU   .CP                   :  Mu
MURHO.(GF/C3S)2                 :  Mu*Rho
PR   .                     :  Poisson's ratio
PRESS_FG.PSI                  :  Fracture Gradient Pressure
PRESS_OB.PSI                  :  Over-burden Pressure
PRESS_PP.PSI                  :  Pore Pressure
PRESS_SHMAX.PSI                  :  Horizontal Stress (Max)
PRESS_SHMIN.PSI                  :  Horizontal Stress (Min)
PR_STAT.                     :  Poisson's ratio (Static)
PZS  .PSI                  :  Processed Zone Stress
SHMAX_GRAD.                     :  Horizontal Stress Gradient (Max)
SHMIN_GRAD.                     :  Horizontal Stress Gradient (Min)
STRESS_CUM.PSI                  :  Cumulative stress (SHPZ)
UCS_BF.PSI                  :  Uniaxial Compressive Strength (BF)
UCS_LAL.PSI                  :  Uniaxial Compressive Strength (lal)
VP   .FT/S                 :  Compressional velocity
VPVS .                     :  Vp / Vs ratio
VS   .FT/S                 :  Shear velocity
YM   .                     :  Youngs' Modulus
YM_STAT.                     :  Youngs' Modulus (Static)
~Parameter Information Block
#MNEM.UNIT            Value   Description
#---------- ----------------  -----------
PROJECT.          RDG_13Jul21:  
SET  .              GEOMECH:  
~Other Information Block
~Ascii Log Data
# ...
    3122.55240 
       40.9775        67.4885        42.0073        92.9698      1259.7964 
    13567.5957      7570.1294        24.6269        24.6269        69.4659 
       20.3163         0.0006       0.273978      -999.2500     10452.5938 
     5226.9087     10631.5459      6873.5630       0.246580      3010.3040 
        2.4841         1.6060     12967.7344      3343.1406      5525.8721 
    15780.6904         1.7923      8804.9404         7.5079         5.0549
    3122.70480 
       41.1615        68.7918        42.4586        95.1250      1267.9878 
    13681.1279      7649.1753        24.8752        24.8752        70.1535 
       20.7466         0.0006       0.272624      -999.2500     10453.1729 
     5226.9800     10632.7051      6862.5435       0.245362      2950.4753 
        2.4842         1.6034     12826.0371      3423.8484      5585.5352 
    15915.6523         1.7886      8898.5068         7.6587         5.1903
    3122.85720 
       41.2485        70.1214        43.6141        96.6287      1271.8798 
    13708.0225      7704.0767        24.5896        24.5896        69.2043 
       21.0892         0.0006       0.269158      -999.2500     10453.7520 
     5227.0513     10634.7510      6833.7910       0.242242      2962.0042 
        2.4846         1.5966     12791.5898      3480.6294      5614.0020 
    15980.0469         1.7793      8980.9824         7.7640         5.2856
    3123.00960 
       41.2595        70.9988        44.6270        97.3708      1272.3711 
    13702.9209      7735.6660        24.2146        24.2146        68.0890 
       21.2812         0.0006       0.266119      -999.2500     10454.3330 
     5227.1230     10636.6113      6808.7583       0.239507      3053.1699 
        2.4849         1.5907     12923.8564      3508.7935      5617.6006 
    15988.1865         1.7714      9025.7598         7.8160         5.3329
    3123.16200 
       41.2406        70.9794        44.6089        97.3499      1271.5239 
    13713.9785      7741.2974        24.2196        24.2196        68.2178 
       21.2763         0.0006       0.266173      -999.2500     10454.9121 
     5227.1943     10637.1855      6809.4365       0.239556      3060.6655 
        2.4849         1.5907     12940.2041      3508.0012      5611.3955 
    15974.1504         1.7715      9017.1240         7.8145         5.3316
    3123.31440 
       41.1889        70.3340        43.9297        96.7383      1269.2119 
    13731.3828      7728.0132        24.4453        24.4453        69.1065 
       21.1258         0.0006       0.268211      -999.2500     10455.4912 
     5227.2651     10636.9365      6826.5845       0.241390      2828.7131 
        2.4847         1.5947     12510.5947      3484.7844      5594.4805 
    15935.8867         1.7768      8968.7061         7.7717         5.2926
    3123.46680 
       41.0661        69.5068        43.4818        95.5318      1263.7355 
    13699.5537      7694.7871        24.4166        24.4166        69.2583 
       20.8741         0.0006       0.269555      -999.2500     10456.0713 
     5227.3364     10636.9775      6837.9517       0.242599      2694.5125 
        2.4846         1.5972     12264.9287      3439.1741      5554.5200 
    15845.4951         1.7804      8900.1221         7.6872         5.2161
    3123.61920 
       40.8543        69.0630        44.0065        94.1194      1254.3308 
    13609.9014      7662.2437        23.8288        23.8288        67.8095 
       20.6312         0.0006       0.267980      -999.2500     10456.6504 
     5227.4077     10638.2383      6824.9067       0.241182      2614.4910 
        2.4848         1.5941     12078.7949      3386.0940      5486.2534 
    15691.0713         1.7762      8833.9229         7.5884         5.1270
    3123.77160 
       40.7950        68.3567        43.3596        93.3537      1251.7119 
    13607.9980      7639.1968        23.9962        23.9962        68.4630 
       20.4542         0.0006       0.269921      -999.2500     10457.2305 
     5227.4790     10638.0264      6841.3091       0.242929      2560.5012 
        2.4846         1.5979     12003.6211      3357.4614      5467.3232 
    15648.2490         1.7813      8784.5439         7.5348         5.0789
    3123.92400 
       40.7592        67.7547        42.8379        92.6714      1250.1299 
    13590.8672      7611.7500        24.1168        24.1168        68.8342 
       20.2995         0.0006       0.271486      -999.2500     10457.8096 
     5227.5498     10637.9678      6854.6328       0.244338      2686.0698 
        2.4845         1.6009     12281.4053      3332.0298      5455.9048 
    15622.4209         1.7855      8749.5488         7.4870         5.0363
    3124.07640 
       40.6984        67.5663        43.0596        92.0729      1247.4493 
    13532.8115      7586.7944        23.8662        23.8662        68.0181 
       20.1965         0.0006       0.270821      -999.2500     10458.3887 
     5227.6216     10638.8467      6849.2251       0.243739      2828.8660 
        2.4846         1.5995     12556.1816      3309.7886      5436.5869 
    15578.7227         1.7837      8733.7764         7.4451         4.9990
    3124.22880 
       40.6674        67.7131        43.4235        92.0027      1246.0880 
    13510.7227      7586.7515        23.6620        23.6620        67.4220 
       20.2005         0.0006       0.269729      -999.2500     10458.9688 
     5227.6929     10639.9023      6840.2910       0.242757      2739.7500 
        2.4847         1.5974     12360.0820      3307.1826      5426.7896 
    15556.5605         1.7808      8735.5625         7.4402         4.9946
    3124.38120 
       40.7065        68.2240        43.6980        92.7499      1247.8088 
    13556.9053      7621.9897        23.6863        23.6863        67.6002 
       20.3557         0.0006       0.268906      -999.2500     10459.5479 
     5227.7637     10640.8408      6833.6875       0.242015      2591.4529 
        2.4848         1.5958     12050.2813      3334.9529      5439.1753 
    15584.5771         1.7787      8761.9912         7.4925         5.0412
    3124.53360 
       40.8379        69.0365        43.8943        94.1787      1253.6063 
    13637.5420      7673.9966        23.9002        23.9002        68.2021 
       20.6370         0.0006       0.268317      -999.2500     10460.1279 
     5227.8350     10641.6777      6829.1152       0.241485      2539.9502 
        2.4849         1.5946     11938.1309      3388.3137      5481.0137 
    15679.2188         1.7771      8822.8701         7.5925         5.1307
    3124.68600 
       41.0323        70.0374        43.9786        96.0962      1262.2316 
    13746.9854      7738.4658        24.2781        24.2781        69.2119 
       21.0060         0.0006       0.268064      -999.2500     10460.7070 
     5227.9063     10642.3721      6827.3936       0.241258      2539.0457 
        2.4849         1.5941     11932.8779      3460.4788      5543.5732 
    15820.7324         1.7764      8905.8213         7.7267         5.2518
    3124.83840 
       41.2011        71.2636        44.3744        98.1528      1269.7585 
    13858.6787      7814.9492        24.5184        24.5184        69.9161 
       21.4175         0.0007       0.266877      -999.2500     10461.2871 
     5227.9775     10643.4570      6817.8926       0.240189      2538.9934 
        2.4850         1.5918     11913.7715      3538.5779      5598.4771 
    15944.9268         1.7734      8991.3906         7.8707         5.3829
    3124.99080 
       41.2947        73.1566        45.6651       100.6480      1273.9507 
    13990.3848      7933.5420        24.3699        24.3699        69.8487 
       21.9599         0.0007       0.263005      -999.2500     10461.8662 
     5228.0483     10645.6484      6786.2256       0.236704      2575.0269 
        2.4854         1.5844     11922.5049      3634.3035      5629.1802 
    16014.3799         1.7634      9081.2910         8.0454         5.5435
