~Version Information Block
VERS .                  2.0:  CWLS LOG ASCII STANDARD - VERSION 2.0
WRAP .                  YES:  Multiple lines per depth step
~Well Information Block
#MNEM.UNIT        Data Type   Information
#---------- ----------------  -----------
STRT .M          2784.04320:  START DEPTH
STOP .M          3715.96920:  STOP DEPTH
STEP .M             0.15240:  STEP
NULL .              -999.25:  NULL VALUE
COMP .                     :  COMPANY
WELL .      RAAG-101-02-104:  WELL
FLD  .                     :  FIELD
LOC  .                     :  LOCATION
CTRY .                     :  COUNTRY
STAT .                     :  STATE
CNTY .                     :  COUNTY
SRVC .                     :  SERVICE COMPANY
DATE .                     :  DATE
API  .                     :  API NUMBER
UWI  .                     :  UNIQUE WELL ID
~Curve Information Block
#MNEM.UNIT         API CODE   Curve Description
#---------- ----------------  -----------------
DEPTH.M                    :  
ANGLE_FAIL.DEG                  :  Fail Angle
BRIT_IND.                     :  Brittleness Index
BRIT_PR.                     :  Brittleness Index from Poisson's Ratio
BRIT_YM.                     :  Brittleness Index from Young's Modulus
CS   .M/MIN                 :  Compressive Strength
DTCO .US/F                 :  Compressional slowness
DTSM .US/F                 :  Fast Shear slowness
IP   .RAYL/M2                 :  P Impedence
IS   .RAYL/M2                 :  S Impedance
KBULK.                     :  Bulk Mudulus
LAMBDA.                     :  Lambda
LAMRHO.                     :  
MU   .CP                   :  Mu
MURHO.(GF/C3S)2                 :  Mu*Rho
PR   .                     :  Poisson's ratio
PRESS_FG.PSI                  :  Fracture Gradient Pressure
PRESS_OB.PSI                  :  Over-burden Pressure
PRESS_PP.PSI                  :  Pore Pressure
PRESS_SHMAX.PSI                  :  Horizontal Stress (Max)
PRESS_SHMIN.PSI                  :  Horizontal Stress (Min)
PR_STAT.                     :  Poisson's ratio (Static)
PZS  .PSI                  :  Processed Zone Stress
SHMAX_GRAD.                     :  Horizontal Stress Gradient (Max)
SHMIN_GRAD.                     :  Horizontal Stress Gradient (Min)
STRESS_CUM.PSI                  :  Cumulative stress (SHPZ)
UCS_BF.PSI                  :  Uniaxial Compressive Strength (BF)
UCS_LAL.PSI                  :  Uniaxial Compressive Strength (lal)
VP   .FT/S                 :  Compressional velocity
VPVS .                     :  Vp / Vs ratio
VS   .FT/S                 :  Shear velocity
YM   .                     :  Youngs' Modulus
YM_STAT.                     :  Youngs' Modulus (Static)
~Parameter Information Block
#MNEM.UNIT            Value   Description
#---------- ----------------  -----------
PROJECT.          RDG_13Jul21:  
SET  .              GEOMECH:  
~Other Information Block
~Ascii Log Data
# ...
    3647.23680 
       43.7714        82.5003        40.0889       124.9117      1389.4718 
       55.5300       100.4153     15637.0938      8647.3662        33.3345 
       33.3345        94.9648        26.2482         0.0008       0.279733 
     -999.2500     12749.3838      5360.9746     12997.5820      7785.4263 
      0.251760      3079.1685         2.5441         1.5239     14929.1885 
     4620.7046      6510.6353     18008.2832         1.8083      9958.6416 
        9.7438         7.1987
    3647.38920 
       43.4969        83.7542        43.3868       124.1216      1376.2092 
       56.2699       100.2236     15404.4521      8648.7314        30.8370 
       30.8370        87.6960        26.3025         0.0008       0.269840 
     -999.2500     12749.9951      5360.9722     13004.1133      7667.6211 
      0.242856      3077.4238         2.5453         1.5008     14690.0898 
     4586.9976      6405.9546     17771.4902         1.7811      9977.6895 
        9.6885         7.1421
    3647.54160 
       43.5778        82.7114        41.6249       123.7979      1380.1049 
       56.0512       100.6343     15490.6084      8627.9453        31.9717 
       31.9717        91.0761        26.1322         0.0008       0.275125 
     -999.2500     12750.6064      5360.9702     13001.6152      7730.4482 
      0.247613      3068.5229         2.5447         1.5130     14797.9424 
     4573.2158      6436.6084     17840.8301         1.7954      9936.9697 
        9.6658         7.1190
    3647.69400 
       43.8234        81.6049        37.9486       125.2611      1391.9971 
       55.3906       101.2017     15883.2275      8693.3467        35.0359 
       35.0359       101.1284        26.1827         0.0008       0.286154 
     -999.2500     12751.2178      5360.9678     12995.5723      7864.1357 
      0.257539      3042.8677         2.5434         1.5391     15014.0078 
     4635.6455      6530.6709     18053.6055         1.8271      9881.2568 
        9.7683         7.2237
    3647.84640 
       43.9842        83.3691        37.8364       128.9017      1399.8411 
       54.9606       100.4715     16184.6973      8853.4629        36.0395 
       36.0395       105.1768        26.8587         0.0008       0.286491 
     -999.2500     12751.8291      5360.9658     12995.9785      7868.8276 
      0.257842      3026.4717         2.5434         1.5400     14990.5986 
     4792.5552      6593.1123     18194.8516         1.8281      9953.0723 
       10.0231         7.4870
    3647.99880 
       44.1616        87.2179        39.9958       134.4401      1408.5415 
       54.4889        98.5761     16405.1250      9068.0928        35.6894 
       35.6894       104.6675        28.0388         0.0009       0.280013 
     -999.2500     12752.4414      5360.9629     13000.5254      7790.7510 
      0.252011      3041.9380         2.5442         1.5246     14865.3779 
     5035.6152      6662.7437     18352.3613         1.8091     10144.4463 
       10.4108         7.8949
    3648.15120 
       44.5036        89.4551        39.8367       139.0735      1425.4611 
       53.5871        97.0178     16655.1523      9199.3564        36.9304 
       36.9304       108.1378        28.9015         0.0009       0.280490 
     -999.2500     12753.0518      5360.9609     13000.8457      7797.1865 
      0.252441      3066.0874         2.5441         1.5258     14926.5479 
     5242.9907      6799.2764     18661.2070         1.8105     10307.3877 
       10.7351         8.2429
    3648.30360 
       44.9579        88.7178        36.0958       141.3398      1448.2469 
       52.4042        96.6361     16998.0742      9217.7822        40.7187 
       40.7187       118.9995        29.0738         0.0009       0.291713 
     -999.2500     12753.6631      5360.9585     12994.5869      7935.1855 
      0.262541      3079.2876         2.5428         1.5528     15228.9463 
     5345.7573      6985.4927     19082.4395         1.8441     10348.0996 
       10.8938         8.4153
    3648.45600 
       45.1386        87.1444        33.5509       140.7379      1457.4114 
       51.9384        97.0549     17131.3359      9167.7412        42.9527 
       42.9527       125.3877        28.7912         0.0009       0.299347 
     -999.2500     12754.2734      5360.9565     12990.4326      8031.1025 
      0.269413      3079.2876         2.5419         1.5715     15420.7813 
     5318.3789      7061.1484     19253.5762         1.8687     10303.4463 
       10.8517         8.3694
    3648.60840 
       45.1037        88.0112        34.6719       141.3505      1455.6379 
       52.0281        96.6490     17070.2539      9189.2607        42.0439 
       42.0439       122.5085        28.9800         0.0009       0.295984 
     -999.2500     12754.8857      5360.9541     12993.1816      7988.9839 
      0.266386      3079.2886         2.5423         1.5632     15336.5449 
     5346.2466      7046.4741     19220.3828         1.8576     10346.7178 
       10.8945         8.4161
    3648.76080 
       44.9820        87.7150        35.3198       140.1102      1449.4644 
       52.3420        96.9057     16947.6055      9153.9658        41.1055 
       41.1055       119.6311        28.7922         0.0009       0.294041 
     -999.2500     12755.4971      5360.9517     12995.0361      7964.7217 
      0.264636      3079.2886         2.5426         1.5584     15288.0205 
     5289.8887      6995.5176     19105.1172         1.8514     10319.3096 
       10.8077         8.3216
    3648.91320 
       44.8190        85.0928        34.2666       135.9190      1441.2451 
       52.7639        98.2243     16762.9238      9004.6689        40.9492 
       40.9492       118.8275        27.9424         0.0009       0.297200 
     -999.2500     12756.1084      5360.9497     12993.7061      8004.1577 
      0.267480      -999.2500         2.5422         1.5660      -999.2500 
     5101.4067      6927.9839     18952.3516         1.8616     10180.7803 
       10.5143         8.0053
    3649.06560 
       44.7995        82.9143        32.4199       133.4088      1440.2634 
       52.8146        99.2961     16756.7207      8912.7324        41.9881 
       41.9881       121.9141        27.3586         0.0009       0.302740 
     -999.2500     12756.7207      5360.9468     12990.8369      8074.3965 
      0.272466      2613.3779         2.5415         1.5797     14575.5488 
     4989.9575      6919.9409     18934.1582         1.8801     10070.8896 
       10.3386         7.8183
    3649.21800 
       44.9830        83.9367        31.9259       135.9475      1449.5153 
       52.3394        98.6694     16963.7832      8998.4766        43.1946 
       43.1946       125.8248        27.7972         0.0009       0.304222 
     -999.2500     12757.3311      5360.9448     12990.5059      8093.8477 
      0.273800      2372.3718         2.5414         1.5834     14132.4395 
     5102.6772      6995.9370     19106.0664         1.8852     10134.8545 
       10.5163         8.0074
    3649.37040 
       45.1763        86.8699        32.8681       140.8717      1459.3318 
       51.8415        97.2297     17212.9609      9177.7080        43.6615 
       43.6615       127.8254        28.7707         0.0009       0.301396 
     -999.2500     12757.9424      5360.9419     12992.9160      8058.4751 
      0.271256      2558.2192         2.5417         1.5764     14433.3887 
     5324.4585      7077.0581     19289.5645         1.8755     10284.9238 
       10.8610         8.3796
    3649.52280 
       45.2361        88.1305        33.6301       142.6309      1462.3820 
       51.6881        96.5464     17245.5410      9232.7539        43.3992 
       43.3992       126.9212        29.1481         0.0009       0.299110 
     -999.2500     12758.5547      5360.9395     12994.9893      8029.8599 
      0.269199      2534.7632         2.5420         1.5708     14329.2461 
     5404.6958      7102.3657     19346.8125         1.8679     10357.7139 
       10.9842         8.5142
