~Version Information Block
VERS .                  2.0:  CWLS LOG ASCII STANDARD - VERSION 2.0
WRAP .                  YES:  Multiple lines per depth step
~Well Information Block
#MNEM.UNIT        Data Type   Information
#---------- ----------------  -----------
STRT .M          2656.78920:  START DEPTH
STOP .M          3640.98840:  STOP DEPTH
STEP .M             0.15240:  STEP
NULL .              -999.25:  NULL VALUE
COMP .                     :  COMPANY
WELL .       RAAG-98-07-214:  WELL
FLD  .                     :  FIELD
LOC  .                     :  LOCATION
CTRY .                     :  COUNTRY
STAT .                     :  STATE
CNTY .                     :  COUNTY
SRVC .                     :  SERVICE COMPANY
DATE .                     :  DATE
API  .                     :  API NUMBER
UWI  .                     :  UNIQUE WELL ID
~Curve Information Block
#MNEM.UNIT         API CODE   Curve Description
#---------- ----------------  -----------------
DEPTH.M                    :  
ANGLE_FAIL.DEG                  :  Fail Angle
BRIT_IND.                     :  Brittleness Index
BRIT_PR.                     :  Brittleness Index from Poisson's Ratio
BRIT_YM.                     :  Brittleness Index from Young's Modulus
CS   .M/MIN                 :  Compressive Strength
IP   .RAYL/M2                 :  P Impedence
IS   .RAYL/M2                 :  S Impedance
KBULK.                     :  Bulk Mudulus
LAMBDA.                     :  Lambda
LAMRHO.                     :  
MU   .CP                   :  Mu
MURHO.(GF/C3S)2                 :  Mu*Rho
PR   .                     :  Poisson's ratio
PRESS_FG.PSI                  :  Fracture Gradient Pressure
PRESS_OB.PSI                  :  Over-burden Pressure
PRESS_PP.PSI                  :  Pore Pressure
PRESS_SHMAX.PSI                  :  Horizontal Stress (Max)
PRESS_SHMIN.PSI                  :  Horizontal Stress (Min)
PR_STAT.                     :  Poisson's ratio (Static)
PZS  .PSI                  :  Processed Zone Stress
SHMAX_GRAD.                     :  Horizontal Stress Gradient (Max)
SHMIN_GRAD.                     :  Horizontal Stress Gradient (Min)
STRESS_CUM.PSI                  :  Cumulative stress (SHPZ)
UCS_BF.PSI                  :  Uniaxial Compressive Strength (BF)
UCS_LAL.PSI                  :  Uniaxial Compressive Strength (lal)
VP   .FT/S                 :  Compressional velocity
VPVS .                     :  Vp / Vs ratio
VS   .FT/S                 :  Shear velocity
YM   .                     :  Youngs' Modulus
YM_STAT.                     :  Youngs' Modulus (Static)
~Parameter Information Block
#MNEM.UNIT            Value   Description
#---------- ----------------  -----------
PROJECT.          RDG_13Jul21:  
SET  .              GEOMECH:  
~Other Information Block
~Ascii Log Data
# ...
    3307.08000 
       45.1595        89.3412        36.4292       142.2532      1458.4727 
    16884.3398      9171.5908        40.6537        40.6537       116.8448 
       29.2671    0.000905439       0.290712      -999.2500     11153.6240 
     5298.4321     11345.4893      7316.3223       0.261641      2994.0835 
        2.5018         1.6133     13820.8115      5387.4243      7069.9380 
    19273.4609         1.8409     10469.3633        10.9577         8.4852
    3307.23240 
       45.1019        89.7932        37.1796       142.4067      1455.5461 
    16851.3340      9188.1904        40.0186        40.0186       115.1218 
       29.3470    0.000908720       0.288461      -999.2500     11154.2100 
     5298.4810     11347.1982      7294.4507       0.259615      2634.8650 
        2.5020         1.6084     13058.6309      5394.4438      7045.7148 
    19218.6660         1.8340     10478.9775        10.9685         8.4970
    3307.38480 
       45.2265        90.4425        36.3654       144.5196      1461.8920 
    17080.4629      9275.1309        41.3011        41.3011       119.6861 
       29.6864    0.000925998       0.290904      -999.2500     11154.7969 
     5298.5293     11346.5898      7318.9243       0.261814      2397.2117 
        2.5018         1.6137     12632.2725      5491.4316      7098.2969 
    19337.6094         1.8415     10500.8193        11.1164         8.6598
    3307.53720 
       45.6358        90.4445        33.3018       147.5873      1482.9309 
    17488.0723      9346.1875        45.1046        45.1046       131.1303 
       30.0460    0.000940241       0.300095      -999.2500     11155.3838 
     5298.5781     11342.5947      7411.1616       0.270085      2525.2639 
        2.5008         1.6340     13072.8516      5633.6118      7274.1240 
    19735.3418         1.8711     10547.1992        11.3311         8.8983
    3307.68960 
       45.8714        90.5734        31.6586       149.4883      1495.1769 
    17734.7852      9393.5850        47.3770        47.3770       138.0438 
       30.2840    0.000949801       0.305024      -999.2500     11155.9697 
     5298.6265     11340.6855      7461.6519       0.274522      2789.2817 
        2.5002         1.6450     13701.8672      5722.5244      7377.5283 
    19969.2461         1.8880     10577.1123        11.4642         9.0475
    3307.84200 
       45.7626        90.7867        32.9027       148.6706      1489.5099 
    17553.0449      9360.7871        45.8200        45.8200       132.8607 
       30.2192    0.000943180       0.301292      -999.2500     11156.5576 
     5298.6758     11343.1914      7423.8701       0.271163      2982.3899 
        2.5007         1.6366     14012.5195      5684.2046      7329.5796 
    19860.7832         1.8752     10591.4717        11.4069         8.9832
    3307.99440 
       45.7412        91.3802        33.6526       149.1078      1488.3944 
    17508.1504      9374.4727        45.1675        45.1675       130.7739 
       30.3528    0.000945940       0.299042      -999.2500     11157.1436 
     5298.7241     11344.9277      7401.4595       0.269138      3003.4836 
        2.5009         1.6316     14009.8857      5704.6782      7320.1611 
    19839.4785         1.8676     10622.7471        11.4375         9.0176
    3308.14680 
       46.0794        90.7853        31.0913       150.4793      1506.0787 
    17745.3828      9369.5664        48.2887        48.2887       139.3211 
       30.4276    0.000944950       0.306726      -999.2500     11157.7314 
     5298.7725     11341.6211      7479.9375       0.276054      2843.2344 
        2.5001         1.6488     13846.3438      5769.1226      7470.2417 
    20178.9707         1.8939     10654.5010        11.5336         9.1257
    3308.29920 
       46.3353        89.6919        28.2834       151.1003      1519.6067 
    18045.3652      9375.1426        51.7378        51.7378       149.8486 
       30.3466    0.000946076       0.315150      -999.2500     11158.3174 
     5298.8213     11337.8535      7567.5972       0.283635      2821.8252 
        2.4991         1.6681     13978.8457      5798.4077      7586.1514 
    20441.1660         1.9248     10619.8379        11.5770         9.1749
    3308.45160 
       46.2523        88.8488        27.8275       149.8701      1515.2031 
    18065.5430      9360.1904        51.9063        51.9063       151.1376 
       30.0896    0.000943060       0.316518      -999.2500     11158.9053 
     5298.8696     11337.7461      7582.0806       0.284866      2903.7515 
        2.4990         1.6712     14171.6631      5740.4575      7548.3159 
    20355.5801         1.9300     10546.7119        11.4909         9.0776
    3308.60400 
       46.0647        89.0006        28.8793       149.1219      1505.3074 
    17972.5410      9370.1260        50.4106        50.4106       147.4137 
       30.0244    0.000945063       0.313362      -999.2500     11159.4912 
     5298.9180     11340.0059      7549.2109       0.282026      3024.9834 
        2.4994         1.6639     14348.3887      5705.3398      7463.6621 
    20164.0859         1.9181     10512.7061        11.4385         9.0187
    3308.75640 
       45.6000        89.6055        32.5950       146.6160      1481.0770 
    17519.0410      9327.0898        45.5604        45.5604       132.9276 
       29.8171    0.000936402       0.302215      -999.2500     11160.0791 
     5298.9673     11346.3584      7434.4961       0.271994      3070.1660 
        2.5006         1.6385     14209.3242      5588.4194      7258.5386 
    19700.0859         1.8783     10488.2725        11.2631         8.8225
    3308.90880 
       45.0934        89.0443        36.7080       141.3807      1455.1119 
    16808.8477      9143.4189        40.1764        40.1764       115.3332 
       29.1229    0.000899886       0.289876      -999.2500     11160.6650 
     5299.0156     11353.1553      7310.8540       0.260888      3073.3601 
        2.5020         1.6112     13968.4287      5347.6187      7042.1255 
    19210.5469         1.8384     10449.8584        10.8966         8.4184
    3309.06120 
       44.7930        86.1459        38.3855       133.9064      1439.9376 
    16035.6318      8795.5449        36.8480        36.8480       102.4183 
       27.8331    0.000832713       0.284844      -999.2500     11161.2529 
     5299.0645     11356.2607      7261.0845       0.256359      2894.6709 
        2.5026         1.6001     13511.5107      5011.9629      6917.2734 
    18928.1230         1.8232     10382.0762        10.3734         7.8552
    3309.21360 
       44.3957        82.3305        39.5054       125.1557      1420.0990 
    15260.0566      8415.4971        33.8248        33.8248        91.2282 
       26.2582    0.000762306       0.281484      -999.2500     11161.8389 
     5299.1128     11358.5352      7227.9141       0.253335      2634.9934 
        2.5030         1.5928     12925.8154      4631.1333      6755.8467 
    18562.9668         1.8133     10236.9590         9.7609         7.2162
    3309.36600 
       43.6560        79.4216        42.9805       115.8628      1383.8828 
    14413.2109      8077.4951        29.2549        29.2549        77.2488 
       24.7093    0.000702301       0.271058      -999.2500     11162.4258 
     5299.1611     11364.1494      7127.9443       0.243953      2401.3225 
        2.5041         1.5706     12258.5332      4241.0537      6466.4111 
    17908.2441         1.7844     10036.1934         9.1104         6.5616
    3309.51840 
       43.0105        76.4754        44.4217       108.5291      1352.9972 
    13897.8916      7838.6860        26.7536        26.7536        70.2614 
       23.3966    0.000661388       0.266735      -999.2500     11163.0127 
     5299.2095     11366.8115      7087.0342       0.240061      2309.7886 
        2.5046         1.5616     11993.6455      3943.6484      6224.9253 
    17361.9922         1.7730      9792.5068         8.5970         6.0626
