~Version Information Block
VERS .                  2.0:  CWLS LOG ASCII STANDARD - VERSION 2.0
WRAP .                  YES:  Multiple lines per depth step
~Well Information Block
#MNEM.UNIT        Data Type   Information
#---------- ----------------  -----------
STRT .M          2784.04320:  START DEPTH
STOP .M          3715.96920:  STOP DEPTH
STEP .M             0.15240:  STEP
NULL .              -999.25:  NULL VALUE
COMP .                     :  COMPANY
WELL .      RAAG-101-02-104:  WELL
FLD  .                     :  FIELD
LOC  .                     :  LOCATION
CTRY .                     :  COUNTRY
STAT .                     :  STATE
CNTY .                     :  COUNTY
SRVC .                     :  SERVICE COMPANY
DATE .                     :  DATE
API  .                     :  API NUMBER
UWI  .                     :  UNIQUE WELL ID
~Curve Information Block
#MNEM.UNIT         API CODE   Curve Description
#---------- ----------------  -----------------
DEPTH.M                    :  
ANGLE_FAIL.DEG                  :  Fail Angle
BRIT_IND.                     :  Brittleness Index
BRIT_PR.                     :  Brittleness Index from Poisson's Ratio
BRIT_YM.                     :  Brittleness Index from Young's Modulus
CS   .M/MIN                 :  Compressive Strength
DTCO .US/F                 :  Compressional slowness
DTSM .US/F                 :  Fast Shear slowness
IP   .RAYL/M2                 :  P Impedence
IS   .RAYL/M2                 :  S Impedance
KBULK.                     :  Bulk Mudulus
LAMBDA.                     :  Lambda
LAMRHO.                     :  
MU   .CP                   :  Mu
MURHO.(GF/C3S)2                 :  Mu*Rho
PR   .                     :  Poisson's ratio
PRESS_FG.PSI                  :  Fracture Gradient Pressure
PRESS_OB.PSI                  :  Over-burden Pressure
PRESS_PP.PSI                  :  Pore Pressure
PRESS_SHMAX.PSI                  :  Horizontal Stress (Max)
PRESS_SHMIN.PSI                  :  Horizontal Stress (Min)
PR_STAT.                     :  Poisson's ratio (Static)
PZS  .PSI                  :  Processed Zone Stress
SHMAX_GRAD.                     :  Horizontal Stress Gradient (Max)
SHMIN_GRAD.                     :  Horizontal Stress Gradient (Min)
STRESS_CUM.PSI                  :  Cumulative stress (SHPZ)
UCS_BF.PSI                  :  Uniaxial Compressive Strength (BF)
UCS_LAL.PSI                  :  Uniaxial Compressive Strength (lal)
VP   .FT/S                 :  Compressional velocity
VPVS .                     :  Vp / Vs ratio
VS   .FT/S                 :  Shear velocity
YM   .                     :  Youngs' Modulus
YM_STAT.                     :  Youngs' Modulus (Static)
~Parameter Information Block
#MNEM.UNIT            Value   Description
#---------- ----------------  -----------
PROJECT.          RDG_13Jul21:  
SET  .              GEOMECH:  
~Other Information Block
~Ascii Log Data
# ...
    3474.11040 
       43.5817        76.8671        36.4555       117.2787      1380.2906 
       56.0408       103.1540     15324.1201      8325.1826        34.1477 
       34.1477        96.2113        24.5993         0.0007       0.290634 
     -999.2500     12058.7803      5350.8364     12278.3760      7666.8662 
      0.261570      2805.4187         2.5252         1.5768     14144.5703 
     4299.5361      6438.0728     17844.1426         1.8407      9694.2432 
        9.2095         6.6598
    3474.26280 
       43.6221        76.3711        36.1725       116.5697      1382.2421 
       55.9317       103.1008     15245.4893      8270.6064        34.1791 
       34.1791        95.6191        24.4506         0.0007       0.291482 
     -999.2500     12059.3838      5350.8560     12278.5234      7676.5952 
      0.262334      2946.8191         2.5251         1.5787     14446.8291 
     4270.2090      6453.4590     17878.9473         1.8433      9699.2461 
        9.1599         6.6105
    3474.41520 
       43.5937        77.1276        37.4479       116.8073      1380.8732 
       56.0082       102.5833     15144.4502      8268.5332        33.2813 
       33.2813        92.6171        24.5678         0.0007       0.287656 
     -999.2500     12059.9883      5350.8765     12281.2939      7633.8687 
      0.258891      2819.9692         2.5256         1.5699     14107.6758 
     4280.0278      6442.6636     17854.5273         1.8316      9748.1758 
        9.1765         6.6270
    3474.56760 
       43.6893        79.0425        38.7040       119.3810      1385.4946 
       55.7505       101.4845     15227.1582      8365.0381        33.0028 
       33.0028        91.9186        25.1237         0.0008       0.283888 
     -999.2500     12060.5928      5350.8965     12284.0029      7592.3921 
      0.255499      2971.4072         2.5260         1.5613     14327.5996 
     4386.9956      6479.1484     17937.0586         1.8203      9853.7217 
        9.3567         6.8065
    3474.72000 
       44.0144        80.1637        37.2559       123.0715      1401.3187 
       54.8801       100.6130     15571.2207      8493.4365        35.0209 
       35.0209        98.1860        25.7303         0.0008       0.288232 
     -999.2500     12061.1982      5350.9160     12282.1904      7641.3560 
      0.259409      3084.1624         2.5255         1.5713     14651.0371 
     4542.3613      6604.9111     18221.5410         1.8333      9939.0742 
        9.6150         7.0672
    3474.87240 
       44.4715        80.7315        34.3290       127.1339      1423.8632 
       53.6714        99.8809     16045.7285      8622.2363        38.4999 
       38.4999       108.7795        26.3119         0.0008       0.297013 
     -999.2500     12061.8018      5350.9360     12277.8232      7741.3765 
      0.267312      2910.0393         2.5245         1.5918     14502.8320 
     4716.0796      6786.3193     18631.8984         1.8610     10011.9238 
        9.8994         7.3587
    3475.02480 
       44.8521        81.5491        32.2509       130.8474      1442.9075 
       52.6782        99.1311     16447.5332      8740.2070        41.4193 
       41.4193       117.7389        26.8737         0.0008       0.303247 
     -999.2500     12062.4063      5350.9565     12274.8330      7813.8750 
      0.272923      3156.5957         2.5238         1.6066     15140.9414 
     4877.3467      6941.6147     18983.1855         1.8818     10087.6514 
       10.1593         7.6293
    3475.17720 
       45.0438        84.0288        32.9810       135.0766      1452.5950 
       52.1825        97.8096     16663.0625      8889.9277        41.9230 
       41.9230       119.5960        27.7033         0.0009       0.301057 
     -999.2500     12063.0107      5350.9761     12276.7031      7789.1563 
      0.270951      3037.6736         2.5241         1.6014     14853.6602 
     5063.8823      7021.3330     19163.5117         1.8744     10223.9453 
       10.4554         7.9423
    3475.32960 
       45.0621        85.7688        34.4397       137.0979      1453.5239 
       52.1353        96.9659     16669.5527      8962.6582        41.1097 
       41.1097       117.2155        28.1730         0.0009       0.296681 
     -999.2500     12063.6152      5350.9956     12279.8320      7739.2788 
      0.267013      3259.0737         2.5246         1.5911     15196.7041 
     5154.1167      7029.0029     19180.8613         1.8599     10312.9043 
       10.5969         8.0937
    3475.48200 
       44.9441        86.4708        35.6584       137.2832      1447.5510 
       52.4398        96.9179     16623.4980      8994.5498        40.0476 
       40.0476       114.5368        28.2872         0.0009       0.293025 
     -999.2500     12064.2197      5351.0156     12282.5352      7697.8975 
      0.263722      3244.2441         2.5251         1.5825     15084.2832 
     5162.4258      6979.7661     19069.4844         1.8482     10318.0117 
       10.6098         8.1077
    3475.63440 
       44.7570        87.2413        37.3577       137.1250      1438.1282 
       52.9251        96.9798     16540.1113      9026.4883        38.5168 
       38.5168       110.6203        28.3696         0.0009       0.287927 
     -999.2500     12064.8252      5351.0352     12286.0322      7640.6729 
      0.259134      3451.8225         2.5257         1.5707     15384.9902 
     5155.3340      6902.4653     18894.6270         1.8324     10311.4258 
       10.5988         8.0958
    3475.78680 
       44.5246        87.8258        39.4121       136.2394      1426.5072 
       53.5320        97.1144     16380.4971      9029.3584        36.5886 
       36.5886       105.2620        28.3392         0.0009       0.281764 
     -999.2500     12065.4287      5351.0552     12290.0850      7572.3018 
      0.253587      3266.7781         2.5264         1.5566     14878.1592 
     5115.7095      6807.7676     18680.4160         1.8141     10297.1338 
       10.5368         8.0293
    3475.93920 
       44.3443        87.2466        40.2957       134.1974      1417.5560 
       54.0059        97.5640     16198.6309      8966.6436        35.3968 
       35.3968       101.5942        28.0127         0.0009       0.279113 
     -999.2500     12066.0332      5351.0752     12292.1768      7543.1616 
      0.251202      3239.6243         2.5267         1.5505     14765.5723 
     5024.8521      6735.3027     18516.4941         1.8065     10249.6816 
       10.3938         7.8768
    3476.09160 
       44.2837        83.7544        37.8708       129.6379      1414.5598 
       54.1658        99.0018     16028.5244      8769.5156        36.1972 
       36.1972       103.1048        26.9990         0.0008       0.286388 
     -999.2500     12066.6377      5351.0947     12288.7998      7623.3872 
      0.257749      3134.4956         2.5259         1.5669     14715.7656 
     4824.5640      6711.1387     18461.8340         1.8278     10100.8262 
       10.0747         7.5408
    3476.24400 
       44.2582        78.3113        33.2811       123.3415      1413.2985 
       54.2333       101.4896     15916.8838      8505.5527        38.3667 
       38.3667       108.6583        25.5444         0.0008       0.300157 
     -999.2500     12067.2432      5351.1147     12281.6436      7779.2378 
      0.270141      2982.5474         2.5243         1.5989     14723.5703 
     4553.8232      6700.9805     18438.8574         1.8714      9853.2266 
        9.6339         7.0864
    3476.39640 
       44.0803        73.6100        30.4065       116.8134      1404.5449 
       54.7049       104.0083     15682.4873      8248.4658        39.0335 
       39.0335       109.8660        24.1724         0.0007       0.308780 
     -999.2500     12067.8477      5351.1348     12277.2686      7879.4331 
      0.277902      3043.0845         2.5233         1.6194     15045.0352 
     4280.2798      6630.7095     18279.8984         1.9013      9614.6172 
        9.1769         6.6274
