~Version Information Block
VERS .                  2.0:  CWLS LOG ASCII STANDARD - VERSION 2.0
WRAP .                  YES:  Multiple lines per depth step
~Well Information Block
#MNEM.UNIT        Data Type   Information
#---------- ----------------  -----------
STRT .M          2682.11640:  START DEPTH
STOP .M          3633.09240:  STOP DEPTH
STEP .M             0.15240:  STEP
NULL .              -999.25:  NULL VALUE
COMP .                     :  COMPANY
WELL .       RAAG-94-07-216:  WELL
FLD  .                     :  FIELD
LOC  .                     :  LOCATION
CTRY .                     :  COUNTRY
STAT .                     :  STATE
CNTY .                     :  COUNTY
SRVC .                     :  SERVICE COMPANY
DATE .                     :  DATE
API  .                     :  API NUMBER
UWI  .                     :  UNIQUE WELL ID
~Curve Information Block
#MNEM.UNIT         API CODE   Curve Description
#---------- ----------------  -----------------
DEPTH.M                    :  
ANGLE_FAIL.DEG                  :  Fail Angle
BRIT_IND.                     :  Brittleness Index
BRIT_PR.                     :  Brittleness Index from Poisson's Ratio
BRIT_YM.                     :  Brittleness Index from Young's Modulus
CS   .M/MIN                 :  Compressive Strength
IP   .RAYL/M2                 :  P Impedence
IS   .RAYL/M2                 :  S Impedance
KBULK.                     :  Bulk Mudulus
LAMBDA.                     :  Lambda
LAMRHO.                     :  
MU   .CP                   :  Mu
MURHO.(GF/C3S)2                 :  Mu*Rho
PR   .                     :  Poisson's ratio
PRESS_FG.PSI                  :  Fracture Gradient Pressure
PRESS_OB.PSI                  :  Over-burden Pressure
PRESS_PP.PSI                  :  Pore Pressure
PRESS_SHMAX.PSI                  :  Horizontal Stress (Max)
PRESS_SHMIN.PSI                  :  Horizontal Stress (Min)
PR_STAT.                     :  Poisson's ratio (Static)
PZS  .PSI                  :  Processed Zone Stress
SHMAX_GRAD.                     :  Horizontal Stress Gradient (Max)
SHMIN_GRAD.                     :  Horizontal Stress Gradient (Min)
STRESS_CUM.PSI                  :  Cumulative stress (SHPZ)
UCS_BF.PSI                  :  Uniaxial Compressive Strength (BF)
UCS_LAL.PSI                  :  Uniaxial Compressive Strength (lal)
VP   .FT/S                 :  Compressional velocity
VPVS .                     :  Vp / Vs ratio
VS   .FT/S                 :  Shear velocity
YM   .                     :  Youngs' Modulus
YM_STAT.                     :  Youngs' Modulus (Static)
~Parameter Information Block
#MNEM.UNIT            Value   Description
#---------- ----------------  -----------
PROJECT.          RDG_13Jul21:  
SET  .              GEOMECH:  
~Other Information Block
~Ascii Log Data
# ...
    3060.37320 
       39.7231        57.1097        43.8435        70.3759      1205.1166 
    11205.4941      6304.0381        18.6759        18.6759        46.0813 
       16.1062         0.0004       0.268470      -999.2500     10216.7510 
     5196.2271     10391.0947      6729.8755       0.241623      2373.8428 
        2.4784         1.6052     11407.4365      2544.8918      5136.3262 
    14899.5146         1.7775      8382.2363         5.9263         3.7154
    3060.52560 
       39.9142        56.8332        42.6789        70.9876      1213.3151 
    11274.9834      6310.1777        19.2944        19.2944        47.4886 
       16.1780         0.0004       0.271963      -999.2500     10217.3281 
     5196.3066     10390.2783      6758.3145       0.244767      2387.0034 
        2.4781         1.6119     11490.6357      2565.3508      5193.7695 
    15029.4551         1.7868      8411.4121         5.9691         3.7498
    3060.67800 
       39.6600        59.5127        47.5958        71.4295      1202.4166 
    11115.5703      6354.9575        17.4302        17.4302        42.7849 
       16.4527         0.0004       0.257212      -999.2500     10217.9063 
     5196.3853     10396.7383      6641.2637       0.231491      2512.7139 
        2.4795         1.5839     11507.9551      2580.1736      5117.4829 
    14856.8896         1.7491      8493.9316         6.0001         3.7747
    3060.83040 
       39.3804        63.7025        54.7425        72.6624      1190.5233 
    10982.5947      6457.7710        15.1504        15.1504        37.2118 
       16.9789         0.0004       0.235772      -999.2500     10218.4824 
     5196.4644     10405.5029      6478.0894       0.212195      2680.0588 
        2.4815         1.5449     11516.2959      2621.7019      5034.9155 
    14670.1172         1.7007      8626.0361         6.0864         3.8443
    3060.98280 
       39.3606        67.7274        60.3354        75.1195      1189.6841 
    11011.0107      6604.7725        13.7932        13.7932        33.9963 
       17.6990         0.0005       0.218994      -999.2500     10219.0605 
     5196.5435     10412.2139      6355.9980       0.197095      2496.7161 
        2.4829         1.5157     10905.4287      2705.2400      5029.1157 
    14656.9980         1.6671      8791.7578         6.2584         3.9845
    3061.13520 
       39.4800        72.2388        65.8409        78.6367      1194.7476 
    11128.8701      6797.3501        12.6907        12.6907        31.4438 
       18.6479         0.0005       0.202477      -999.2500     10219.6377 
     5196.6221     10418.6055      6240.2847       0.182230      2221.2480 
        2.4843         1.4880     10123.0654      2826.6177      5064.1602 
    14736.2705         1.6372      9000.6973         6.5046         4.1882
    3061.28760 
       39.6412        76.5780        71.1654        81.9907      1201.6124 
    11230.2393      6971.5176        11.6491        11.6491        28.9142 
       19.5811         0.0005       0.186504      -999.2500     10220.2148 
     5196.7012     10424.6104      6132.3027       0.167854      2060.9766 
        2.4856         1.4622      9586.5586      2944.3342      5111.8774 
    14844.2100         1.6109      9215.0010         6.7393         4.3857
    3061.44000 
       39.7530        78.2994        73.0637        83.5351      1206.3956 
    11282.2832      7042.5474        11.3242        11.3242        28.0950 
       19.9912         0.0005       0.180809      -999.2500     10220.7910 
     5196.7798     10427.0889      6094.8345       0.162728      1916.4263 
        2.4861         1.4532      9222.5215      2999.1870      5145.2661 
    14919.7383         1.6020      9313.0938         6.8475         4.4778
    3061.59240 
       39.8016        75.6017        68.8626        82.3409      1208.4788 
    11278.6006      6953.5532        12.3260        12.3260        30.5030 
       19.5386         0.0005       0.193412      -999.2500     10221.3682 
     5196.8594     10423.4805      6179.1177       0.174071      1881.9397 
        2.4851         1.4732      9322.1152      2956.7368      5159.8428 
    14952.7109         1.6220      9218.7393         6.7639         4.4065
    3061.74480 
       39.7499        70.9956        62.7107        79.2805      1206.2623 
    11208.3955      6777.0356        13.7001        13.7001        33.7717 
       18.6316         0.0005       0.211868      -999.2500     10221.9463 
     5196.9380     10417.7119      6306.6357       0.190681      1923.5005 
        2.4836         1.5035      9660.2725      2849.0637      5144.3340 
    14917.6279         1.6539      9019.7842         6.5496         4.2259
    3061.89720 
       39.5244        67.7517        59.6764        75.8270      1196.6360 
    11048.3379      6612.1841        14.1044        14.1044        34.6238 
       17.8102         0.0005       0.220971      -999.2500     10222.5234 
     5197.0171     10415.0771      6371.4482       0.198874      1955.2723 
        2.4829         1.5189      9853.4414      2729.4863      5077.2632 
    14765.9102         1.6709      8837.0684         6.3079         4.0252
    3062.04960 
       39.1581        66.3740        60.1225        72.6254      1181.1320 
    10812.1113      6480.7427        13.4711        13.4711        32.9017 
       17.1962         0.0005       0.219632      -999.2500     10223.0996 
     5197.0957     10416.1650      6361.8008       0.197669      1887.5281 
        2.4830         1.5165      9698.6582      2620.4509      4970.2202 
    14523.7734         1.6683      8705.5000         6.0838         3.8422
    3062.20200 
       38.8118        66.3275        62.3860        70.2691      1166.6268 
    10580.8340      6390.7139        12.4697        12.4697        30.2716 
       16.8237         0.0004       0.212842      -999.2500     10223.6768 
     5197.1753     10419.1875      6313.4634       0.191558      1664.0035 
        2.4836         1.5049      9154.9336      2541.3240      4871.1675 
    14299.7109         1.6557      8636.8770         5.9188         3.7095
    3062.35440 
       38.6101        66.9616        64.8492        69.0739      1158.2378 
    10421.6201      6345.3135        11.6399        11.6399        28.0842 
       16.6876         0.0004       0.205452      -999.2500     10224.2539 
     5197.2539     10422.3789      6261.7529       0.184907      1481.1350 
        2.4842         1.4925      8685.7764      2501.5532      4814.3613 
    14171.2119         1.6424      8628.2920         5.8352         3.6427
    3062.50680 
       38.6647        67.3967        65.5381        69.2553      1160.5056 
    10390.9541      6340.5571        11.4871        11.4871        27.5666 
       16.7526         0.0004       0.203386      -999.2500     10224.8320 
     5197.3325     10423.6924      6247.6128       0.183047      1385.5127 
        2.4844         1.4891      8466.2510      2507.5750      4829.6831 
    14205.8701         1.6388      8668.4189         5.8479         3.6528
    3062.65920 
       39.1435        66.4111        61.2325        71.5897      1180.5172 
    10638.9453      6401.0635        12.9903        12.9903        31.2399 
       17.0378         0.0004       0.216302      -999.2500     10225.4092 
     5197.4116     10419.7441      6338.7090       0.194672      1351.2925 
        2.4833         1.5107      8580.0029      2585.5559      4966.0005 
    14514.2275         1.6621      8732.6787         6.0113         3.7837
    3062.81160 
       40.0644        66.0014        54.9178        77.0851      1219.7926 
    11178.6846      6577.3467        15.8607        15.8607        38.4400 
       17.8501         0.0005       0.235247      -999.2500     10225.9854 
     5197.4902     10413.4229      6477.2524       0.211722      1344.2000 
        2.4817         1.5436      8842.9043      2772.8120      5239.3950 
    15132.6621         1.6996      8903.7998         6.3960         4.0979
