~Version Information Block
VERS .                  2.0:  CWLS LOG ASCII STANDARD - VERSION 2.0
WRAP .                   NO:  One line per depth step
~Well Information Block
#MNEM.UNIT        Data Type   Information
#---------- ----------------  -----------
STRT .M                0.00:  START DEPTH
STOP .M             3613.00:  STOP DEPTH
STEP .M                0.50:  STEP
NULL .              -999.25:  NULL VALUE
COMP .                     :  COMPANY
WELL .      RAAG-100-07-213:  WELL
FLD  .                     :  FIELD
LOC  .                     :  LOCATION
CTRY .                     :  COUNTRY
STAT .                     :  STATE
CNTY .                     :  COUNTY
SRVC .                     :  SERVICE COMPANY
DATE .                     :  DATE
API  .                     :  API NUMBER
UWI  .                     :  UNIQUE WELL ID
~Curve Information Block
#MNEM.UNIT         API CODE   Curve Description
#---------- ----------------  -----------------
DEPTH.M                    :  
OBG  .G/CC                 :  2.174+0.00008962*TVDSS
PP   .G/CC                 :  2.1087-0.00029524*TVDSS
~Parameter Information Block
#MNEM.UNIT            Value   Description
#---------- ----------------  -----------
PROJECT.          RDG_13Jul21:  
SET  .              GEOMECH:  
~Other Information Block
# 
~A       DEPTH            OBG             PP 
# ...
       1691.00         2.3176         1.6355
       1691.50         2.3177         1.6354
       1692.00         2.3177         1.6353
       1692.50         2.3178         1.6351
       1693.00         2.3178         1.6350
       1693.50         2.3178         1.6348
       1694.00         2.3179         1.6347
       1694.50         2.3179         1.6345
       1695.00         2.3180         1.6344
       1695.50         2.3180         1.6342
       1696.00         2.3181         1.6341
       1696.50         2.3181         1.6339
       1697.00         2.3182         1.6338
       1697.50         2.3182         1.6336
       1698.00         2.3183         1.6335
       1698.50         2.3183         1.6333
       1699.00         2.3183         1.6332
       1699.50         2.3184         1.6330
       1700.00         2.3184         1.6329
       1700.50         2.3185         1.6327
       1701.00         2.3185         1.6326
       1701.50         2.3186         1.6324
       1702.00         2.3186         1.6323
       1702.50         2.3187         1.6322
       1703.00         2.3187         1.6320
       1703.50         2.3187         1.6319
       1704.00         2.3188         1.6317
       1704.50         2.3188         1.6316
       1705.00         2.3189         1.6314
       1705.50         2.3189         1.6313
       1706.00         2.3190         1.6311
       1706.50         2.3190         1.6310
       1707.00         2.3191         1.6308
       1707.50         2.3191         1.6307
       1708.00         2.3191         1.6305
       1708.50         2.3192         1.6304
       1709.00         2.3192         1.6302
       1709.50         2.3193         1.6301
       1710.00         2.3193         1.6299
       1710.50         2.3194         1.6298
       1711.00         2.3194         1.6296
       1711.50         2.3195         1.6295
       1712.00         2.3195         1.6293
       1712.50         2.3196         1.6292
       1713.00         2.3196         1.6291
       1713.50         2.3196         1.6289
       1714.00         2.3197         1.6288
       1714.50         2.3197         1.6286
       1715.00         2.3198         1.6285
       1715.50         2.3198         1.6283
       1716.00         2.3199         1.6282
       1716.50         2.3199         1.6280
       1717.00         2.3200         1.6279
       1717.50         2.3200         1.6277
       1718.00         2.3200         1.6276
       1718.50         2.3201         1.6274
       1719.00         2.3201         1.6273
       1719.50         2.3202         1.6271
       1720.00         2.3202         1.6270
       1720.50         2.3203         1.6268
       1721.00         2.3203         1.6267
       1721.50         2.3204         1.6265
       1722.00         2.3204         1.6264
       1722.50         2.3204         1.6262
       1723.00         2.3205         1.6261
       1723.50         2.3205         1.6260
       1724.00         2.3206         1.6258
       1724.50         2.3206         1.6257
       1725.00         2.3207         1.6255
       1725.50         2.3207         1.6254
       1726.00         2.3208         1.6252
       1726.50         2.3208         1.6251
       1727.00         2.3209         1.6249
       1727.50         2.3209         1.6248
       1728.00         2.3209         1.6246
       1728.50         2.3210         1.6245
       1729.00         2.3210         1.6243
       1729.50         2.3211         1.6242
       1730.00         2.3211         1.6240
       1730.50         2.3212         1.6239
       1731.00         2.3212         1.6237
       1731.50         2.3213         1.6236
       1732.00         2.3213         1.6234
       1732.50         2.3213         1.6233
       1733.00         2.3214         1.6231
       1733.50         2.3214         1.6230
       1734.00         2.3215         1.6229
       1734.50         2.3215         1.6227
       1735.00         2.3216         1.6226
       1735.50         2.3216         1.6224
       1736.00         2.3217         1.6223
       1736.50         2.3217         1.6221
       1737.00         2.3217         1.6220
       1737.50         2.3218         1.6218
       1738.00         2.3218         1.6217
       1738.50         2.3219         1.6215
       1739.00         2.3219         1.6214
       1739.50         2.3220         1.6212
       1740.00         2.3220         1.6211
       1740.50         2.3221         1.6209
       1741.00         2.3221         1.6208
       1741.50         2.3222         1.6206
       1742.00         2.3222         1.6205
       1742.50         2.3222         1.6203
       1743.00         2.3223         1.6202
       1743.50         2.3223         1.6200
       1744.00         2.3224         1.6199
       1744.50         2.3224         1.6198
       1745.00         2.3225         1.6196
       1745.50         2.3225         1.6195
       1746.00         2.3226         1.6193
       1746.50         2.3226         1.6192
       1747.00         2.3226         1.6190
       1747.50         2.3227         1.6189
       1748.00         2.3227         1.6187
       1748.50         2.3228         1.6186
       1749.00         2.3228         1.6184
       1749.50         2.3229         1.6183
       1750.00         2.3229         1.6181
       1750.50         2.3230         1.6180
       1751.00         2.3230         1.6178
       1751.50         2.3230         1.6177
       1752.00         2.3231         1.6175
       1752.50         2.3231         1.6174
       1753.00         2.3232         1.6172
       1753.50         2.3232         1.6171
       1754.00         2.3233         1.6169
       1754.50         2.3233         1.6168
       1755.00         2.3234         1.6167
       1755.50         2.3234         1.6165
       1756.00         2.3235         1.6164
       1756.50         2.3235         1.6162
       1757.00         2.3235         1.6161
       1757.50         2.3236         1.6159
       1758.00         2.3236         1.6158
       1758.50         2.3237         1.6156
       1759.00         2.3237         1.6155
       1759.50         2.3238         1.6153
       1760.00         2.3238         1.6152
       1760.50         2.3239         1.6150
       1761.00         2.3239         1.6149
       1761.50         2.3239         1.6147
       1762.00         2.3240         1.6146
       1762.50         2.3240         1.6144
       1763.00         2.3241         1.6143
       1763.50         2.3241         1.6141
       1764.00         2.3242         1.6140
       1764.50         2.3242         1.6138
       1765.00         2.3243         1.6137
       1765.50         2.3243         1.6136
       1766.00         2.3243         1.6134
       1766.50         2.3244         1.6133
       1767.00         2.3244         1.6131
       1767.50         2.3245         1.6130
       1768.00         2.3245         1.6128
       1768.50         2.3246         1.6127
       1769.00         2.3246         1.6125
       1769.50         2.3247         1.6124
       1770.00         2.3247         1.6122
       1770.50         2.3247         1.6121
       1771.00         2.3248         1.6119
       1771.50         2.3248         1.6118
       1772.00         2.3249         1.6116
       1772.50         2.3249         1.6115
       1773.00         2.3250         1.6113
       1773.50         2.3250         1.6112
       1774.00         2.3251         1.6110
       1774.50         2.3251         1.6109
       1775.00         2.3252         1.6107
       1775.50         2.3252         1.6106
       1776.00         2.3252         1.6105
       1776.50         2.3253         1.6103
       1777.00         2.3253         1.6102
       1777.50         2.3254         1.6100
       1778.00         2.3254         1.6099
       1778.50         2.3255         1.6097
       1779.00         2.3255         1.6096
       1779.50         2.3256         1.6094
