~Version Information Block
VERS .                  2.0:  CWLS LOG ASCII STANDARD - VERSION 2.0
WRAP .                   NO:  One line per depth step
~Well Information Block
#MNEM.UNIT        Data Type   Information
#---------- ----------------  -----------
STRT .M          2889.76360:  START DEPTH
STOP .M          3614.73040:  STOP DEPTH
STEP .M             0.15240:  STEP
NULL .              -999.25:  NULL VALUE
COMP .                     :  COMPANY
WELL .       RAAG-89-05-105:  WELL
FLD  .                     :  FIELD
LOC  .                     :  LOCATION
CTRY .                     :  COUNTRY
STAT .                     :  STATE
CNTY .                     :  COUNTY
SRVC .                     :  SERVICE COMPANY
DATE .                     :  DATE
API  .                     :  API NUMBER
UWI  .                     :  UNIQUE WELL ID
~Curve Information Block
#MNEM.UNIT         API CODE   Curve Description
#---------- ----------------  -----------------
DEPTH.M                    :  
PRESS_PP.PSI                  :  Pore Pressure
PZS  .PSI                  :  Processed Zone Stress
~Parameter Information Block
#MNEM.UNIT            Value   Description
#---------- ----------------  -----------
PROJECT.          RDG_13Jul21:  
SET  .              GEOMECH:  
~Other Information Block
# 
~A       DEPTH       PRESS_PP            PZS 
# ...
    3513.68920      5349.1909      3066.9985
    3513.84160      5349.2129      3063.9302
    3513.99400      5349.2344      3024.2664
    3514.14640      5349.2549      2769.2673
    3514.29880      5349.2764      2852.2766
    3514.45120      5349.2979      2863.8806
    3514.60360      5349.3188      2901.8547
    3514.75600      5349.3403      3003.0796
    3514.90840      5349.3613      3033.3828
    3515.06080      5349.3828      3009.1208
    3515.21320      5349.4038      2916.5671
    3515.36560      5349.4253      2863.8806
    3515.51800      5349.4463      2916.5671
    3515.67040      5349.4678      3073.1423
    3515.82280      5349.4888      2964.0479
    3515.97520      5349.5093      2994.0359
    3516.12760      5349.5303      3012.1450
    3516.28000      5349.5513      2967.0359
    3516.43240      5349.5732      3039.4727
    3516.58480      5349.5938      3030.3416
    3516.73720      5349.6147      2997.0481
    3516.88960      5349.6357      3012.1450
    3517.04200      5349.6567      3079.2959
    3517.19440      5349.6777      3079.2959
    3517.34680      5349.6987      3079.2959
    3517.49920      5349.7197      2994.0359
    3517.65160      5349.7402      2982.0117
    3517.80400      5349.7612      3079.2959
    3517.95640      5349.7822      3079.2959
    3518.10880      5349.8032      3079.2959
    3518.26120      5349.8237      3045.5725
    3518.41360      5349.8442      2994.0359
    3518.56600      5349.8647      2946.1707
    3518.71840      5349.8857      2961.0623
    3518.87080      5349.9063      2895.9866
    3519.02320      5349.9272      2772.0972
    3519.17560      5349.9478      2826.3049
    3519.32800      5349.9688      3079.2959
    3519.48040      5349.9893      3079.2959
    3519.63280      5350.0098      3079.2959
    3519.78520      5350.0308      3079.2959
    3519.93760      5350.0513      3079.2959
    3520.09000      5350.0718      3079.2959
    3520.24240      5350.0923      3073.1423
    3520.39480      5350.1128      2922.4688
    3520.54720      5350.1338      2925.4231
    3520.69960      5350.1543      2979.0117
    3520.85200      5350.1748      3018.2007
    3521.00440      5350.1943      3076.2180
    3521.15680      5350.2148      3079.2959
    3521.30920      5350.2354      3079.2959
    3521.46160      5350.2559      3027.3027
    3521.61400      5350.2769      2937.2644
    3521.76640      5350.2974      2952.1201
    3521.91880      5350.3174      3048.6260
    3522.07120      5350.3379      3079.2959
    3522.22360      5350.3584      3079.2959
    3522.37600      5350.3784      3079.2959
    3522.52840      5350.3989      3073.1423
    3522.68080      5350.4189      3079.2959
    3522.83320      5350.4390      3079.2959
    3522.98560      5350.4590      3057.8013
    3523.13800      5350.4795      2994.0359
    3523.29040      5350.4995      2890.1279
    3523.44280      5350.5195      3033.3828
    3523.59520      5350.5400      3079.2959
    3523.74760      5350.5601      3079.2959
    3523.90000      5350.5801      3079.2959
    3524.05240      5350.6001      3079.2959
    3524.20480      5350.6201      3048.6260
    3524.35720      5350.6401      3060.8645
    3524.50960      5350.6602      3079.2959
    3524.66200      5350.6802      3079.2959
    3524.81440      5350.7002      3079.2959
    3524.96680      5350.7202      3079.2959
    3525.11920      5350.7402      3079.2959
    3525.27160      5350.7603      3079.2959
    3525.42400      5350.7803      3063.9302
    3525.57640      5350.8003      2994.0359
    3525.72880      5350.8198      2970.0261
    3525.88120      5350.8398      3027.3027
    3526.03360      5350.8599      3079.2959
    3526.18600      5350.8794      3073.1423
    3526.33840      5350.8994      3036.4265
    3526.49080      5350.9189      3070.0691
    3526.64320      5350.9390      2823.4309
    3526.79560      5350.9585      2789.1248
    3526.94800      5350.9785      3079.2959
    3527.10040      5350.9980      3079.2959
    3527.25280      5351.0176      3079.2959
    3527.40520      5351.0376      3079.2959
    3527.55760      5351.0571      3079.2959
    3527.71000      5351.0767      3057.8013
    3527.86240      5351.0962      2964.0479
    3528.01480      5351.1157      3051.6819
    3528.16720      5351.1357      3079.2959
    3528.31960      5351.1553      3079.2959
    3528.47200      5351.1748      3079.2959
    3528.62440      5351.1943      3079.2959
    3528.77680      5351.2139      3079.2959
    3528.92920      5351.2329      3079.2959
    3529.08160      5351.2524      2869.6968
    3529.23400      5351.2720      2574.1741
    3529.38640      5351.2915      2811.9583
    3529.53880      5351.3110      2931.3391
    3529.69120      5351.3301      2955.0984
    3529.84360      5351.3496      2991.0264
    3529.99600      5351.3691      3079.2959
    3530.14840      5351.3882      3079.2959
    3530.30080      5351.4077      3079.2959
    3530.45320      5351.4268      2852.2766
    3530.60560      5351.4463      2823.4309
    3530.75800      5351.4653      3079.2959
    3530.91040      5351.4849      3079.2959
    3531.06280      5351.5039      3079.2959
    3531.21520      5351.5229      2964.0479
    3531.36760      5351.5425      2881.3574
    3531.52000      5351.5610      2919.5168
    3531.67240      5351.5801      3073.1423
    3531.82480      5351.5991      2846.4888
    3531.97720      5351.6182      2943.1995
    3532.12960      5351.6382      3079.2959
    3532.28200      5351.6572      3048.6260
    3532.43440      5351.6763      2898.9194
    3532.58680      5351.6953      2991.0264
    3532.73920      5351.7144      2973.0190
    3532.89160      5351.7334      2973.0190
    3533.04400      5351.7524      3045.5725
    3533.19640      5351.7710      3079.2959
    3533.34880      5351.7900      2982.0117
    3533.50120      5351.8091      2967.0359
    3533.65360      5351.8281      2931.3391
    3533.80600      5351.8467      2893.0559
    3533.95840      5351.8652      3070.0691
    3534.11080      5351.8838      3079.2959
    3534.26320      5351.9028      3079.2959
    3534.41560      5351.9219      3039.4727
    3534.56800      5351.9404      2928.3799
    3534.72040      5351.9600      2738.2915
    3534.87280      5351.9785      2884.2786
    3535.02520      5351.9976      3003.0796
    3535.17760      5352.0156      3063.9302
    3535.33000      5352.0342      3079.2959
    3535.48240      5352.0527      3079.2959
    3535.63480      5352.0718      3054.7402
    3535.78720      5352.0903      2940.2307
    3535.93960      5352.1089      2803.3782
    3536.09200      5352.1274      2713.1545
    3536.24440      5352.1460      2743.9028
    3536.39680      5352.1646      2652.4846
    3536.54920      5352.1831      2619.8523
    3536.70160      5352.2017      2666.1770
    3536.85400      5352.2202      2774.9294
    3537.00640      5352.2388      2843.5984
    3537.15880      5352.2573      2860.9761
    3537.31120      5352.2759      2887.2019
    3537.46360      5352.2939      2858.0740
    3537.61600      5352.3125      2774.9294
    3537.76840      5352.3311      2757.9712
    3537.92080      5352.3496      2791.9709
    3538.07320      5352.3677      2955.0984
    3538.22560      5352.3862      3000.0627
    3538.37800      5352.4043      2863.8806
    3538.53040      5352.4229      2863.8806
    3538.68280      5352.4409      2829.1814
    3538.83520      5352.4590      2755.1528
    3538.98760      5352.4771      2649.7529
    3539.14000      5352.4951      2492.5195
    3539.29240      5352.5137      2202.7942
    3539.44480      5352.5317      2051.6631
    3539.59720      5352.5498      1894.2849
    3539.74960      5352.5679      1863.1774
    3539.90200      5352.5869      1962.0371
    3540.05440      5352.6045      1968.4868
    3540.20680      5352.6226      1917.3601
    3540.35920      5352.6406      1881.7925
    3540.51160      5352.6587      1867.3013
    3540.66400      5352.6768      1927.9230
