~Version Information Block
VERS .                  2.0:  CWLS LOG ASCII STANDARD - VERSION 2.0
WRAP .                  YES:  Multiple lines per depth step
~Well Information Block
#MNEM.UNIT        Data Type   Information
#---------- ----------------  -----------
STRT .M          2676.97280:  START DEPTH
STOP .M          3838.10840:  STOP DEPTH
STEP .M             0.15240:  STEP
NULL .              -999.25:  NULL VALUE
COMP .                     :  COMPANY
WELL .      RAAG-107-07-210:  WELL
FLD  .                     :  FIELD
LOC  .                     :  LOCATION
CTRY .                     :  COUNTRY
STAT .                     :  STATE
CNTY .                     :  COUNTY
SRVC .                     :  SERVICE COMPANY
DATE .                     :  DATE
API  .                     :  API NUMBER
UWI  .                     :  UNIQUE WELL ID
~Curve Information Block
#MNEM.UNIT         API CODE   Curve Description
#---------- ----------------  -----------------
DEPTH.M                    :  
ANGLE_FAIL.DEG                  :  Fail Angle
BRIT_IND.                     :  Brittleness Index
BRIT_PR.                     :  Brittleness Index from Poisson's Ratio
BRIT_YM.                     :  Brittleness Index from Young's Modulus
CS   .M/MIN                 :  Compressive Strength
DTCO .US/F                 :  Compressional slowness
DTSM .US/F                 :  Fast Shear Slowness
IP   .RAYL/M2                 :  P Impedence
IS   .RAYL/M2                 :  S Impedance
KBULK.                     :  Bulk Mudulus
LAMBDA.                     :  Lambda
LAMRHO.                     :  
MU   .CP                   :  Mu
MURHO.(GF/C3S)2                 :  Mu*Rho
PR   .                     :  Poisson's ratio
PRESS_FG.PSI                  :  Fracture Gradient Pressure
PRESS_OB.PSI                  :  Over-burden Pressure
PRESS_PP.PSI                  :  Pore Pressure
PRESS_SHMAX.PSI                  :  Horizontal Stress (Max)
PRESS_SHMIN.PSI                  :  Horizontal Stress (Min)
PR_STAT.                     :  Poisson's ratio (Static)
PZS  .PSI                  :  Processed Zone Stress
SHMAX_GRAD.                     :  Horizontal Stress Gradient (Max)
SHMIN_GRAD.                     :  Horizontal Stress Gradient (Min)
STRESS_CUM.PSI                  :  Cumulative stress (SHPZ)
UCS_BF.PSI                  :  Uniaxial Compressive Strength (BF)
UCS_LAL.PSI                  :  Uniaxial Compressive Strength (lal)
VP   .FT/S                 :  Compressional velocity
VPVS .                     :  Vp / Vs ratio
VS   .FT/S                 :  Shear velocity
YM   .                     :  Youngs' Modulus
YM_STAT.                     :  Youngs' Modulus (Static)
~Parameter Information Block
#MNEM.UNIT            Value   Description
#---------- ----------------  -----------
PROJECT.          RDG_13Jul21:  
SET  .              GEOMECH:  
~Other Information Block
~Ascii Log Data
# ...
    2930.56640 
       31.5245        43.4982        56.2115        30.7848       889.6468 
       95.4985       161.5383      7918.3047      4681.1572         7.6073 
        7.6073        18.8731         8.8327    0.000235872       0.231365 
     -999.2500      8936.5586      4970.2183      9086.2744      5942.2432 
      0.208229      1872.5994         2.4480         1.6009      8829.6855 
     1356.7693      3178.7534     10471.3691         1.6915      6190.4824 
        3.1549         1.7218
    2930.71880 
       32.8575        40.7350        47.6077        33.8622       936.7659 
       90.3894       158.0939      8384.2793      4793.6699         9.7884 
        9.7884        24.3376         9.2420    0.000247347       0.257177 
     -999.2500      8937.1260      4970.3408      9079.0850      6097.9575 
      0.231459      1752.8458         2.4459         1.6428      8901.6074 
     1439.5066      3440.4067     11063.2441         1.7490      6325.3550 
        3.3704         1.8606
    2930.87120 
       33.6625        39.0959        42.3932        35.7986       965.9109 
       87.4023       156.3720      8715.7012      4871.5396        11.4033 
       11.4033        28.4997         9.4956    0.000255448       0.272820 
     -999.2500      8937.6953      4970.4634      9074.7236      6197.1191 
      0.245538      1627.4774         2.4446         1.6694      8849.1934 
     1492.4010      3607.5564     11441.3467         1.7891      6395.0068 
        3.5059         1.9494
    2931.02360 
       33.7069        38.8980        41.8837        35.9124       967.5338 
       87.2397       156.4442      8749.3467      4878.9946        11.5572 
       11.5572        28.9419         9.5057    0.000256230       0.274349 
     -999.2500      8938.2637      4970.5859      9074.8145      6207.2456 
      0.246914      1527.2069         2.4445         1.6720      8668.9053 
     1495.5270      3616.9834     11462.6719         1.7933      6392.0552 
        3.5139         1.9546
    2931.17600 
       33.4592        38.2608        41.8855        34.6361       958.4996 
       88.1498       158.0749      8615.7480      4804.5352        11.2629 
       11.2629        28.0640         9.2641    0.000248469       0.274343 
     -999.2500      8938.8320      4970.7080      9075.4043      6207.3984 
      0.246909      1466.2743         2.4445         1.6720      8547.3457 
     1460.5699      3564.6653     11344.3252         1.7933      6326.1147 
        3.4245         1.8960
    2931.32840 
       33.1356        37.0374        41.2041        32.8708       946.7720 
       89.3494       160.7299      8457.3164      4701.4038        11.0197 
       11.0197        27.3198         8.9155    0.000237917       0.276388 
     -999.2500      8939.4014      4970.8306      9075.3311      6220.7930 
      0.248749      1463.7760         2.4443         1.6755      8569.1377 
     1412.6748      3497.3337     11192.0166         1.7989      6221.6177 
        3.3010         1.8156
    2931.48080 
       32.7637        36.0541        40.8141        31.2940       933.4056 
       90.7421       163.5316      8324.4912      4619.1797        10.7427 
       10.7427        26.6235         8.6095    0.000229668       0.277558 
     -999.2500      8939.9697      4970.9531      9075.5400      6228.5718 
      0.249802      1536.7219         2.4442         1.6775      8730.5879 
     1370.3474      3421.3967     11020.2432         1.8022      6115.0264 
        3.1906         1.7446
    2931.63320 
       32.3308        35.6872        41.3880        29.9863       917.9811 
       92.3837       166.0469      8199.2275      4561.8130        10.3040 
       10.3040        25.6070         8.3738    0.000223998       0.275836 
     -999.2500      8940.5381      4971.0757      9076.6865      6217.5791 
      0.248252      1659.0580         2.4444         1.6744      8953.2744 
     1335.5660      3334.8286     10824.4209         1.7974      6022.3945 
        3.0990         1.6862
    2931.78560 
       31.8548        35.8360        42.8923        28.7797       901.1951 
       94.2132       168.1776      8051.3535      4510.3735         9.6989 
        9.6989        24.1374         8.1745    0.000218975       0.271323 
     -999.2500      8941.1064      4971.1982      9078.7275      6188.6758 
      0.244191      1779.2241         2.4448         1.6665      9135.7998 
     1303.7316      3241.9058     10614.2236         1.7851      5946.0952 
        3.0146         1.6328
    2931.93800 
       31.3656        36.3274        45.0146        27.6402       884.1178 
       96.1217       169.9823      7887.9653      4460.4912         9.0161 
        9.0161        22.4280         7.9982    0.000214159       0.264956 
     -999.2500      8941.6748      4971.3203      9081.3418      6148.3423 
      0.238461      1849.7310         2.4454         1.6556      9196.1465 
     1273.8982      3148.7407     10403.4785         1.7684      5882.9658 
        2.9348         1.5827
    2932.09040 
       30.9371        37.0493        47.3699        26.7287       869.3097 
       97.8162       171.2532      7739.8442      4420.8350         8.3811 
        8.3811        20.8176         7.8683    0.000210368       0.257890 
     -999.2500      8942.2441      4971.4429      9084.1426      6104.2705 
      0.232101      1840.8938         2.4460         1.6436      9090.3281 
     1250.1930      3069.0686     10223.2559         1.7508      5839.3066 
        2.8710         1.5429
    2932.24280 
       30.6389        38.0166        49.7965        26.2366       859.0788 
       99.0089       171.6283      7632.1768      4402.8486         7.8574 
        7.8574        19.4800         7.8192    0.000208659       0.250610 
     -999.2500      8942.8125      4971.5649      9086.9717      6059.6343 
      0.225549      1798.0642         2.4466         1.6315      8915.3965 
     1237.4564      3014.6255     10100.1016         1.7335      5826.5449 
        2.8366         1.5216
    2932.39520 
       30.6113        38.9839        51.4760        26.4917       858.1363 
       99.1197       170.6815      7617.9180      4423.9458         7.6252 
        7.6252        18.8901         7.9002    0.000210664       0.245572 
     -999.2500      8943.3818      4971.6875      9089.0859      6029.2881 
      0.221015      1766.2183         2.4470         1.6232      8791.0127 
     1244.0546      3009.6345     10088.8115         1.7220      5858.8657 
        2.8544         1.5326
    2932.54760 
       30.9662        39.3744        51.0298        27.7190       870.3105 
       97.7005       168.5323      7753.6221      4494.8818         7.9308 
        7.9308        19.7107         8.1292    0.000217474       0.246911 
     -999.2500      8943.9502      4971.8096      9089.2627      6037.7031 
      0.222220      1748.8945         2.4469         1.6254      8773.1953 
     1275.9552      3074.4207     10235.3613         1.7250      5933.5806 
        2.9403         1.5862
    2932.70000 
       31.4702        39.6415        49.8851        29.3978       887.7546 
       95.7112       165.8529      7949.5679      4587.5752         8.4542 
        8.4542        21.1039         8.4309    0.000226536       0.250345 
     -999.2500      8944.5186      4971.9321      9088.7969      6058.9404 
      0.225310      1742.0330         2.4467         1.6310      8801.9473 
     1320.0089      3168.4661     10448.0986         1.7328      6029.4395 
        3.0578         1.6601
    2932.85240 
       31.8623        40.3306        49.7818        30.8793       901.4579 
       94.1842       163.2745      8092.7485      4668.2671         8.7605 
        8.7605        21.9071         8.7147    0.000234575       0.250655 
     -999.2500      8945.0869      4972.0547      9089.2832      6061.1709 
      0.225589      1738.1320         2.4466         1.6315      8798.6055 
     1359.2870      3243.3508     10617.4922         1.7336      6124.6548 
        3.1616         1.7260
