~Version Information Block
VERS .                  2.0:  CWLS LOG ASCII STANDARD - VERSION 2.0
WRAP .                  YES:  Multiple lines per depth step
~Well Information Block
#MNEM.UNIT        Data Type   Information
#---------- ----------------  -----------
STRT .M          2676.97280:  START DEPTH
STOP .M          3838.10840:  STOP DEPTH
STEP .M             0.15240:  STEP
NULL .              -999.25:  NULL VALUE
COMP .                     :  COMPANY
WELL .      RAAG-107-07-210:  WELL
FLD  .                     :  FIELD
LOC  .                     :  LOCATION
CTRY .                     :  COUNTRY
STAT .                     :  STATE
CNTY .                     :  COUNTY
SRVC .                     :  SERVICE COMPANY
DATE .                     :  DATE
API  .                     :  API NUMBER
UWI  .                     :  UNIQUE WELL ID
~Curve Information Block
#MNEM.UNIT         API CODE   Curve Description
#---------- ----------------  -----------------
DEPTH.M                    :  
ANGLE_FAIL.DEG                  :  Fail Angle
BRIT_IND.                     :  Brittleness Index
BRIT_PR.                     :  Brittleness Index from Poisson's Ratio
BRIT_YM.                     :  Brittleness Index from Young's Modulus
CS   .M/MIN                 :  Compressive Strength
DTCO .US/F                 :  Compressional slowness
DTSM .US/F                 :  Fast Shear Slowness
IP   .RAYL/M2                 :  P Impedence
IS   .RAYL/M2                 :  S Impedance
KBULK.                     :  Bulk Mudulus
LAMBDA.                     :  Lambda
LAMRHO.                     :  
MU   .CP                   :  Mu
MURHO.(GF/C3S)2                 :  Mu*Rho
PR   .                     :  Poisson's ratio
PRESS_FG.PSI                  :  Fracture Gradient Pressure
PRESS_OB.PSI                  :  Over-burden Pressure
PRESS_PP.PSI                  :  Pore Pressure
PRESS_SHMAX.PSI                  :  Horizontal Stress (Max)
PRESS_SHMIN.PSI                  :  Horizontal Stress (Min)
PR_STAT.                     :  Poisson's ratio (Static)
PZS  .PSI                  :  Processed Zone Stress
SHMAX_GRAD.                     :  Horizontal Stress Gradient (Max)
SHMIN_GRAD.                     :  Horizontal Stress Gradient (Min)
STRESS_CUM.PSI                  :  Cumulative stress (SHPZ)
UCS_BF.PSI                  :  Uniaxial Compressive Strength (BF)
UCS_LAL.PSI                  :  Uniaxial Compressive Strength (lal)
VP   .FT/S                 :  Compressional velocity
VPVS .                     :  Vp / Vs ratio
VS   .FT/S                 :  Shear velocity
YM   .                     :  Youngs' Modulus
YM_STAT.                     :  Youngs' Modulus (Static)
~Parameter Information Block
#MNEM.UNIT            Value   Description
#---------- ----------------  -----------
PROJECT.          RDG_13Jul21:  
SET  .              GEOMECH:  
~Other Information Block
~Ascii Log Data
# ...
    3291.44960 
       40.8801        67.6164        45.3350        89.8978      1255.4752 
       63.6545       112.4110     12954.3164      7335.5854        22.2492 
       22.2492        60.1927        19.8903    0.000579215       0.263995 
     -999.2500     10292.8340      5205.7266     10471.1865      6725.7822 
      0.237595      2722.3037         2.4818         1.5941     12096.1719 
     3229.4766      5494.5366     15709.8086         1.7660      8895.9258 
        7.2928         4.8642
    3291.60200 
       40.9136        66.4819        43.5999        89.3640      1256.9595 
       63.5561       113.0938     13011.5908      7312.2129        22.9861 
       22.9861        62.3646        19.7072    0.000575530       0.269200 
     -999.2500     10293.4121      5205.8037     10469.6768      6768.1138 
      0.242280      2788.9680         2.4814         1.6041     12314.1631 
     3209.8884      5505.2891     15734.1309         1.7794      8842.2178 
        7.2555         4.8313
    3291.75440 
       40.7728        66.0465        43.8251        88.2680      1250.7294 
       63.9705       113.7175     12938.9570      7278.6646        22.6318 
       22.6318        61.4587        19.5092    0.000570261       0.268525 
     -999.2500     10293.9893      5205.8799     10470.5508      6762.7612 
      0.241672      2844.9636         2.4814         1.6027     12415.4492 
     3169.8259      5460.2300     15632.2061         1.7777      8793.7207 
        7.1788         4.7641
    3291.90680 
       40.4209        66.1719        46.1463        86.1974      1235.2787 
       65.0138       114.4127     12696.9639      7214.9150        21.0847 
       21.0847        57.1029        19.2208    0.000560315       0.261561 
     -999.2500     10294.5674      5205.9570     10473.9629      6706.6504 
      0.235405      2829.8308         2.4821         1.5893     12272.9629 
     3094.7026      5349.3330     15381.3496         1.7598      8740.2891 
        7.0338         4.6380
    3292.05920 
       39.8688        66.7710        50.5307        83.0115      1211.3612 
       66.6737       115.2384     12290.1094      7110.7114        18.5695 
       18.5695        49.9223        18.8075    0.000544247       0.248408 
     -999.2500     10295.1445      5206.0337     10479.7529      6602.9868 
      0.223567      2680.2803         2.4834         1.5647     11766.5342 
     2980.5437      5180.0488     14998.4170         1.7284      8677.6631 
        6.8108         4.4465
    3292.21160 
       39.3297        67.3769        54.8894        79.8643      1188.3777 
       68.3219       116.1303     11910.7832      7007.3643        16.3532 
       16.3532        43.6604        18.3918    0.000528542       0.235332 
     -999.2500     10295.7227      5206.1099     10485.3584      6503.0078 
      0.211799      2435.2959         2.4846         1.5409     11076.6074 
     2869.4817      5020.0962     14636.5957         1.6998      8611.0166 
        6.5905         4.2601
    3292.36400 
       39.1374        66.4696        54.9611        77.9781      1180.2609 
       68.9168       117.1104     11769.5859      6926.1333        16.0007 
       16.0007        42.5805        18.0265    0.000516359       0.235117 
     -999.2500     10296.3008      5206.1870     10486.0430      6501.4595 
      0.211605      2166.3159         2.4846         1.5405     10535.5508 
     2803.7271      4964.2417     14510.2500         1.6993      8538.9512 
        6.4585         4.1498
    3292.51640 
       39.0531        65.1930        53.7645        76.6215      1176.7207 
       69.1784       118.0816     11711.0547      6860.9507        16.1790 
       16.1790        43.0035        17.7099    0.000506686       0.238706 
     -999.2500     10296.8779      5206.2632     10485.2871      6528.7017 
      0.214836      1914.0098         2.4843         1.5469     10085.4238 
     2756.8140      4939.9849     14455.3789         1.7069      8468.7197 
        6.3635         4.0711
    3292.66880 
       39.0011        63.7748        52.6012        74.9485      1174.5399 
       69.3402       118.8828     11592.2119      6761.3340        16.2857 
       16.2857        42.9481        17.3352    0.000492079       0.242197 
     -999.2500     10297.4551      5206.3394     10484.5586      6555.3887 
      0.217977      1610.1693         2.4840         1.5531      9531.1162 
     2699.3931      4925.0732     14421.6475         1.7145      8411.6455 
        6.2464         3.9747
    3292.82120 
       38.8404        62.0663        52.4125        71.7200      1167.8187 
       69.8420       119.8300     11264.8604      6565.6382        15.7606 
       15.7606        40.6819        16.7004    0.000464006       0.242762 
     -999.2500     10298.0332      5206.4160     10484.9502      6559.7026 
      0.218486      1315.3533         2.4840         1.5540      8950.1113 
     2589.9348      4879.2666     14318.0322         1.7157      8345.1563 
        6.0204         3.7910
    3292.97360 
       38.5173        59.9408        52.8858        66.9958      1154.3961 
       70.8585       121.3535     10774.1992      6291.0718        14.7434 
       14.7434        36.9282        15.8011    0.000426010       0.241343 
     -999.2500     10298.6113      5206.4922     10486.1055      6548.7192 
      0.217208      1066.9620         2.4841         1.5514      8431.3623 
     2432.9827      4788.4653     14112.6338         1.7126      8240.3887 
        5.6897         3.5277
    3293.12600 
       38.1690        57.4705        52.6135        62.3276      1140.0626 
       71.9655       123.3780     10328.8027      6024.7163        13.9786 
       13.9786        34.0897        14.8838    0.000390700       0.242160 
     -999.2500     10299.1895      5206.5688     10486.4063      6554.8555 
      0.217944       869.4911         2.4841         1.5527      8048.6929 
     2281.6414      4692.4971     13895.5469         1.7144      8105.1733 
        5.3629         3.2737
    3293.27840 
       37.9179        55.2341        51.4162        59.0520      1129.8158 
       72.7708       125.3387     10061.9336      5841.8901        13.7316 
       13.7316        32.9871        14.2064    0.000367347       0.245752 
     -999.2500     10299.7666      5206.6455     10485.6328      6582.4487 
      0.221176       722.4354         2.4838         1.5592      7809.7681 
     2177.6760      4624.5186     13741.7754         1.7224      7978.3818 
        5.1336         3.0993
    3293.43080 
       37.7915        53.4062        49.7323        57.0800      1124.6819 
       73.1787       126.8853      9938.2666      5731.7080        13.8573 
       13.8573        33.0642        13.7685    0.000353621       0.250803 
     -999.2500     10300.3438      5206.7222     10484.2744      6621.7427 
      0.225723       609.0289         2.4833         1.5684      7661.5435 
     2115.9695      4590.6567     13665.1768         1.7339      7881.1333 
        4.9956         2.9957
    3293.58320 
       37.7187        52.4756        48.9189        56.0322      1121.7349 
       73.4142       127.7130      9869.4453      5673.3257        13.8959 
       13.8959        33.0327        13.5400    0.000346454       0.253243 
     -999.2500     10300.9229      5206.7983     10483.9189      6641.0020 
      0.227919       543.9490         2.4831         1.5729      7569.9019 
     2083.4536      4571.2783     13621.3428         1.7396      7830.0566 
        4.9223         2.9412
    3293.73560 
       37.6964        52.9610        49.7584        56.1635      1120.8351 
       73.4863       127.4053      9850.4346      5681.6475        13.6716 
       13.6716        32.4688        13.5926    0.000347471       0.250725 
     -999.2500     10301.5000      5206.8750     10485.4990      6621.5132 
      0.225652       564.5381         2.4833         1.5682      7572.1030 
     2087.5198      4565.3706     13607.9785         1.7337      7848.9673 
        4.9314         2.9480
