~Version Information Block
VERS .                  2.0:  CWLS LOG ASCII STANDARD - VERSION 2.0
WRAP .                  YES:  Multiple lines per depth step
~Well Information Block
#MNEM.UNIT        Data Type   Information
#---------- ----------------  -----------
STRT .M          2556.50000:  START DEPTH
STOP .M          3600.74480:  STOP DEPTH
STEP .M             0.15240:  STEP
NULL .              -999.25:  NULL VALUE
COMP .                     :  COMPANY
WELL .      RAAG-100-07-213:  WELL
FLD  .                     :  FIELD
LOC  .                     :  LOCATION
CTRY .                     :  COUNTRY
STAT .                     :  STATE
CNTY .                     :  COUNTY
SRVC .                     :  SERVICE COMPANY
DATE .                     :  DATE
API  .                     :  API NUMBER
UWI  .                     :  UNIQUE WELL ID
~Curve Information Block
#MNEM.UNIT         API CODE   Curve Description
#---------- ----------------  -----------------
DEPTH.M                    :  
ANGLE_FAIL.DEG                  :  Fail Angle
BRIT_IND.                     :  Brittleness Index
BRIT_PR.                     :  Brittleness Index from Poisson's Ratio
BRIT_YM.                     :  Brittleness Index from Young's Modulus
CS   .M/MIN                 :  Compressive Strength
DTCO .US/F                 :  Compressional slowness
DTSM .US/F                 :  Description
IP   .RAYL/M2                 :  P Impedence
IS   .RAYL/M2                 :  S Impedance
KBULK.                     :  Bulk Mudulus
LAMBDA.                     :  Lambda
LAMRHO.                     :  
MU   .CP                   :  Mu
MURHO.(GF/C3S)2                 :  Mu*Rho
PR   .                     :  Poisson's ratio
PRESS_FG.PSI                  :  Fracture Gradient Pressure
PRESS_OB.PSI                  :  Over-burden Pressure
PRESS_PP.PSI                  :  Pore Pressure
PRESS_SHMAX.PSI                  :  Horizontal Stress (Max)
PRESS_SHMIN.PSI                  :  Horizontal Stress (Min)
PR_STAT.                     :  Poisson's ratio (Static)
PZS  .PSI                  :  Processed Zone Stress
SHMAX_GRAD.                     :  Horizontal Stress Gradient (Max)
SHMIN_GRAD.                     :  Horizontal Stress Gradient (Min)
STRESS_CUM.PSI                  :  Cumulative stress (SHPZ)
UCS_BF.PSI                  :  Uniaxial Compressive Strength (BF)
UCS_LAL.PSI                  :  Uniaxial Compressive Strength (lal)
VP   .FT/S                 :  Compressional velocity
VPVS .                     :  Vp / Vs ratio
VS   .FT/S                 :  Shear velocity
YM   .                     :  Youngs' Modulus
YM_STAT.                     :  Youngs' Modulus (Static)
~Parameter Information Block
#MNEM.UNIT            Value   Description
#---------- ----------------  -----------
PROJECT.          RDG_13Jul21:  
SET  .              GEOMECH:  
~Other Information Block
~Ascii Log Data
# ...
    2739.38000 
       36.5671        52.9282        51.2656        54.5908      1075.8528 
       77.2115       133.0657     10034.7109      5822.6509        12.9383 
       12.9383        32.8889        13.3374    0.000364932       0.246203 
     -999.2500      9102.5791      5005.1377      9252.5293      6103.5835 
      0.221583      1875.6168         2.4513         1.6170      9158.4004 
     2039.0325      4275.1299     12951.4385         1.7234      7515.0850 
        4.8214         2.8666
    2739.53240 
       36.7196        47.1116        42.1497        52.0734      1081.8496 
       76.7009       137.3782     10150.5986      5667.2769        15.1893 
       15.1893        38.7986        12.5739    0.000345716       0.273551 
     -999.2500      9103.1543      5005.2559      9244.3184      6279.8687 
      0.246196      2235.0273         2.4490         1.6637     10229.7920 
     1962.3004      4313.2451     13037.6572         1.7911      7279.1777 
        4.6451         2.7379
    2739.68480 
       36.7065        40.3342        33.0839        47.5844      1081.3356 
       76.7445       143.7682     10142.3447      5414.0552        17.3251 
       17.3251        44.2432        11.4782    0.000315512       0.300748 
     -999.2500      9103.7285      5005.3735      9235.5713      6466.8774 
      0.270673      2589.5801         2.4465         1.7131     11312.9150 
     1828.1619      4309.9707     13030.2500         1.8733      6955.6392 
        4.3309         2.5128
    2739.83720 
       35.9268        33.2273        26.5325        39.9221      1050.9314 
       79.3813       154.4166      9763.3232      5019.0532        17.6742 
       17.6742        44.9407         9.9070    0.000271153       0.320403 
     -999.2500      9104.3037      5005.4917      9229.0273      6609.8350 
      0.288362      2847.1711         2.4447         1.7509     12114.0117 
     1607.1699      4118.6299     12597.4248         1.9453      6475.9868 
        3.7945         2.1419
    2739.98960 
       34.3305        18.8624        12.4343        25.2905       990.5138 
       84.9782       183.0799      9069.4502      4209.6675        18.5134 
       18.5134        46.8123         7.0085    0.000190751       0.362697 
     -999.2500      9104.8789      5005.6094      9212.9824      6942.8042 
      0.326427      2906.4668         2.4403         1.8390     12898.5420 
     1213.0808      3751.8394     11767.7236         2.1544      5462.0957 
        2.7703         1.4807
    2740.14200 
       30.8185        12.7152        10.9610        14.4694       865.2320 
       98.2894       214.5031      7795.4702      3572.0325        14.0227 
       14.0227        35.2505         5.0757    0.000137341       0.367117 
     -999.2500      9105.4531      5005.7271      9211.7500      6979.5244 
      0.330405      3003.5220         2.4398         1.8486     13166.0928 
      945.1899      3047.3105     10174.0371         2.1824      4661.9370 
        2.0129         1.0311
    2740.29440 
       29.2425        10.0397         9.6321        10.4474       812.0015 
      104.7378       231.3518      7298.3213      3304.1028        12.5329 
       12.5329        31.4313         4.3531    0.000117511       0.371104 
     -999.2500      9106.0283      5005.8452      9210.6582      7013.4331 
      0.333993      3045.3967         2.4394         1.8575     13317.6602 
      850.7273      2770.4009      9547.6514         2.2089      4322.4219 
        1.7313         0.8726
    2740.44680 
       28.5749         9.8657        10.2526         9.4788       789.9462 
      107.5637       236.2454      7129.8770      3246.2681        11.8272 
       11.8272        29.7586         4.1883    0.000113433       0.369242 
     -999.2500      9106.6035      5005.9629      9212.0391      6997.8931 
      0.332318      3046.8171         2.4396         1.8532     13289.4199 
      828.3922      2659.5132      9296.8164         2.1963      4232.8867 
        1.6635         0.8352
    2740.59920 
       29.0265        11.1315        11.3338        10.9293       804.8335 
      105.6460       229.7966      7304.9219      3358.3423        12.1665 
       12.1665        30.8050         4.4545    0.000121400       0.365999 
     -999.2500      9107.1777      5006.0806      9213.9902      6970.9243 
      0.329399      3012.9456         2.4400         1.8460     13167.7402 
      861.8997      2734.1162      9465.5732         2.1752      4351.6738 
        1.7651         0.8914
    2740.75160 
       29.7327        12.5724        12.1937        12.9510       828.3770 
      102.6992       221.7168      7570.5522      3506.6797        12.8271 
       12.8271        32.7197         4.8207    0.000132362       0.363419 
     -999.2500      9107.7539      5006.1987      9215.6533      6949.7598 
      0.327077      2943.9727         2.4403         1.8403     12987.4648 
      909.2025      2854.1841      9737.1738         2.1589      4510.2588 
        1.9066         0.9708
    2740.90400 
       30.5040        14.4696        13.5231        15.4161       854.4755 
       99.5515       212.5131      7847.3408      3676.0764        13.4815 
       13.4815        34.5537         5.2725    0.000145458       0.359431 
     -999.2500      9108.3281      5006.3159      9217.8896      6917.1060 
      0.323488      2929.5532         2.4407         1.8315     12893.3184 
      967.8278      2990.2893     10045.0527         2.1347      4705.5913 
        2.0791         1.0691
    2741.05640 
       30.6445        16.2162        15.6504        16.7820       859.2704 
       98.9864       207.6944      7922.1328      3775.6602        13.3120 
       13.3120        34.2490         5.5409    0.000153446       0.353049 
     -999.2500      9108.9023      5006.4336      9221.0879      6865.2095 
      0.317744      2913.2378         2.4414         1.8177     12756.8945 
     1000.7578      3015.6406     10102.3984         2.0982      4814.7666 
        2.1747         1.1244
    2741.20880 
       30.4840        15.8511        15.3646        16.3376       853.7911 
       99.6325       209.5236      7890.4370      3752.0549        13.2223 
       13.2223        34.1032         5.4582    0.000151533       0.353906 
     -999.2500      9109.4785      5006.5513      9221.3281      6872.4897 
      0.318516      2895.3848         2.4414         1.8195     12735.7490 
      990.0092      2986.6792     10036.8857         2.1030      4772.7324 
        2.1436         1.1063
    2741.36120 
       30.2336        16.4165        16.5515        16.2815       845.2776 
      100.6469       209.6992      7830.2554      3758.1975        12.7881 
       12.7881        33.0648         5.4626    0.000152030       0.350345 
     -999.2500      9110.0527      5006.6689      9223.3584      6843.9395 
      0.315311      2891.3389         2.4418         1.8118     12670.5566 
      988.6534      2941.9590      9935.7266         2.0835      4768.7358 
        2.1397         1.1041
    2741.51360 
       30.4497        15.4398        14.7999        16.0797       852.6223 
       99.7710       210.7652      7896.1128      3737.8230        13.3116 
       13.3116        34.4060         5.4055    0.000150386       0.355600 
     -999.2500      9110.6279      5006.7866      9221.8105      6886.9712 
      0.320040      2928.2078         2.4412         1.8231     12830.3574 
      983.7859      2980.5195     10022.9521         2.1125      4744.6157 
        2.1256         1.0959
    2741.66600 
       30.3287        15.6303        15.3659        15.8946       848.5061 
      100.2607       210.8425      7825.1851      3721.0647        13.0306 
       13.0306        33.5409         5.3793    0.000149041       0.353902 
     -999.2500      9111.2021      5006.9043      9223.0918      6873.4219 
      0.318512      3003.8823         2.4414         1.8194     12954.6084 
      979.3274      2958.8782      9973.9980         2.1029      4742.8770 
        2.1126         1.0884
