~Version Information Block
VERS .                  2.0:  CWLS LOG ASCII STANDARD - VERSION 2.0
WRAP .                   NO:  One line per depth step
~Well Information Block
#MNEM.UNIT        Data Type   Information
#---------- ----------------  -----------
STRT .M                0.00:  START DEPTH
STOP .M             3613.00:  STOP DEPTH
STEP .M                0.50:  STEP
NULL .              -999.25:  NULL VALUE
COMP .                     :  COMPANY
WELL .      RAAG-100-07-213:  WELL
FLD  .                     :  FIELD
LOC  .                     :  LOCATION
CTRY .                     :  COUNTRY
STAT .                     :  STATE
CNTY .                     :  COUNTY
SRVC .                     :  SERVICE COMPANY
DATE .                     :  DATE
API  .                     :  API NUMBER
UWI  .                     :  UNIQUE WELL ID
~Curve Information Block
#MNEM.UNIT         API CODE   Curve Description
#---------- ----------------  -----------------
DEPTH.M                    :  
OBG  .G/CC                 :  2.174+0.00008962*TVDSS
PP   .G/CC                 :  2.1087-0.00029524*TVDSS
~Parameter Information Block
#MNEM.UNIT            Value   Description
#---------- ----------------  -----------
PROJECT.          RDG_13Jul21:  
SET  .              GEOMECH:  
~Other Information Block
# 
~A       DEPTH            OBG             PP 
# ...
       3293.00         2.4612         1.1626
       3293.50         2.4612         1.1624
       3294.00         2.4613         1.1623
       3294.50         2.4613         1.1621
       3295.00         2.4614         1.1620
       3295.50         2.4614         1.1618
       3296.00         2.4615         1.1617
       3296.50         2.4615         1.1615
       3297.00         2.4616         1.1614
       3297.50         2.4616         1.1613
       3298.00         2.4616         1.1611
       3298.50         2.4617         1.1610
       3299.00         2.4617         1.1608
       3299.50         2.4618         1.1607
       3300.00         2.4618         1.1605
       3300.50         2.4619         1.1604
       3301.00         2.4619         1.1602
       3301.50         2.4620         1.1601
       3302.00         2.4620         1.1599
       3302.50         2.4620         1.1598
       3303.00         2.4621         1.1596
       3303.50         2.4621         1.1595
       3304.00         2.4622         1.1593
       3304.50         2.4622         1.1592
       3305.00         2.4623         1.1590
       3305.50         2.4623         1.1589
       3306.00         2.4624         1.1587
       3306.50         2.4624         1.1586
       3307.00         2.4624         1.1584
       3307.50         2.4625         1.1583
       3308.00         2.4625         1.1582
       3308.50         2.4626         1.1580
       3309.00         2.4626         1.1579
       3309.50         2.4627         1.1577
       3310.00         2.4627         1.1576
       3310.50         2.4628         1.1574
       3311.00         2.4628         1.1573
       3311.50         2.4629         1.1571
       3312.00         2.4629         1.1570
       3312.50         2.4629         1.1568
       3313.00         2.4630         1.1567
       3313.50         2.4630         1.1565
       3314.00         2.4631         1.1564
       3314.50         2.4631         1.1562
       3315.00         2.4632         1.1561
       3315.50         2.4632         1.1559
       3316.00         2.4633         1.1558
       3316.50         2.4633         1.1556
       3317.00         2.4633         1.1555
       3317.50         2.4634         1.1553
       3318.00         2.4634         1.1552
       3318.50         2.4635         1.1551
       3319.00         2.4635         1.1549
       3319.50         2.4636         1.1548
       3320.00         2.4636         1.1546
       3320.50         2.4637         1.1545
       3321.00         2.4637         1.1543
       3321.50         2.4637         1.1542
       3322.00         2.4638         1.1540
       3322.50         2.4638         1.1539
       3323.00         2.4639         1.1537
       3323.50         2.4639         1.1536
       3324.00         2.4640         1.1534
       3324.50         2.4640         1.1533
       3325.00         2.4641         1.1531
       3325.50         2.4641         1.1530
       3326.00         2.4642         1.1528
       3326.50         2.4642         1.1527
       3327.00         2.4642         1.1525
       3327.50         2.4643         1.1524
       3328.00         2.4643         1.1522
       3328.50         2.4644         1.1521
       3329.00         2.4644         1.1520
       3329.50         2.4645         1.1518
       3330.00         2.4645         1.1517
       3330.50         2.4646         1.1515
       3331.00         2.4646         1.1514
       3331.50         2.4646         1.1512
       3332.00         2.4647         1.1511
       3332.50         2.4647         1.1509
       3333.00         2.4648         1.1508
       3333.50         2.4648         1.1506
       3334.00         2.4649         1.1505
       3334.50         2.4649         1.1503
       3335.00         2.4650         1.1502
       3335.50         2.4650         1.1500
       3336.00         2.4650         1.1499
       3336.50         2.4651         1.1497
       3337.00         2.4651         1.1496
       3337.50         2.4652         1.1494
       3338.00         2.4652         1.1493
       3338.50         2.4653         1.1491
       3339.00         2.4653         1.1490
       3339.50         2.4654         1.1489
       3340.00         2.4654         1.1487
       3340.50         2.4655         1.1486
       3341.00         2.4655         1.1484
       3341.50         2.4655         1.1483
       3342.00         2.4656         1.1481
       3342.50         2.4656         1.1480
       3343.00         2.4657         1.1478
       3343.50         2.4657         1.1477
       3344.00         2.4658         1.1475
       3344.50         2.4658         1.1474
       3345.00         2.4659         1.1472
       3345.50         2.4659         1.1471
       3346.00         2.4659         1.1469
       3346.50         2.4660         1.1468
       3347.00         2.4660         1.1466
       3347.50         2.4661         1.1465
       3348.00         2.4661         1.1463
       3348.50         2.4662         1.1462
       3349.00         2.4662         1.1460
       3349.50         2.4663         1.1459
       3350.00         2.4663         1.1458
       3350.50         2.4663         1.1456
       3351.00         2.4664         1.1455
       3351.50         2.4664         1.1453
       3352.00         2.4665         1.1452
       3352.50         2.4665         1.1450
       3353.00         2.4666         1.1449
       3353.50         2.4666         1.1447
       3354.00         2.4667         1.1446
       3354.50         2.4667         1.1444
       3355.00         2.4668         1.1443
       3355.50         2.4668         1.1441
       3356.00         2.4668         1.1440
       3356.50         2.4669         1.1438
       3357.00         2.4669         1.1437
       3357.50         2.4670         1.1435
       3358.00         2.4670         1.1434
       3358.50         2.4671         1.1432
       3359.00         2.4671         1.1431
       3359.50         2.4672         1.1429
       3360.00         2.4672         1.1428
       3360.50         2.4672         1.1427
       3361.00         2.4673         1.1425
       3361.50         2.4673         1.1424
       3362.00         2.4674         1.1422
       3362.50         2.4674         1.1421
       3363.00         2.4675         1.1419
       3363.50         2.4675         1.1418
       3364.00         2.4676         1.1416
       3364.50         2.4676         1.1415
       3365.00         2.4676         1.1413
       3365.50         2.4677         1.1412
       3366.00         2.4677         1.1410
       3366.50         2.4678         1.1409
       3367.00         2.4678         1.1407
       3367.50         2.4679         1.1406
       3368.00         2.4679         1.1404
       3368.50         2.4680         1.1403
       3369.00         2.4680         1.1401
       3369.50         2.4681         1.1400
       3370.00         2.4681         1.1398
       3370.50         2.4681         1.1397
       3371.00         2.4682         1.1396
       3371.50         2.4682         1.1394
       3372.00         2.4683         1.1393
       3372.50         2.4683         1.1391
       3373.00         2.4684         1.1390
       3373.50         2.4684         1.1388
       3374.00         2.4685         1.1387
       3374.50         2.4685         1.1385
       3375.00         2.4685         1.1384
       3375.50         2.4686         1.1382
       3376.00         2.4686         1.1381
       3376.50         2.4687         1.1379
       3377.00         2.4687         1.1378
       3377.50         2.4688         1.1376
       3378.00         2.4688         1.1375
       3378.50         2.4689         1.1373
       3379.00         2.4689         1.1372
       3379.50         2.4689         1.1370
       3380.00         2.4690         1.1369
       3380.50         2.4690         1.1367
       3381.00         2.4691         1.1366
       3381.50         2.4691         1.1365
