~Version Information Block
VERS .                  2.0:  CWLS LOG ASCII STANDARD - VERSION 2.0
WRAP .                   NO:  One line per depth step
~Well Information Block
#MNEM.UNIT        Data Type   Information
#---------- ----------------  -----------
STRT .M          2889.76360:  START DEPTH
STOP .M          3614.73040:  STOP DEPTH
STEP .M             0.15240:  STEP
NULL .              -999.25:  NULL VALUE
COMP .                     :  COMPANY
WELL .       RAAG-89-05-105:  WELL
FLD  .                     :  FIELD
LOC  .                     :  LOCATION
CTRY .                     :  COUNTRY
STAT .                     :  STATE
CNTY .                     :  COUNTY
SRVC .                     :  SERVICE COMPANY
DATE .                     :  DATE
API  .                     :  API NUMBER
UWI  .                     :  UNIQUE WELL ID
~Curve Information Block
#MNEM.UNIT         API CODE   Curve Description
#---------- ----------------  -----------------
DEPTH.M                    :  
PRESS_PP.PSI                  :  Pore Pressure
PZS  .PSI                  :  Processed Zone Stress
~Parameter Information Block
#MNEM.UNIT            Value   Description
#---------- ----------------  -----------
PROJECT.          RDG_13Jul21:  
SET  .              GEOMECH:  
~Other Information Block
# 
~A       DEPTH       PRESS_PP            PZS 
# ...
    3215.29000      5271.2070      2890.1279
    3215.44240      5271.2651      2958.0791
    3215.59480      5271.3232      3045.5725
    3215.74720      5271.3818      3045.5725
    3215.89960      5271.4399      3036.4265
    3216.05200      5271.4976      3060.8645
    3216.20440      5271.5557      3079.2959
    3216.35680      5271.6143      3073.1423
    3216.50920      5271.6724      3000.0627
    3216.66160      5271.7305      2958.0791
    3216.81400      5271.7881      2955.0984
    3216.96640      5271.8467      2820.5593
    3217.11880      5271.9048      2735.4895
    3217.27120      5271.9624      2727.0967
    3217.42360      5272.0210      2729.8918
    3217.57600      5272.0786      2690.9656
    3217.72840      5272.1367      2603.6572
    3217.88080      5272.1943      2552.8999
    3218.03320      5272.2520      2584.8640
    3218.18560      5272.3105      2657.9548
    3218.33800      5272.3682      2699.2693
    3218.49040      5272.4258      2636.1282
    3218.64280      5272.4839      2563.5195
    3218.79520      5272.5415      2638.8486
    3218.94760      5272.5996      2738.2915
    3219.10000      5272.6572      2777.7639
    3219.25240      5272.7148      2746.7119
    3219.40480      5272.7729      2752.3369
    3219.55720      5272.8306      2760.7917
    3219.70960      5272.8882      2757.9712
    3219.86200      5272.9463      2718.7244
    3220.01440      5273.0039      2606.3508
    3220.16680      5273.0615      2370.1865
    3220.31920      5273.1191      2257.5046
    3220.47160      5273.1768      2240.7397
    3220.62400      5273.2344      2288.9053
    3220.77640      5273.2920      2362.7031
    3220.92880      5273.3496      2357.7249
    3221.08120      5273.4072      2407.8875
    3221.23360      5273.4644      2523.8782
    3221.38600      5273.5220      2671.6697
    3221.53840      5273.5796      2729.8918
    3221.69080      5273.6372      2627.9802
    3221.84320      5273.6943      2469.2056
    3221.99560      5273.7524      2345.3159
    3222.14800      5273.8096      2315.7473
    3222.30040      5273.8672      2415.4849
    3222.45280      5273.9243      2407.8875
    3222.60520      5273.9814      2347.7935
    3222.75760      5274.0396      2121.5793
    3222.91000      5274.0967      1808.2142
    3223.06240      5274.1538      1733.0640
    3223.21480      5274.2109      1968.4868
    3223.36720      5274.2681      2089.7720
    3223.51960      5274.3252      2107.9006
    3223.67200      5274.3828      2085.2595
    3223.82440      5274.4399      2092.0313
    3223.97680      5274.4971      2590.2224
    3224.12920      5274.5547      2576.8433
    3224.28160      5274.6118      2362.7031
    3224.43400      5274.6689      2279.2065
    3224.58640      5274.7261      2523.8782
    3224.73880      5274.7827      2385.2097
    3224.89120      5274.8398      2340.3669
    3225.04360      5274.8970      2167.6887
    3225.19600      5274.9541      1871.4325
    3225.34840      5275.0112      1786.1973
    3225.50080      5275.0684      1776.2609
    3225.65320      5275.1250      1940.6597
    3225.80560      5275.1821      2056.1174
    3225.95800      5275.2388      2047.2164
    3226.11040      5275.2964      2200.4399
    3226.26280      5275.3530      2400.3091
    3226.41520      5275.4102      2231.2048
    3226.56760      5275.4668      1987.9381
    3226.72000      5275.5239      1814.2565
    3226.87240      5275.5806      1604.8311
    3227.02480      5275.6377      1518.9740
    3227.17720      5275.6943      1776.2609
    3227.32960      5275.7510      2117.0117
    3227.48200      5275.8076      2284.0518
    3227.63440      5275.8643      2259.9077
    3227.78680      5275.9214      2372.6851
    3227.93920      5275.9780      2390.2344
    3228.09160      5276.0347      2340.3669
    3228.24400      5276.0913      2235.9683
    3228.39640      5276.1479      2022.8977
    3228.54880      5276.2046      1942.7889
    3228.70120      5276.2612      1934.2830
    3228.85360      5276.3174      2027.3020
    3229.00600      5276.3740      2219.3315
    3229.15840      5276.4312      2410.4177
    3229.31080      5276.4878      2410.4177
    3229.46320      5276.5439      2469.2056
    3229.61560      5276.6011      2423.1016
    3229.76800      5276.6572      2262.3130
    3229.92040      5276.7139      2279.2065
    3230.07280      5276.7700      2200.4399
    3230.22520      5276.8267      2011.9204
    3230.37760      5276.8828      1877.6429
    3230.53000      5276.9395      1863.1774
    3230.68240      5276.9956      1915.2532
    3230.83480      5277.0518      2542.3159
    3230.98720      5277.1079      2780.6006
    3231.13960      5277.1646      2732.6895
    3231.29200      5277.2212      2464.0486
    3231.44440      5277.2773      1770.3201
    3231.59680      5277.3335      1662.3129
    3231.74920      5277.3896      1645.4576
    3231.90160      5277.4463      1677.4110
    3232.05400      5277.5024      1733.0640
    3232.20640      5277.5586      1786.1973
    3232.35880      5277.6147      1599.3539
    3232.51120      5277.6709      1541.8551
    3232.66360      5277.7271      1540.0852
    3232.81600      5277.7832      1597.5314
    3232.96840      5277.8389      1902.6501
    3233.12080      5277.8950      1959.8909
    3233.27320      5277.9512      1951.3250
    3233.42560      5278.0073      2038.3464
    3233.57800      5278.0630      2257.5046
    3233.73040      5278.1196      2407.8875
    3233.88280      5278.1753      2184.0151
    3234.03520      5278.2314      2049.4387
    3234.18760      5278.2871      2009.7307
    3234.34000      5278.3433      2044.9961
    3234.49240      5278.3989      2137.6274
    3234.64480      5278.4556      2198.0874
    3234.79720      5278.5112      2264.7202
    3234.94960      5278.5669      2350.2732
    3235.10200      5278.6230      2451.1936
    3235.25440      5278.6787      2489.9204
    3235.40680      5278.7344      2529.1350
    3235.55920      5278.7900      2571.5071
    3235.71160      5278.8457      2487.3235
    3235.86400      5278.9014      2257.5046
    3236.01640      5278.9570      2053.8894
    3236.16880      5279.0127      1977.1130
    3236.32120      5279.0684      2262.3130
    3236.47360      5279.1240      2392.7500
    3236.62600      5279.1797      2160.7217
    3236.77840      5279.2354      2096.5554
    3236.93080      5279.2910      2040.5610
    3237.08320      5279.3462      2085.2595
    3237.23560      5279.4023      2191.0422
    3237.38800      5279.4580      2301.0752
    3237.54040      5279.5137      2345.3159
    3237.69280      5279.5688      2858.0740
    3237.84520      5279.6245      2774.9294
    3237.99760      5279.6802      2495.1206
    3238.15000      5279.7358      2284.0518
    3238.30240      5279.7910      2044.9961
    3238.45480      5279.8467      1981.4374
    3238.60720      5279.9019      2007.5430
    3238.75960      5279.9575      2065.0493
    3238.91200      5280.0127      2049.4387
    3239.06440      5280.0679      1758.4865
    3239.21680      5280.1230      2040.5610
    3239.36920      5280.1787      1942.7889
    3239.52160      5280.2339      1892.1982
    3239.67400      5280.2891      2062.8135
    3239.82640      5280.3447      2049.4387
    3239.97880      5280.3999      2098.8206
    3240.13120      5280.4551      2027.3020
    3240.28360      5280.5103      1934.2830
    3240.43600      5280.5654      1865.2384
    3240.58840      5280.6206      1764.3954
    3240.74080      5280.6758      1715.6366
    3240.89320      5280.7310      1810.2266
    3241.04560      5280.7856      1875.5709
    3241.19800      5280.8408      1810.2266
    3241.35040      5280.8960      1681.2026
    3241.50280      5280.9512      1606.6602
    3241.65520      5281.0059      1566.8037
    3241.80760      5281.0610      1613.9930
    3241.96000      5281.1157      1738.9044
    3242.11240      5281.1709      1802.1882
    3242.26480      5281.2256      1649.1914
