~Version Information Block
VERS .                  2.0:  CWLS LOG ASCII STANDARD - VERSION 2.0
WRAP .                  YES:  Multiple lines per depth step
~Well Information Block
#MNEM.UNIT        Data Type   Information
#---------- ----------------  -----------
STRT .M          2738.62800:  START DEPTH
STOP .M          3798.57000:  STOP DEPTH
STEP .M             0.15240:  STEP
NULL .              -999.25:  NULL VALUE
COMP .                     :  COMPANY
WELL .      RAAG-106-07-211:  WELL
FLD  .                     :  FIELD
LOC  .                     :  LOCATION
CTRY .                     :  COUNTRY
STAT .                     :  STATE
CNTY .                     :  COUNTY
SRVC .                     :  SERVICE COMPANY
DATE .                     :  DATE
API  .                     :  API NUMBER
UWI  .                     :  UNIQUE WELL ID
~Curve Information Block
#MNEM.UNIT         API CODE   Curve Description
#---------- ----------------  -----------------
DEPTH.M                    :  
ANGLE_FAIL.DEG                  :  Fail Angle
BRIT_IND.                     :  Brittleness Index
BRIT_PR.                     :  Brittleness Index from Poisson's Ratio
BRIT_YM.                     :  Brittleness Index from Young's Modulus
CS   .M/MIN                 :  Compressive Strength
DTCO .US/F                 :  Compressional slowness
DTSM .US/F                 :  Fast Shear Slowness
IP   .RAYL/M2                 :  P Impedence
IS   .RAYL/M2                 :  S Impedance
KBULK.                     :  Bulk Mudulus
LAMBDA.                     :  Lambda
LAMRHO.                     :  
MU   .CP                   :  Mu
MURHO.(GF/C3S)2                 :  Mu*Rho
PR   .                     :  Poisson's ratio
PRESS_FG.PSI                  :  Fracture Gradient Pressure
PRESS_OB.PSI                  :  Over-burden Pressure
PRESS_PP.PSI                  :  Pore Pressure
PRESS_SHMAX.PSI                  :  Horizontal Stress (Max)
PRESS_SHMIN.PSI                  :  Horizontal Stress (Min)
PR_STAT.                     :  Poisson's ratio (Static)
PZS  .PSI                  :  Processed Zone Stress
SHMAX_GRAD.                     :  Horizontal Stress Gradient (Max)
SHMIN_GRAD.                     :  Horizontal Stress Gradient (Min)
STRESS_CUM.PSI                  :  Cumulative stress (SHPZ)
UCS_BF.PSI                  :  Uniaxial Compressive Strength (BF)
UCS_LAL.PSI                  :  Uniaxial Compressive Strength (lal)
VP   .FT/S                 :  Compressional velocity
VPVS .                     :  Vp / Vs ratio
VS   .FT/S                 :  Shear velocity
YM   .                     :  Youngs' Modulus
YM_STAT.                     :  Youngs' Modulus (Static)
~Parameter Information Block
#MNEM.UNIT            Value   Description
#---------- ----------------  -----------
PROJECT.          RDG_13Jul21:  
SET  .              GEOMECH:  
~Other Information Block
~Ascii Log Data
# ...
    2933.70000 
       36.0295        50.3069        49.4716        51.1423      1054.9004 
       79.0305       137.1757      9854.5078      5677.4390        12.7761 
       12.7761        32.6447        12.6151    0.000346956       0.251585 
     -999.2500      9157.0049      5017.2070      9306.7832      6161.4404 
      0.226427       571.9252         2.4523         1.6235      6666.7314 
     1934.1924      4143.3491     12653.3428         1.7357      7289.9204 
        4.5800         2.6907
    2933.85240 
       37.1933        51.8781        47.1289        56.6272      1100.6283 
       75.1301       131.6678     10293.2041      5873.3374        14.5666 
       14.5666        36.9579        13.5963    0.000371313       0.258613 
     -999.2500      9157.5713      5017.3213      9305.0859      6207.2729 
      0.232752       412.1566         2.4517         1.6355      6438.8589 
     2101.8962      4433.7495     13310.2451         1.7525      7594.8711 
        4.9639         2.9721
    2934.00480 
       38.1364        54.7138        47.1527        62.2749      1138.7283 
       72.0697       126.2918     10658.7822      6082.5425        15.7186 
       15.7186        39.6150        14.6800    0.000398236       0.258542 
     -999.2500      9158.1387      5017.4355      9305.6729      6207.4497 
      0.232688       320.3488         2.4517         1.6354      6255.5977 
     2279.9558      4683.6152     13875.4570         1.7524      7918.1699 
        5.3592         3.2709
    2934.15720 
       38.9122        58.3394        48.5455        68.1332      1170.8165 
       69.6176       121.2931     10993.3184      6309.7441        16.4192 
       16.4192        41.2273        15.8559    0.000428542       0.254363 
     -999.2500      9158.7041      5017.5498      9307.5830      6181.1333 
      0.228927       299.4506         2.4521         1.6284      6161.1680 
     2470.4211      4899.6694     14364.1836         1.7423      8244.4922 
        5.7693         3.5905
    2934.30960 
       39.5787        62.3031        50.1853        74.4209      1198.9478 
       67.5573       116.9261     11375.2793      6572.3828        17.0567 
       17.0567        43.0045        17.1327    0.000464960       0.249444 
     -999.2500      9159.2715      5017.6641      9309.7148      6150.4028 
      0.224500       341.8388         2.4525         1.6202      6184.4829 
     2681.3831      5093.3276     14802.2490         1.7308      8552.4102 
        6.2095         3.9445
    2934.46200 
       40.1129        65.8113        51.7078        79.9149      1221.8910 
       65.9361       113.4376     11692.0420      6796.0498        17.5272 
       17.5272        44.3312        18.2606    0.000497145       0.244877 
     -999.2500      9159.8369      5017.7783      9311.7197      6122.1826 
      0.220389       409.8021         2.4529         1.6127      6263.9692 
     2871.2520      5254.2207     15166.2002         1.7204      8815.4189 
        6.5940         4.2631
    2934.61440 
       40.4852        68.3968        53.0670        83.7267      1238.0916 
       64.8222       110.9389     11873.9600      6938.0186        17.7086 
       17.7086        44.7187        19.0619    0.000518133       0.240799 
     -999.2500      9160.4033      5017.8921      9313.5635      6097.1885 
      0.216719       476.1315         2.4532         1.6060      6346.6401 
     3006.0198      5369.4321     15426.8154         1.7114      9013.9707 
        6.8609         4.4892
    2934.76680 
       40.7192        70.2382        54.1435        86.3328      1248.3680 
       64.1285       109.3060     11992.7080      7035.9761        17.7612 
       17.7612        44.8151        19.6198    0.000532867       0.237569 
     -999.2500      9160.9697      5018.0068      9315.1396      6077.5752 
      0.213812       526.2288         2.4535         1.6008      6407.6079 
     3099.5916      5443.2036     15593.6914         1.7045      9148.6289 
        7.0433         4.6462
    2934.91920 
       40.8653        71.5811        54.7702        88.3919      1254.8201 
       63.6980       108.3187     12117.6875      7125.9395        17.8805 
       17.8805        45.2803        20.0518    0.000546581       0.235689 
     -999.2500      9161.5361      5018.1206      9316.2949      6066.3647 
      0.212120       558.1669         2.4537         1.5977      6449.0635 
     3174.3467      5489.7935     15699.0801         1.7005      9232.0156 
        7.1874         4.7717
    2935.07160 
       40.9544        72.1332        54.9113        89.3552      1258.7676 
       63.4365       107.8176     12172.5889      7161.9707        17.9932 
       17.9932        45.5843        20.2469    0.000552122       0.235266 
     -999.2500      9162.1025      5018.2344      9317.0039      6064.0679 
      0.211740       591.9886         2.4537         1.5970      6512.1128 
     3209.5671      5518.4028     15763.7949         1.6996      9274.9238 
        7.2549         4.8308
    2935.22400 
       40.9923        72.1791        54.8492        89.5090      1260.4497 
       63.3255       107.6537     12173.0840      7160.6143        18.0441 
       18.0441        45.6352        20.2739    0.000551913       0.235452 
     -999.2500      9162.6689      5018.3486      9317.5293      6065.4604 
      0.211907       610.7363         2.4537         1.5973      6552.3936 
     3215.2041      5530.6182     15791.4277         1.7000      9289.0449 
        7.2656         4.8402
    2935.37640 
       41.0000        72.2308        54.8378        89.6238      1260.7957 
       63.3027       107.6195     12182.8613      7166.0620        18.0685 
       18.0685        45.7172        20.2957    0.000552753       0.235487 
     -999.2500      9163.2354      5018.4624      9318.1016      6065.9141 
      0.211938       597.8442         2.4537         1.5973      6527.5171 
     3219.4175      5533.1323     15797.1143         1.7001      9291.9961 
        7.2737         4.8473
    2935.52880 
       41.0285        72.4711        54.6285        90.3136      1262.0627 
       63.2193       107.5613     12260.4043      7206.0693        18.2711 
       18.2711        46.4627        20.4201    0.000558942       0.236115 
     -999.2500      9163.8018      5018.5767      9318.4883      6070.0728 
      0.212503       559.0872         2.4537         1.5983      6458.3203 
     3244.7666      5542.3452     15817.9541         1.7014      9297.0244 
        7.3220         4.8898
    2935.68120 
       41.1141        72.3608        53.8994        90.8222      1265.8741 
       62.9693       107.4286     12316.6318      7219.3970        18.6519 
       18.6519        47.4600        20.4831    0.000561012       0.238302 
     -999.2500      9164.3682      5018.6909      9318.3926      6083.8740 
      0.214472       522.1990         2.4535         1.6019      6412.1465 
     3263.5083      5570.1079     15880.7549         1.7060      9308.5088 
        7.3576         4.9213
    2935.83360 
       41.2478        71.7815        52.6381        90.9249      1271.8480 
       62.5801       107.2775     12332.7881      7194.3057        19.1862 
       19.1862        48.5816        20.4407    0.000557119       0.242086 
     -999.2500      9164.9346      5018.8052      9317.7969      6107.6851 
      0.217877       509.4737         2.4532         1.6081      6434.3174 
     3267.3003      5613.7695     15979.5195         1.7142      9321.6201 
        7.3647         4.9277
    2935.98600 
       41.3874        70.9002        50.8157        90.9848      1278.1110 
       62.1755       107.3426     12380.6885      7171.2021        19.9679 
       19.9679        50.4292        20.3627    0.000553546       0.247553 
     -999.2500      9165.5010      5018.9189      9316.6592      6142.3457 
      0.222798       516.9879         2.4528         1.6171      6518.6670 
     3269.5103      5659.7388     16083.5059         1.7264      9315.9658 
        7.3689         4.9314
