~Version Information Block
VERS .                  2.0:  CWLS LOG ASCII STANDARD - VERSION 2.0
WRAP .                   NO:  One line per depth step
~Well Information Block
#MNEM.UNIT        Data Type   Information
#---------- ----------------  -----------
STRT .M          2889.76360:  START DEPTH
STOP .M          3614.73040:  STOP DEPTH
STEP .M             0.15240:  STEP
NULL .              -999.25:  NULL VALUE
COMP .                     :  COMPANY
WELL .       RAAG-89-05-105:  WELL
FLD  .                     :  FIELD
LOC  .                     :  LOCATION
CTRY .                     :  COUNTRY
STAT .                     :  STATE
CNTY .                     :  COUNTY
SRVC .                     :  SERVICE COMPANY
DATE .                     :  DATE
API  .                     :  API NUMBER
UWI  .                     :  UNIQUE WELL ID
~Curve Information Block
#MNEM.UNIT         API CODE   Curve Description
#---------- ----------------  -----------------
DEPTH.M                    :  
PRESS_PP.PSI                  :  Pore Pressure
PZS  .PSI                  :  Processed Zone Stress
~Parameter Information Block
#MNEM.UNIT            Value   Description
#---------- ----------------  -----------
PROJECT.          RDG_13Jul21:  
SET  .              GEOMECH:  
~Other Information Block
# 
~A       DEPTH       PRESS_PP            PZS 
# ...
    3025.39960      5184.2510      2051.6631
    3025.55200      5184.3320      2036.1337
    3025.70440      5184.4126      2047.2164
    3025.85680      5184.4937      2083.0061
    3026.00920      5184.5742      2205.1506
    3026.16160      5184.6553      2177.0061
    3026.31400      5184.7358      1949.1882
    3026.46640      5184.8169      1790.1844
    3026.61880      5184.8979      1649.1914
    3026.77120      5184.9785      1719.4972
    3026.92360      5185.0591      1772.2986
    3027.07600      5185.1401      1704.0966
    3027.22840      5185.2207      1669.8483
    3027.38080      5185.3013      1752.5934
    3027.53320      5185.3818      1863.1774
    3027.68560      5185.4624      1812.2406
    3027.83800      5185.5430      1696.4376
    3027.99040      5185.6240      2119.2947
    3028.14280      5185.7046      2660.6934
    3028.29520      5185.7852      2595.5898
    3028.44760      5185.8657      2372.6851
    3028.60000      5185.9463      2276.7871
    3028.75240      5186.0269      2200.4399
    3028.90480      5186.1074      2418.0215
    3029.05720      5186.1875      2685.4412
    3029.20960      5186.2681      2910.6750
    3029.36200      5186.3491      3009.1208
    3029.51440      5186.4292      2913.6199
    3029.66680      5186.5098      2668.9221
    3029.81920      5186.5898      2558.2053
    3029.97160      5186.6704      2558.2053
    3030.12400      5186.7505      2649.7529
    3030.27640      5186.8311      2872.6084
    3030.42880      5186.9116      2893.0559
    3030.58120      5186.9917      2884.2786
    3030.73360      5187.0723      2852.2766
    3030.88600      5187.1523      2829.1814
    3031.03840      5187.2324      2887.2019
    3031.19080      5187.3130      2823.4309
    3031.34320      5187.3936      2592.9050
    3031.49560      5187.4741      2448.6292
    3031.64800      5187.5537      2458.9001
    3031.80040      5187.6338      2418.0215
    3031.95280      5187.7144      2360.2129
    3032.10520      5187.7939      2269.5408
    3032.25760      5187.8745      2259.9077
    3032.41000      5187.9546      2335.4263
    3032.56240      5188.0342      2305.9575
    3032.71480      5188.1147      2425.6445
    3032.86720      5188.1943      2500.3298
    3033.01960      5188.2749      2555.5515
    3033.17200      5188.3545      2609.0466
    3033.32440      5188.4351      2668.9221
    3033.47680      5188.5146      2696.4993
    3033.62920      5188.5947      2713.1545
    3033.78160      5188.6748      2749.5232
    3033.93400      5188.7549      2826.3049
    3034.08640      5188.8350      2928.3799
    3034.23880      5188.9146      2849.3813
    3034.39120      5188.9946      2757.9712
    3034.54360      5189.0747      2614.4451
    3034.69600      5189.1543      2466.6260
    3034.84840      5189.2344      2484.7288
    3035.00080      5189.3140      2255.1035
    3035.15320      5189.3936      2216.9631
    3035.30560      5189.4736      2221.7021
    3035.45800      5189.5532      2255.1035
    3035.61040      5189.6328      2603.6572
    3035.76280      5189.7129      2727.0967
    3035.91520      5189.7925      2769.2673
    3036.06760      5189.8721      2814.8230
    3036.22000      5189.9517      2887.2019
    3036.37240      5190.0317      2890.1279
    3036.52480      5190.1108      2766.4399
    3036.67720      5190.1909      2735.4895
    3036.82960      5190.2705      2811.9583
    3036.98200      5190.3501      2913.6199
    3037.13440      5190.4297      2797.6699
    3037.28680      5190.5093      2690.9656
    3037.43920      5190.5894      2696.4993
    3037.59160      5190.6685      2727.0967
    3037.74400      5190.7480      2757.9712
    3037.89640      5190.8271      2893.0559
    3038.04880      5190.9067      2878.4387
    3038.20120      5190.9863      2832.0601
    3038.35360      5191.0659      2826.3049
    3038.50600      5191.1455      2855.1741
    3038.65840      5191.2251      2769.2673
    3038.81080      5191.3042      2769.2673
    3038.96320      5191.3833      2832.0601
    3039.11560      5191.4629      2800.5229
    3039.26800      5191.5420      2660.6934
    3039.42040      5191.6211      2671.6697
    3039.57280      5191.7002      2655.2185
    3039.72520      5191.7798      2803.3782
    3039.87760      5191.8594      2863.8806
    3040.03000      5191.9390      2718.7244
    3040.18240      5192.0181      2568.8423
    3040.33480      5192.0972      2340.3669
    3040.48720      5192.1763      2123.8660
    3040.63960      5192.2554      1981.4374
    3040.79200      5192.3345      1930.0411
    3040.94440      5192.4136      1919.4690
    3041.09680      5192.4927      1996.6324
    3041.24920      5192.5718      2107.9006
    3041.40160      5192.6514      2247.9124
    3041.55400      5192.7305      2397.7874
    3041.70640      5192.8091      2500.3298
    3041.85880      5192.8882      2518.6299
    3042.01120      5192.9673      2526.5054
    3042.16360      5193.0464      2587.5422
    3042.31600      5193.1250      2702.0417
    3042.46840      5193.2041      2752.3369
    3042.62080      5193.2832      2721.5129
    3042.77320      5193.3618      2677.1714
    3042.92560      5193.4414      2696.4993
    3043.07800      5193.5205      2806.2358
    3043.23040      5193.5991      2958.0791
    3043.38280      5193.6782      2994.0359
    3043.53520      5193.7568      2937.2644
    3043.68760      5193.8359      2872.6084
    3043.84000      5193.9146      2852.2766
    3043.99240      5193.9927      2849.3813
    3044.14480      5194.0718      2780.6006
    3044.29720      5194.1509      2603.6572
    3044.44960      5194.2295      2446.0667
    3044.60200      5194.3086      2385.2097
    3044.75440      5194.3872      2474.3713
    3044.90680      5194.4658      2600.9658
    3045.05920      5194.5444      2724.3037
    3045.21160      5194.6230      2663.4341
    3045.36400      5194.7021      2547.6035
    3045.51640      5194.7803      3054.7402
    3045.66880      5194.8594      3079.2959
    3045.82120      5194.9380      3079.2959
    3045.97360      5195.0166      3073.1423
    3046.12600      5195.0952      2997.0481
    3046.27840      5195.1733      2704.8167
    3046.43080      5195.2520      2619.8523
    3046.58320      5195.3306      2663.4341
    3046.73560      5195.4087      2757.9712
    3046.88800      5195.4873      2846.4888
    3047.04040      5195.5654      2898.9194
    3047.19280      5195.6445      2791.9709
    3047.34520      5195.7231      2534.4009
    3047.49760      5195.8013      2184.0151
    3047.65000      5195.8799      1873.5009
    3047.80240      5195.9580      1824.3625
    3047.95480      5196.0361      1696.4376
    3048.10720      5196.1147      1930.0411
    3048.25960      5196.1934      2284.0518
    3048.41200      5196.2715      2539.6753
    3048.56440      5196.3496      2693.7312
    3048.71680      5196.4277      2385.2097
    3048.86920      5196.5063      2482.1362
    3049.02160      5196.5845      2702.0417
    3049.17400      5196.6631      2826.3049
    3049.32640      5196.7407      2834.9412
    3049.47880      5196.8188      2919.5168
    3049.63120      5196.8975      2895.9866
    3049.78360      5196.9756      2895.9866
    3049.93600      5197.0537      2949.1443
    3050.08840      5197.1313      2887.2019
    3050.24080      5197.2100      2869.6968
    3050.39320      5197.2881      2919.5168
    3050.54560      5197.3662      2922.4688
    3050.69800      5197.4438      2852.2766
    3050.85040      5197.5220      2855.1741
    3051.00280      5197.5996      2970.0261
    3051.15520      5197.6777      2982.0117
    3051.30760      5197.7559      2925.4231
    3051.46000      5197.8340      2763.6147
    3051.61240      5197.9116      2332.9590
    3051.76480      5197.9897      2310.8481
    3051.91720      5198.0679      2198.0874
    3052.06960      5198.1460      2020.6985
    3052.22200      5198.2236      1804.1951
    3052.37440      5198.3018      1543.6265
