~Version Information Block
VERS .                  2.0:  CWLS LOG ASCII STANDARD - VERSION 2.0
WRAP .                  YES:  Multiple lines per depth step
~Well Information Block
#MNEM.UNIT        Data Type   Information
#---------- ----------------  -----------
STRT .M          2556.50000:  START DEPTH
STOP .M          3600.74480:  STOP DEPTH
STEP .M             0.15240:  STEP
NULL .              -999.25:  NULL VALUE
COMP .                     :  COMPANY
WELL .      RAAG-100-07-213:  WELL
FLD  .                     :  FIELD
LOC  .                     :  LOCATION
CTRY .                     :  COUNTRY
STAT .                     :  STATE
CNTY .                     :  COUNTY
SRVC .                     :  SERVICE COMPANY
DATE .                     :  DATE
API  .                     :  API NUMBER
UWI  .                     :  UNIQUE WELL ID
~Curve Information Block
#MNEM.UNIT         API CODE   Curve Description
#---------- ----------------  -----------------
DEPTH.M                    :  
ANGLE_FAIL.DEG                  :  Fail Angle
BRIT_IND.                     :  Brittleness Index
BRIT_PR.                     :  Brittleness Index from Poisson's Ratio
BRIT_YM.                     :  Brittleness Index from Young's Modulus
CS   .M/MIN                 :  Compressive Strength
DTCO .US/F                 :  Compressional slowness
DTSM .US/F                 :  Description
IP   .RAYL/M2                 :  P Impedence
IS   .RAYL/M2                 :  S Impedance
KBULK.                     :  Bulk Mudulus
LAMBDA.                     :  Lambda
LAMRHO.                     :  
MU   .CP                   :  Mu
MURHO.(GF/C3S)2                 :  Mu*Rho
PR   .                     :  Poisson's ratio
PRESS_FG.PSI                  :  Fracture Gradient Pressure
PRESS_OB.PSI                  :  Over-burden Pressure
PRESS_PP.PSI                  :  Pore Pressure
PRESS_SHMAX.PSI                  :  Horizontal Stress (Max)
PRESS_SHMIN.PSI                  :  Horizontal Stress (Min)
PR_STAT.                     :  Poisson's ratio (Static)
PZS  .PSI                  :  Processed Zone Stress
SHMAX_GRAD.                     :  Horizontal Stress Gradient (Max)
SHMIN_GRAD.                     :  Horizontal Stress Gradient (Min)
STRESS_CUM.PSI                  :  Cumulative stress (SHPZ)
UCS_BF.PSI                  :  Uniaxial Compressive Strength (BF)
UCS_LAL.PSI                  :  Uniaxial Compressive Strength (lal)
VP   .FT/S                 :  Compressional velocity
VPVS .                     :  Vp / Vs ratio
VS   .FT/S                 :  Shear velocity
YM   .                     :  Youngs' Modulus
YM_STAT.                     :  Youngs' Modulus (Static)
~Parameter Information Block
#MNEM.UNIT            Value   Description
#---------- ----------------  -----------
PROJECT.          RDG_13Jul21:  
SET  .              GEOMECH:  
~Other Information Block
~Ascii Log Data
# ...
    2934.45200 
       43.0918        75.4940        40.1570       110.8310      1356.8484 
       57.3740       103.7165     14515.0176      8029.4351        29.9177 
       29.9177        81.7421        23.5968    0.000693969       0.279529 
     -999.2500      9843.2266      5140.0576     10002.3359      6661.0493 
      0.251576      2822.1667         2.4683         1.6438     12166.4316 
     4036.0071      6254.7681     17429.4980         1.8077      9641.6699 
        8.7582         6.2175
    2934.60440 
       43.1697        75.9725        39.7777       112.1673      1360.5513 
       57.1606       103.5165     14655.0635      8092.3521        30.4907 
       30.4907        83.7985        23.8276    0.000704887       0.280667 
     -999.2500      9843.8086      5140.1504     10002.4873      6670.2368 
      0.252600      2815.9143         2.4682         1.6460     12172.3018 
     4090.0391      6283.5347     17494.5684         1.8110      9660.2939 
        8.8517         6.3082
    2934.75680 
       43.1551        76.4571        40.2516       112.6625      1359.8574 
       57.2005       103.3567     14673.1152      8120.5156        30.2925 
       30.2925        83.4148        23.9475    0.000709802       0.279245 
     -999.2500      9844.3916      5140.2432     10003.6348      6659.5337 
      0.251321      2801.9124         2.4684         1.6432     12122.8916 
     4110.1416      6278.1396     17482.3633         1.8069      9675.2324 
        8.8864         6.3419
    2934.90920 
       43.1185        77.0297        41.2022       112.8571      1358.1199 
       57.3006       103.0785     14623.6797      8129.1978        29.7124 
       29.7124        81.6843        24.0378    0.000711321       0.276393 
     -999.2500      9844.9736      5140.3359     10005.3311      6637.8398 
      0.248754      2773.6775         2.4687         1.6378     12023.0342 
     4118.0527      6264.6387     17451.8262         1.7989      9701.3438 
        8.9000         6.3552
    2935.06160 
       43.3483        77.7443        40.5198       114.9688      1369.0785 
       56.6732       102.2748     14773.9688      8186.6484        30.6616 
       30.6616        84.2277        24.3979    0.000721410       0.278441 
     -999.2500      9845.5566      5140.4282     10005.1318      6654.0425 
      0.250597      2752.7322         2.4685         1.6417     12013.5498 
     4204.3096      6350.0474     17645.0254         1.8046      9777.5771 
        9.0478         6.5000
    2935.21400 
       43.5651        78.2588        39.6485       116.8691      1379.4907 
       56.0856       101.6322     14927.9561      8237.9717        31.7146 
       31.7146        87.1155        24.7061    0.000730484       0.281055 
     -999.2500      9846.1387      5140.5215     10004.7100      6674.7065 
      0.252949      2758.8242         2.4683         1.6467     12067.0615 
     4282.5840      6431.7710     17829.8887         1.8121      9839.3994 
        9.1808         6.6313
    2935.36640 
       43.7084        79.4708        39.9280       119.0137      1386.4163 
       55.6993       100.7982     15037.4121      8309.4063        32.0353 
       32.0353        88.0313        25.1265    0.000743207       0.280216 
     -999.2500      9846.7217      5140.6143     10005.6250      6668.6587 
      0.252194      2700.4839         2.4683         1.6451     11938.2852 
     4371.6626      6486.4375     17953.5469         1.8097      9920.8115 
        9.3310         6.7808
    2935.51880 
       43.5245        81.1946        42.8446       119.5446      1377.5375 
       56.1952       100.3342     14928.6406      8361.2383        30.1719 
       30.1719        83.0437        25.4002    0.000752508       0.271466 
     -999.2500      9847.3037      5140.7070     10009.5762      6601.8496 
      0.244320      2656.3315         2.4692         1.6286     11716.3623 
     4393.8340      6416.3979     17795.1133         1.7855      9966.6943 
        9.3681         6.8180
    2935.67120 
       43.4068        82.5712        44.9576       120.1849      1371.8816 
       56.5142        99.9649     14879.9824      8412.2588        28.9536 
       28.9536        79.8817        25.6496    0.000761720       0.265127 
     -999.2500      9847.8857      5140.7998     10012.5605      6554.3984 
      0.238615      2665.1736         2.4698         1.6168     11639.1445 
     4420.6411      6371.9937     17694.6680         1.7688     10003.5146 
        9.4129         6.8630
    2935.82360 
       43.7247        82.0451        41.9313       122.1590      1387.2091 
       55.6553        99.7831     15166.8965      8459.5283        31.3812 
       31.3812        86.9075        25.8407    0.000770304       0.274206 
     -999.2500      9848.4688      5140.8931     10009.7197      6623.4639 
      0.246785      2736.8196         2.4690         1.6337     11920.5664 
     4503.7295      6492.7119     17967.7402         1.7929     10021.7354 
        9.5511         7.0024
    2935.97600 
       43.9073        81.3034        39.9548       122.6519      1396.0840 
       55.1660        99.8204     15296.9961      8453.9238        32.8902 
       32.8902        91.0604        25.8139    0.000769284       0.280135 
     -999.2500      9849.0518      5140.9854     10008.0342      6669.4033 
      0.252122      2796.4063         2.4684         1.6450     12131.6201 
     4524.5815      6563.1641     18127.1074         1.8095     10017.9922 
        9.5856         7.0374
    2936.12840 
       43.8178        80.9598        40.4034       121.5162      1391.7286 
       55.4054       100.0415     15187.5508      8411.2295        32.2972 
       32.2972        89.1642        25.6268    0.000761533       0.278790 
     -999.2500      9849.6338      5141.0781     10009.1582      6659.1357 
      0.250911      2813.9324         2.4686         1.6423     12146.1357 
     4476.6045      6528.5386     18048.7832         1.8056      9995.8477 
        9.5061         6.9569
    2936.28080 
       43.5787        80.8727        42.3997       119.3457      1380.1477 
       56.0488       100.2743     14911.9150      8335.0859        30.4211 
       30.4211        83.4179        25.3358    0.000747808       0.272801 
     -999.2500      9850.2168      5141.1709     10012.0664      6613.2324 
      0.245521      2839.0186         2.4691         1.6309     12104.5020 
     4385.5249      6436.9463     17841.5957         1.7891      9972.6436 
        9.3542         6.8040
    2936.43320 
       43.4401        80.4630        43.3214       117.6046      1373.4800 
       56.4238       100.5271     14725.5938      8265.1777        29.4269 
       29.4269        80.2168        25.0602    0.000735317       0.270036 
     -999.2500      9850.7988      5141.2637     10013.7227      6592.3232 
      0.243032      2891.1597         2.4694         1.6257     12166.9658 
     4313.0459      6384.5259     17723.0176         1.7816      9947.5703 
        9.2323         6.6824
    2936.58560 
       43.4744        79.7259        42.5939       116.8579      1375.1281 
       56.3308       100.6902     14688.7910      8217.5977        29.7284 
       29.7284        80.7028        24.8756    0.000726875       0.272218 
     -999.2500      9851.3809      5141.3560     10013.4971      6609.0679 
      0.244996      2962.5386         2.4692         1.6297     12343.2129 
     4282.1211      6397.4614     17752.2793         1.7875      9931.4561 
        9.1801         6.6305
    2936.73800 
       43.6408        79.2188        40.7495       117.6882      1383.1453 
       55.8813       100.7373     14850.0605      8237.6680        31.1492 
       31.1492        84.8059        24.9246    0.000730430       0.277752 
     -999.2500      9851.9639      5141.4487     10011.9727      6651.7832 
      0.249976      2884.5923         2.4687         1.6402     12272.7510 
     4316.5122      6460.5879     17895.0742         1.8027      9926.8057 
        9.2382         6.6882
