~Version Information Block
VERS .                  2.0:  CWLS LOG ASCII STANDARD - VERSION 2.0
WRAP .                  YES:  Multiple lines per depth step
~Well Information Block
#MNEM.UNIT        Data Type   Information
#---------- ----------------  -----------
STRT .M          2676.97280:  START DEPTH
STOP .M          3838.10840:  STOP DEPTH
STEP .M             0.15240:  STEP
NULL .              -999.25:  NULL VALUE
COMP .                     :  COMPANY
WELL .      RAAG-107-07-210:  WELL
FLD  .                     :  FIELD
LOC  .                     :  LOCATION
CTRY .                     :  COUNTRY
STAT .                     :  STATE
CNTY .                     :  COUNTY
SRVC .                     :  SERVICE COMPANY
DATE .                     :  DATE
API  .                     :  API NUMBER
UWI  .                     :  UNIQUE WELL ID
~Curve Information Block
#MNEM.UNIT         API CODE   Curve Description
#---------- ----------------  -----------------
DEPTH.M                    :  
ANGLE_FAIL.DEG                  :  Fail Angle
BRIT_IND.                     :  Brittleness Index
BRIT_PR.                     :  Brittleness Index from Poisson's Ratio
BRIT_YM.                     :  Brittleness Index from Young's Modulus
CS   .M/MIN                 :  Compressive Strength
DTCO .US/F                 :  Compressional slowness
DTSM .US/F                 :  Fast Shear Slowness
IP   .RAYL/M2                 :  P Impedence
IS   .RAYL/M2                 :  S Impedance
KBULK.                     :  Bulk Mudulus
LAMBDA.                     :  Lambda
LAMRHO.                     :  
MU   .CP                   :  Mu
MURHO.(GF/C3S)2                 :  Mu*Rho
PR   .                     :  Poisson's ratio
PRESS_FG.PSI                  :  Fracture Gradient Pressure
PRESS_OB.PSI                  :  Over-burden Pressure
PRESS_PP.PSI                  :  Pore Pressure
PRESS_SHMAX.PSI                  :  Horizontal Stress (Max)
PRESS_SHMIN.PSI                  :  Horizontal Stress (Min)
PR_STAT.                     :  Poisson's ratio (Static)
PZS  .PSI                  :  Processed Zone Stress
SHMAX_GRAD.                     :  Horizontal Stress Gradient (Max)
SHMIN_GRAD.                     :  Horizontal Stress Gradient (Min)
STRESS_CUM.PSI                  :  Cumulative stress (SHPZ)
UCS_BF.PSI                  :  Uniaxial Compressive Strength (BF)
UCS_LAL.PSI                  :  Uniaxial Compressive Strength (lal)
VP   .FT/S                 :  Compressional velocity
VPVS .                     :  Vp / Vs ratio
VS   .FT/S                 :  Shear velocity
YM   .                     :  Youngs' Modulus
YM_STAT.                     :  Youngs' Modulus (Static)
~Parameter Information Block
#MNEM.UNIT            Value   Description
#---------- ----------------  -----------
PROJECT.          RDG_13Jul21:  
SET  .              GEOMECH:  
~Other Information Block
~Ascii Log Data
# ...
    3169.52960 
       44.6041        82.6376        34.2354       131.0397      1430.4698 
       53.3240        99.2833     16394.7637      8805.4531        39.6469 
       39.6469       113.7163        27.0328    0.000834591       0.297294 
     -999.2500      9831.3770      5138.1626      9983.0537      6797.8442 
      0.267565      2818.9851         2.4663         1.6794     12433.6582 
     4885.7642      6839.9800     18753.2813         1.8619     10072.1875 
       10.1728         7.6434
    3169.68200 
       45.2220        83.2946        30.8953       135.6940      1461.6631 
       51.7242        98.0702     16889.0430      8907.6221        44.1542 
       44.1542       126.5483        27.6847    0.000854070       0.307314 
     -999.2500      9831.9512      5138.2549      9979.5313      6880.3545 
      0.276583      2763.1331         2.4653         1.6997     12486.9746 
     5091.3721      7096.3960     19333.3105         1.8960     10196.7773 
       10.4986         7.9885
    3169.83440 
       45.8041        85.6579        29.0144       142.3015      1491.6720 
       50.2459        96.2990     17426.9355      9092.8467        48.1544 
       48.1544       138.3384        28.7801    0.000889959       0.312957 
     -999.2500      9832.5264      5138.3472      9977.7383      6928.2842 
      0.281661      2904.0830         2.4647         1.7114     12864.7344 
     5389.6348      7347.8535     19902.1211         1.9166     10384.3232 
       10.9611         8.4889
    3169.98680 
       46.0551        88.4575        29.3855       147.5296      1504.8022 
       49.6171        94.8889     17721.8516      9266.6992        49.3335 
       49.3335       142.3206        29.7663    0.000924315       0.311844 
     -999.2500      9833.1006      5138.4390      9978.7656      6919.8076 
      0.280659      2910.8374         2.4648         1.7092     12861.2900 
     5630.9204      7459.3540     20154.3418         1.9124     10538.6396 
       11.3271         8.8938
    3170.13920 
       45.8555        89.5792        31.3592       147.7992      1494.3516 
       50.1167        94.7761     17612.1582      9313.1416        47.2116 
       47.2116       136.7189        29.9511    0.000933603       0.305922 
     -999.2500      9833.6768      5138.5313      9981.8115      6870.9775 
      0.275330      2933.5774         2.4654         1.6971     12809.1104 
     5643.4917      7370.5352     19953.4297         1.8911     10551.1836 
       11.3459         8.9149
    3170.29160 
       45.4421        88.9179        33.6004       144.2353      1472.9327 
       51.1622        95.5792     17248.8809      9233.0840        43.8724 
       43.8724       127.0243        29.4441    0.000917622       0.299199 
     -999.2500      9834.2510      5138.6230      9985.1670      6815.9351 
      0.269279      3013.8049         2.4661         1.6834     12859.4805 
     5478.3364      7190.2798     19545.6797         1.8682     10462.5273 
       11.0965         8.6378
    3170.44400 
       45.1851        88.3199        35.0797       141.5601      1459.7784 
       51.8190        96.0566     16968.4824      9153.8711        41.7160 
       41.7160       120.3427        29.0464    0.000901944       0.294761 
     -999.2500      9834.8262      5138.7153      9987.5596      6780.1597 
      0.265285      3067.2322         2.4666         1.6745     12894.7832 
     5355.7920      7080.7603     19297.9395         1.8537     10410.5283 
       10.9092         8.4322
    3170.59640 
       45.1721        88.6603        35.7038       141.6169      1459.1176 
       51.8523        95.8098     16901.1484      9146.9072        41.1508 
       41.1508       118.3170        29.0991    0.000900572       0.292889 
     -999.2500      9835.4014      5138.8071      9988.8994      6765.4565 
      0.263600      3079.2959         2.4668         1.6707     12889.5049 
     5358.3818      7075.2817     19285.5469         1.8477     10437.3457 
       10.9132         8.4365
    3170.74880 
       45.2901        89.4128        35.4437       143.3818      1465.1405 
       51.5499        95.3783     17027.9609      9203.2422        41.8600 
       41.8600       120.5521        29.4108    0.000911700       0.293669 
     -999.2500      9835.9766      5138.8989      9989.1680      6772.1362 
      0.264302      3079.2959         2.4667         1.6723     12902.8643 
     5439.1079      7125.2944     19398.6797         1.8502     10484.5645 
       11.0367         8.5720
    3170.90120 
       45.3049        89.7795        35.4429       144.1161      1465.8987 
       51.5120        95.3086     17094.8066      9239.3311        42.0558 
       42.0558       121.5019        29.5477    0.000918864       0.293671 
     -999.2500      9836.5508      5138.9912      9989.7529      6772.4980 
      0.264304      3079.2959         2.4667         1.6723     12903.5879 
     5472.8525      7131.6040     19412.9531         1.8502     10492.2324 
       11.0881         8.6286
    3171.05360 
       45.0901        89.9190        37.1403       142.6976      1454.9470 
       52.0631        95.5035     16897.5352      9211.5791        40.1279 
       40.1279       115.8203        29.3988    0.000913352       0.288579 
     -999.2500      9837.1260      5139.0830      9992.3750      6732.1416 
      0.259721      3079.2959         2.4673         1.6623     12822.8760 
     5407.7529      7040.7622     19207.4629         1.8344     10470.8203 
       10.9888         8.5193
    3171.20600 
       44.8745        89.9201        39.0159       140.8242      1444.0385 
       52.6200        95.6417     16639.6816      9154.7930        38.0342 
       38.0342       109.2585        29.1754    0.000902126       0.282952 
     -999.2500      9837.7021      5139.1748      9995.1836      6688.0659 
      0.254657      3079.2959         2.4678         1.6513     12734.7236 
     5322.3003      6950.8965     19004.1816         1.8176     10455.6895 
       10.8577         8.3760
    3171.35840 
       44.7529        89.6374        39.7883       139.4865      1437.9218 
       52.9358        95.8607     16502.7520      9113.0811        37.0693 
       37.0693       106.2443        28.9761    0.000893924       0.280635 
     -999.2500      9838.2764      5139.2666      9996.6807      6670.1787 
      0.252572      3079.2959         2.4681         1.6468     12698.9492 
     5261.6519      6900.7769     18890.8086         1.8109     10431.8037 
       10.7641         8.2742
    3171.51080 
       44.6349        88.8876        39.7916       137.9836      1432.0092 
       53.2435        96.4164     16436.0566      9076.3936        36.7044 
       36.7044       105.3821        28.6931    0.000886741       0.280625 
     -999.2500      9838.8516      5139.3589      9997.2842      6670.2041 
      0.252563      3079.2959         2.4681         1.6467     12699.0000 
     5193.8770      6852.5146     18781.6367         1.8109     10371.6797 
       10.6588         8.1605
    3171.66320 
       44.6190        87.5810        38.4771       136.6849      1431.2152 
       53.2850        97.1034     16465.3574      9035.2813        37.4628 
       37.4628       107.8354        28.3610    0.000878726       0.284569 
     -999.2500      9839.4277      5139.4507      9996.3467      6701.0342 
      0.256112      3079.2959         2.4677         1.6542     12760.6602 
     5135.6235      6846.0483     18767.0078         1.8223     10298.2998 
       10.5679         8.0627
    3171.81560 
       44.7125        86.7161        37.0105       136.4217      1435.8932 
       53.0411        97.3606     16543.1621      9012.5518        38.6351 
       38.6351       111.2240        28.2150    0.000874310       0.288968 
     -999.2500      9840.0020      5139.5425      9995.2080      6735.8779 
      0.260072      3079.2959         2.4673         1.6627     12830.3486 
     5123.8545      6884.1978     18853.3047         1.8356     10271.0947 
       10.5495         8.0430
