~Version Information Block
VERS .                  2.0:  CWLS LOG ASCII STANDARD - VERSION 2.0
WRAP .                   NO:  One line per depth step
~Well Information Block
#MNEM.UNIT        Data Type   Information
#---------- ----------------  -----------
STRT .M                0.00:  START DEPTH
STOP .M             3613.00:  STOP DEPTH
STEP .M                0.50:  STEP
NULL .              -999.25:  NULL VALUE
COMP .                     :  COMPANY
WELL .      RAAG-100-07-213:  WELL
FLD  .                     :  FIELD
LOC  .                     :  LOCATION
CTRY .                     :  COUNTRY
STAT .                     :  STATE
CNTY .                     :  COUNTY
SRVC .                     :  SERVICE COMPANY
DATE .                     :  DATE
API  .                     :  API NUMBER
UWI  .                     :  UNIQUE WELL ID
~Curve Information Block
#MNEM.UNIT         API CODE   Curve Description
#---------- ----------------  -----------------
DEPTH.M                    :  
OBG  .G/CC                 :  2.174+0.00008962*TVDSS
PP   .G/CC                 :  2.1087-0.00029524*TVDSS
~Parameter Information Block
#MNEM.UNIT            Value   Description
#---------- ----------------  -----------
PROJECT.          RDG_13Jul21:  
SET  .              GEOMECH:  
~Other Information Block
# 
~A       DEPTH            OBG             PP 
# ...
        267.00         2.1919         2.0496
        267.50         2.1920         2.0495
        268.00         2.1920         2.0493
        268.50         2.1921         2.0492
        269.00         2.1921         2.0490
        269.50         2.1922         2.0489
        270.00         2.1922         2.0487
        270.50         2.1922         2.0486
        271.00         2.1923         2.0484
        271.50         2.1923         2.0483
        272.00         2.1924         2.0481
        272.50         2.1924         2.0480
        273.00         2.1925         2.0478
        273.50         2.1925         2.0477
        274.00         2.1926         2.0476
        274.50         2.1926         2.0474
        275.00         2.1927         2.0473
        275.50         2.1927         2.0471
        276.00         2.1927         2.0470
        276.50         2.1928         2.0468
        277.00         2.1928         2.0467
        277.50         2.1929         2.0465
        278.00         2.1929         2.0464
        278.50         2.1930         2.0462
        279.00         2.1930         2.0461
        279.50         2.1931         2.0459
        280.00         2.1931         2.0458
        280.50         2.1931         2.0456
        281.00         2.1932         2.0455
        281.50         2.1932         2.0453
        282.00         2.1933         2.0452
        282.50         2.1933         2.0451
        283.00         2.1934         2.0449
        283.50         2.1934         2.0448
        284.00         2.1935         2.0446
        284.50         2.1935         2.0445
        285.00         2.1935         2.0443
        285.50         2.1936         2.0442
        286.00         2.1936         2.0440
        286.50         2.1937         2.0439
        287.00         2.1937         2.0437
        287.50         2.1938         2.0436
        288.00         2.1938         2.0434
        288.50         2.1939         2.0433
        289.00         2.1939         2.0431
        289.50         2.1939         2.0430
        290.00         2.1940         2.0428
        290.50         2.1940         2.0427
        291.00         2.1941         2.0426
        291.50         2.1941         2.0424
        292.00         2.1942         2.0423
        292.50         2.1942         2.0421
        293.00         2.1943         2.0420
        293.50         2.1943         2.0418
        294.00         2.1943         2.0417
        294.50         2.1944         2.0415
        295.00         2.1944         2.0414
        295.50         2.1945         2.0412
        296.00         2.1945         2.0411
        296.50         2.1946         2.0409
        297.00         2.1946         2.0408
        297.50         2.1947         2.0406
        298.00         2.1947         2.0405
        298.50         2.1947         2.0404
        299.00         2.1948         2.0402
        299.50         2.1948         2.0401
        300.00         2.1949         2.0399
        300.50         2.1949         2.0398
        301.00         2.1950         2.0396
        301.50         2.1950         2.0395
        302.00         2.1951         2.0393
        302.50         2.1951         2.0392
        303.00         2.1951         2.0390
        303.50         2.1952         2.0389
        304.00         2.1952         2.0387
        304.50         2.1953         2.0386
        305.00         2.1953         2.0384
        305.50         2.1954         2.0383
        306.00         2.1954         2.0382
        306.50         2.1955         2.0380
        307.00         2.1955         2.0379
        307.50         2.1955         2.0377
        308.00         2.1956         2.0376
        308.50         2.1956         2.0374
        309.00         2.1957         2.0373
        309.50         2.1957         2.0371
        310.00         2.1958         2.0370
        310.50         2.1958         2.0368
        311.00         2.1959         2.0367
        311.50         2.1959         2.0365
        312.00         2.1959         2.0364
        312.50         2.1960         2.0362
        313.00         2.1960         2.0361
        313.50         2.1961         2.0360
        314.00         2.1961         2.0358
        314.50         2.1962         2.0357
        315.00         2.1962         2.0355
        315.50         2.1963         2.0354
        316.00         2.1963         2.0352
        316.50         2.1963         2.0351
        317.00         2.1964         2.0349
        317.50         2.1964         2.0348
        318.00         2.1965         2.0346
        318.50         2.1965         2.0345
        319.00         2.1966         2.0343
        319.50         2.1966         2.0342
        320.00         2.1967         2.0341
        320.50         2.1967         2.0339
        321.00         2.1967         2.0338
        321.50         2.1968         2.0336
        322.00         2.1968         2.0335
        322.50         2.1969         2.0333
        323.00         2.1969         2.0332
        323.50         2.1970         2.0330
        324.00         2.1970         2.0329
        324.50         2.1971         2.0327
        325.00         2.1971         2.0326
        325.50         2.1971         2.0325
        326.00         2.1972         2.0323
        326.50         2.1972         2.0322
        327.00         2.1973         2.0320
        327.50         2.1973         2.0319
        328.00         2.1974         2.0317
        328.50         2.1974         2.0316
        329.00         2.1975         2.0314
        329.50         2.1975         2.0313
        330.00         2.1975         2.0311
        330.50         2.1976         2.0310
        331.00         2.1976         2.0308
        331.50         2.1977         2.0307
        332.00         2.1977         2.0306
        332.50         2.1978         2.0304
        333.00         2.1978         2.0303
        333.50         2.1979         2.0301
        334.00         2.1979         2.0300
        334.50         2.1979         2.0298
        335.00         2.1980         2.0297
        335.50         2.1980         2.0295
        336.00         2.1981         2.0294
        336.50         2.1981         2.0292
        337.00         2.1982         2.0291
        337.50         2.1982         2.0290
        338.00         2.1983         2.0288
        338.50         2.1983         2.0287
        339.00         2.1983         2.0285
        339.50         2.1984         2.0284
        340.00         2.1984         2.0282
        340.50         2.1985         2.0281
        341.00         2.1985         2.0279
        341.50         2.1986         2.0278
        342.00         2.1986         2.0276
        342.50         2.1986         2.0275
        343.00         2.1987         2.0273
        343.50         2.1987         2.0272
        344.00         2.1988         2.0271
        344.50         2.1988         2.0269
        345.00         2.1989         2.0268
        345.50         2.1989         2.0266
        346.00         2.1990         2.0265
        346.50         2.1990         2.0263
        347.00         2.1990         2.0262
        347.50         2.1991         2.0260
        348.00         2.1991         2.0259
        348.50         2.1992         2.0257
        349.00         2.1992         2.0256
        349.50         2.1993         2.0255
        350.00         2.1993         2.0253
        350.50         2.1994         2.0252
        351.00         2.1994         2.0250
        351.50         2.1994         2.0249
        352.00         2.1995         2.0247
        352.50         2.1995         2.0246
        353.00         2.1996         2.0244
        353.50         2.1996         2.0243
        354.00         2.1997         2.0242
        354.50         2.1997         2.0240
        355.00         2.1998         2.0239
        355.50         2.1998         2.0237
