~Version Information Block
VERS .                  2.0:  CWLS LOG ASCII STANDARD - VERSION 2.0
WRAP .                  YES:  Multiple lines per depth step
~Well Information Block
#MNEM.UNIT        Data Type   Information
#---------- ----------------  -----------
STRT .M          2945.58720:  START DEPTH
STOP .M          3894.88680:  STOP DEPTH
STEP .M             0.15240:  STEP
NULL .              -999.25:  NULL VALUE
COMP .                     :  COMPANY
WELL .       RAAG-97-02-106:  WELL
FLD  .                     :  FIELD
LOC  .                     :  LOCATION
CTRY .                     :  COUNTRY
STAT .                     :  STATE
CNTY .                     :  COUNTY
SRVC .                     :  SERVICE COMPANY
DATE .                     :  DATE
API  .                     :  API NUMBER
UWI  .                     :  UNIQUE WELL ID
~Curve Information Block
#MNEM.UNIT         API CODE   Curve Description
#---------- ----------------  -----------------
DEPTH.M                    :  
ANGLE_FAIL.DEG                  :  Fail Angle
BRIT_IND.                     :  Brittleness Index
BRIT_PR.                     :  Brittleness Index from Poisson's Ratio
BRIT_YM.                     :  Brittleness Index from Young's Modulus
CS   .M/MIN                 :  Compressive Strength
DEN  .G/C3                 :  (HDRS-H)                (2in)                   Standard Resolution Formation Density
DTCO .US/F                 :  Compressional slowness
DTSM .US/F                 :  Description
IP   .RAYL/M2                 :  P Impedence
IS   .RAYL/M2                 :  S Impedance
KBULK.                     :  Bulk Mudulus
LAMBDA.                     :  Lambda
LAMRHO.                     :  
MU   .CP                   :  Mu
MURHO.(GF/C3S)2                 :  Mu*Rho
PR   .                     :  Poisson's ratio
PRESS_FG.PSI                  :  Fracture Gradient Pressure
PRESS_OB.PSI                  :  Over-burden Pressure
PRESS_PP.PSI                  :  Pore Pressure
PRESS_SHMAX.PSI                  :  Horizontal Stress (Max)
PRESS_SHMIN.PSI                  :  Horizontal Stress (Min)
PR_STAT.                     :  Poisson's ratio (Static)
PZS  .PSI                  :  Processed Zone Stress
SHMAX_GRAD.                     :  Horizontal Stress Gradient (Max)
SHMIN_GRAD.                     :  Horizontal Stress Gradient (Min)
STRESS_CUM.PSI                  :  Cumulative stress (SHPZ)
UCS_BF.PSI                  :  Uniaxial Compressive Strength (BF)
UCS_LAL.PSI                  :  Uniaxial Compressive Strength (lal)
VP   .FT/S                 :  Compressional velocity
VPVS .                     :  Vp / Vs ratio
VS   .FT/S                 :  Shear velocity
YM   .                     :  Youngs' Modulus
YM_STAT.                     :  Youngs' Modulus (Static)
~Parameter Information Block
#MNEM.UNIT            Value   Description
#---------- ----------------  -----------
PROJECT.          RDG_13Jul21:  
SET  .              GEOMECH:  
~Other Information Block
~Ascii Log Data
# ...
    3396.69120 
       39.9908        58.7613        47.5991        69.9236      1216.6135 
        2.3400        66.3044       115.9727     10757.1133      6150.1050 
       17.1227        17.1227        40.0679        16.1637         0.0004 
      0.257203      -999.2500     10571.5566      5240.4355     10761.2461 
     6777.7656       0.231482      2211.2515         2.4899         1.5682 
    11178.0342      2529.8018      5216.9766     15081.9502         1.7491 
     8622.7197         5.8946         3.6901
    3396.84360 
       39.9917        58.4155        47.0703        69.7606      1216.6525 
        2.3427        66.3017       116.2243     10769.7959      6143.7725 
       17.2863        17.2863        40.4966        16.1121         0.0004 
      0.258789      -999.2500     10572.1465      5240.5039     10761.1953 
     6791.1523       0.232910      2043.5582         2.4898         1.5712 
    10869.4209      2524.3755      5217.2505     15082.5703         1.7530 
     8604.0518         5.8832         3.6810
    3396.99600 
       40.0306        57.9706        46.1563        69.7849      1218.3337 
        2.3481        66.1841       116.4672     10813.6484      6145.0005 
       17.6370        17.6370        41.4129        16.0817         0.0004 
      0.261531      -999.2500     10572.7354      5240.5728     10760.6592 
     6814.2734       0.235378      2053.4221         2.4895         1.5765 
    10935.3906      2525.1816      5229.1006     15109.3760         1.7597 
     8586.1064         5.8849         3.6824
    3397.14840 
       40.0688        57.6580        45.3628        69.9531      1219.9833 
        2.3561        66.0689       116.6608     10869.7637      6155.9136 
       17.9790        17.9790        42.3612        16.0836         0.0004 
      0.263912      -999.2500     10573.3262      5240.6411     10760.2666 
     6834.5073       0.237520      2100.2468         2.4893         1.5811 
    11069.5088      2530.7854      5240.7417     15135.7100         1.7657 
     8571.8613         5.8967         3.6918
    3397.30080 
       40.0377        57.8184        45.5693        70.0674      1218.6385 
        2.3630        66.1628       116.7226     10885.9395      6170.5610 
       17.9230        17.9230        42.3520        16.1133         0.0004 
      0.263292      -999.2500     10573.9160      5240.7100     10761.1348 
     6829.5308       0.236963      2138.8547         2.4894         1.5799 
    11136.7715      2534.5977      5231.2515     15114.2412         1.7642 
     8567.3223         5.9047         3.6982
    3397.45320 
       39.9583        58.5324        46.6544        70.4104      1215.2134 
        2.3740        66.4026       116.6052     10896.8994      6205.4058 
       17.5775        17.5775        41.7283        16.2206         0.0004 
      0.260037      -999.2500     10574.5049      5240.7778     10763.1055 
     6802.5059       0.234033      2229.5889         2.4897         1.5736 
    11264.1895      2546.0430      5207.1187     15059.6523         1.7560 
     8575.9482         5.9287         3.7174
    3397.60560 
       39.8754        59.3241        48.0236        70.6246      1211.6473 
        2.3785        66.6535       116.3784     10876.4980      6229.3086 
       17.1075        17.1075        40.6896        16.3148         0.0004 
      0.255929      -999.2500     10575.0957      5240.8467     10765.4199 
     6768.6182       0.230336      2352.7734         2.4901         1.5656 
    11442.7832      2553.2029      5182.0566     15002.9600         1.7460 
     8592.6611         5.9437         3.7294
    3397.75800 
       39.8246        60.0268        49.0836        70.9699      1209.4655 
        2.3845        66.8076       116.1423     10878.9248      6257.7998 
       16.7880        16.7880        40.0309        16.4228         0.0004 
      0.252749      -999.2500     10575.6855      5240.9150     10767.3359 
     6742.6646       0.227474      2461.3965         2.4905         1.5596 
    11608.1221      2564.7600      5166.7549     14968.3467         1.7385 
     8610.1260         5.9679         3.7488
    3397.91040 
       39.8027        60.3586        49.7572        70.9600      1208.5238 
        2.3799        66.8743       115.9425     10846.9434      6256.3945 
       16.5435        16.5435        39.3712        16.4474         0.0004 
      0.250728      -999.2500     10576.2744      5240.9839     10768.7715 
     6726.3340       0.225656      2518.2996         2.4907         1.5557 
    11689.2676      2564.4265      5160.1582     14953.4238         1.7337 
     8624.9668         5.9672         3.7482
    3398.06280 
       39.7761        60.7388        50.5063        70.9713      1207.3835 
        2.3760        66.9552       115.7361     10816.1729      6257.3276 
       16.2801        16.2801        38.6813        16.4792         0.0004 
      0.248481      -999.2500     10576.8652      5241.0522     10770.2969 
     6708.2393       0.223633      2464.2185         2.4909         1.5514 
    11544.9150      2564.8049      5152.1758     14935.3682         1.7286 
     8640.3477         5.9680         3.7489
    3398.21520 
       39.7445        61.0751        51.3598        70.7904      1206.0308 
        2.3667        67.0512       115.5130     10758.3115      6244.8247 
       15.9489        15.9489        37.7456        16.4780         0.0004 
      0.245921      -999.2500     10577.4551      5241.1206     10771.9434 
     6687.6880       0.221329      2350.5642         2.4911         1.5466 
    11276.5039      2558.7500      5142.7153     14913.9678         1.7228 
     8657.0371         5.9553         3.7387
    3398.36760 
       39.7250        61.2491        51.9824        70.5157      1205.1940 
        2.3553        67.1108       115.3354     10697.1934      6224.4258 
       15.6850        15.6850        36.9430        16.4495         0.0004 
      0.244053      -999.2500     10578.0449      5241.1895     10773.3057 
     6672.8184       0.219648      2231.3279         2.4913         1.5431 
    11008.2920      2549.5620      5136.8667     14900.7373         1.7186 
     8670.3623         5.9361         3.7233
    3398.52000 
       39.6740        61.4410        52.8228        70.0593      1203.0156 
        2.3430        67.2661       115.2288     10616.9482      6197.7593 
       15.3199        15.3199        35.8952        16.3941         0.0004 
      0.241532      -999.2500     10578.6348      5241.2573     10774.9287 
     6652.7656       0.217378      2119.5981         2.4916         1.5384 
    10744.7275      2534.3257      5121.6602     14866.3398         1.7130 
     8678.3877         5.9042         3.6977
    3398.67240 
       39.6273        61.7019        53.5152        69.8886      1201.0189 
        2.3398        67.4088       115.1695     10579.8516      6192.3979 
       15.0617        15.0617        35.2417        16.3884         0.0004 
      0.239454      -999.2500     10579.2246      5241.3262     10776.3672 
     6636.3813       0.215509      1996.0815         2.4918         1.5345 
    10464.9258      2528.6387      5107.7427     14834.8574         1.7085 
     8682.8574         5.8922         3.6882
    3398.82480 
       39.6421        61.7466        53.4952        69.9980      1201.6523 
        2.3399        67.3635       115.1008     10587.5625      6196.4404 
       15.0879        15.0879        35.3047        16.4089         0.0004 
      0.239515      -999.2500     10579.8145      5241.3940     10776.9512 
     6637.0791       0.215563      1947.4486         2.4918         1.5346 
    10369.0547      2532.2817      5112.1558     14844.8408         1.7087 
     8688.0400         5.8999         3.6943
    3398.97720 
       39.6960        61.7952        53.0934        70.4970      1203.9559 
        2.3472        67.1990       114.9950     10646.3623      6221.3540 
       15.3096        15.3096        35.9345        16.4900         0.0004 
      0.240720      -999.2500     10580.4043      5241.4624     10777.0771 
     6646.9409       0.216648      2000.1067         2.4917         1.5368 
    10494.0957      2548.9380      5128.2212     14881.1816         1.7113 
     8696.0303         5.9348         3.7222
