~Version Information Block
VERS .                  2.0:  CWLS LOG ASCII STANDARD - VERSION 2.0
WRAP .                   NO:  One line per depth step
~Well Information Block
#MNEM.UNIT        Data Type   Information
#---------- ----------------  -----------
STRT .M                0.00:  START DEPTH
STOP .M             3613.00:  STOP DEPTH
STEP .M                0.50:  STEP
NULL .              -999.25:  NULL VALUE
COMP .                     :  COMPANY
WELL .      RAAG-100-07-213:  WELL
FLD  .                     :  FIELD
LOC  .                     :  LOCATION
CTRY .                     :  COUNTRY
STAT .                     :  STATE
CNTY .                     :  COUNTY
SRVC .                     :  SERVICE COMPANY
DATE .                     :  DATE
API  .                     :  API NUMBER
UWI  .                     :  UNIQUE WELL ID
~Curve Information Block
#MNEM.UNIT         API CODE   Curve Description
#---------- ----------------  -----------------
DEPTH.M                    :  
OBG  .G/CC                 :  2.174+0.00008962*TVDSS
PP   .G/CC                 :  2.1087-0.00029524*TVDSS
~Parameter Information Block
#MNEM.UNIT            Value   Description
#---------- ----------------  -----------
PROJECT.          RDG_13Jul21:  
SET  .              GEOMECH:  
~Other Information Block
# 
~A       DEPTH            OBG             PP 
# ...
       2403.00         2.3814         1.4253
       2403.50         2.3815         1.4252
       2404.00         2.3815         1.4250
       2404.50         2.3816         1.4249
       2405.00         2.3816         1.4247
       2405.50         2.3817         1.4246
       2406.00         2.3817         1.4245
       2406.50         2.3817         1.4243
       2407.00         2.3818         1.4242
       2407.50         2.3818         1.4240
       2408.00         2.3819         1.4239
       2408.50         2.3819         1.4237
       2409.00         2.3820         1.4236
       2409.50         2.3820         1.4234
       2410.00         2.3821         1.4233
       2410.50         2.3821         1.4231
       2411.00         2.3822         1.4230
       2411.50         2.3822         1.4228
       2412.00         2.3822         1.4227
       2412.50         2.3823         1.4225
       2413.00         2.3823         1.4224
       2413.50         2.3824         1.4222
       2414.00         2.3824         1.4221
       2414.50         2.3825         1.4219
       2415.00         2.3825         1.4218
       2415.50         2.3826         1.4216
       2416.00         2.3826         1.4215
       2416.50         2.3826         1.4214
       2417.00         2.3827         1.4212
       2417.50         2.3827         1.4211
       2418.00         2.3828         1.4209
       2418.50         2.3828         1.4208
       2419.00         2.3829         1.4206
       2419.50         2.3829         1.4205
       2420.00         2.3830         1.4203
       2420.50         2.3830         1.4202
       2421.00         2.3830         1.4200
       2421.50         2.3831         1.4199
       2422.00         2.3831         1.4197
       2422.50         2.3832         1.4196
       2423.00         2.3832         1.4194
       2423.50         2.3833         1.4193
       2424.00         2.3833         1.4191
       2424.50         2.3834         1.4190
       2425.00         2.3834         1.4188
       2425.50         2.3835         1.4187
       2426.00         2.3835         1.4186
       2426.50         2.3835         1.4184
       2427.00         2.3836         1.4183
       2427.50         2.3836         1.4181
       2428.00         2.3837         1.4180
       2428.50         2.3837         1.4178
       2429.00         2.3838         1.4177
       2429.50         2.3838         1.4175
       2430.00         2.3839         1.4174
       2430.50         2.3839         1.4172
       2431.00         2.3839         1.4171
       2431.50         2.3840         1.4169
       2432.00         2.3840         1.4168
       2432.50         2.3841         1.4166
       2433.00         2.3841         1.4165
       2433.50         2.3842         1.4163
       2434.00         2.3842         1.4162
       2434.50         2.3843         1.4160
       2435.00         2.3843         1.4159
       2435.50         2.3843         1.4157
       2436.00         2.3844         1.4156
       2436.50         2.3844         1.4155
       2437.00         2.3845         1.4153
       2437.50         2.3845         1.4152
       2438.00         2.3846         1.4150
       2438.50         2.3846         1.4149
       2439.00         2.3847         1.4147
       2439.50         2.3847         1.4146
       2440.00         2.3847         1.4144
       2440.50         2.3848         1.4143
       2441.00         2.3848         1.4141
       2441.50         2.3849         1.4140
       2442.00         2.3849         1.4138
       2442.50         2.3850         1.4137
       2443.00         2.3850         1.4135
       2443.50         2.3851         1.4134
       2444.00         2.3851         1.4132
       2444.50         2.3852         1.4131
       2445.00         2.3852         1.4129
       2445.50         2.3852         1.4128
       2446.00         2.3853         1.4126
       2446.50         2.3853         1.4125
       2447.00         2.3854         1.4124
       2447.50         2.3854         1.4122
       2448.00         2.3855         1.4121
       2448.50         2.3855         1.4119
       2449.00         2.3856         1.4118
       2449.50         2.3856         1.4116
       2450.00         2.3856         1.4115
       2450.50         2.3857         1.4113
       2451.00         2.3857         1.4112
       2451.50         2.3858         1.4110
       2452.00         2.3858         1.4109
       2452.50         2.3859         1.4107
       2453.00         2.3859         1.4106
       2453.50         2.3860         1.4104
       2454.00         2.3860         1.4103
       2454.50         2.3860         1.4101
       2455.00         2.3861         1.4100
       2455.50         2.3861         1.4098
       2456.00         2.3862         1.4097
       2456.50         2.3862         1.4095
       2457.00         2.3863         1.4094
       2457.50         2.3863         1.4093
       2458.00         2.3864         1.4091
       2458.50         2.3864         1.4090
       2459.00         2.3865         1.4088
       2459.50         2.3865         1.4087
       2460.00         2.3865         1.4085
       2460.50         2.3866         1.4084
       2461.00         2.3866         1.4082
       2461.50         2.3867         1.4081
       2462.00         2.3867         1.4079
       2462.50         2.3868         1.4078
       2463.00         2.3868         1.4076
       2463.50         2.3869         1.4075
       2464.00         2.3869         1.4073
       2464.50         2.3869         1.4072
       2465.00         2.3870         1.4070
       2465.50         2.3870         1.4069
       2466.00         2.3871         1.4067
       2466.50         2.3871         1.4066
       2467.00         2.3872         1.4064
       2467.50         2.3872         1.4063
       2468.00         2.3873         1.4062
       2468.50         2.3873         1.4060
       2469.00         2.3873         1.4059
       2469.50         2.3874         1.4057
       2470.00         2.3874         1.4056
       2470.50         2.3875         1.4054
       2471.00         2.3875         1.4053
       2471.50         2.3876         1.4051
       2472.00         2.3876         1.4050
       2472.50         2.3877         1.4048
       2473.00         2.3877         1.4047
       2473.50         2.3878         1.4045
       2474.00         2.3878         1.4044
       2474.50         2.3878         1.4042
       2475.00         2.3879         1.4041
       2475.50         2.3879         1.4039
       2476.00         2.3880         1.4038
       2476.50         2.3880         1.4036
       2477.00         2.3881         1.4035
       2477.50         2.3881         1.4033
       2478.00         2.3882         1.4032
       2478.50         2.3882         1.4031
       2479.00         2.3882         1.4029
       2479.50         2.3883         1.4028
       2480.00         2.3883         1.4026
       2480.50         2.3884         1.4025
       2481.00         2.3884         1.4023
       2481.50         2.3885         1.4022
       2482.00         2.3885         1.4020
       2482.50         2.3886         1.4019
       2483.00         2.3886         1.4017
       2483.50         2.3886         1.4016
       2484.00         2.3887         1.4014
       2484.50         2.3887         1.4013
       2485.00         2.3888         1.4011
       2485.50         2.3888         1.4010
       2486.00         2.3889         1.4008
       2486.50         2.3889         1.4007
       2487.00         2.3890         1.4005
       2487.50         2.3890         1.4004
       2488.00         2.3891         1.4002
       2488.50         2.3891         1.4001
       2489.00         2.3891         1.4000
       2489.50         2.3892         1.3998
       2490.00         2.3892         1.3997
       2490.50         2.3893         1.3995
       2491.00         2.3893         1.3994
       2491.50         2.3894         1.3992
