~Version Information Block
VERS .                  2.0:  CWLS LOG ASCII STANDARD - VERSION 2.0
WRAP .                  YES:  Multiple lines per depth step
~Well Information Block
#MNEM.UNIT        Data Type   Information
#---------- ----------------  -----------
STRT .M          2888.43720:  START DEPTH
STOP .M          3843.68040:  STOP DEPTH
STEP .M             0.15240:  STEP
NULL .              -999.25:  NULL VALUE
COMP .                     :  COMPANY
WELL .       RAAG-99-02-105:  WELL
FLD  .                     :  FIELD
LOC  .                     :  LOCATION
CTRY .                     :  COUNTRY
STAT .                     :  STATE
CNTY .                     :  COUNTY
SRVC .                     :  SERVICE COMPANY
DATE .                     :  DATE
API  .                     :  API NUMBER
UWI  .                     :  UNIQUE WELL ID
~Curve Information Block
#MNEM.UNIT         API CODE   Curve Description
#---------- ----------------  -----------------
DEPTH.M                    :  
BADHOLE.NONE                 :  Badhole
BAS  .NONE                 :  Basalt Flag, Basalt = 1 Felsic = 2
BIN1 .V/V                  :  Magnetic Resonance Bin Porosity 1
BIN2 .V/V                  :  Magnetic Resonance Bin Porosity 2
BIN3 .V/V                  :  Magnetic Resonance Bin Porosity 3
BIN4 .V/V                  :  Magnetic Resonance Bin Porosity 4
BIN5 .V/V                  :  Magnetic Resonance Bin Porosity 5
BIN6 .V/V                  :  Magnetic Resonance Bin Porosity 6
BIN7 .V/V                  :  Magnetic Resonance Bin Porosity 7
CAL  .IN                   :  (HDRS-H)                (1in)                   Caliper
CONDUCTFLG.NONE                 :  Conductivity Flag 0 = Low, 1 = High & 2 = Very High
DEN  .G/C3                 :  (HDRS-H)                (2in)                   Standard Resolution Formation Density
DTCO .US/F                 :  Compressional slowness
DTSM .US/F                 :  Fast Shear Slowness
GR   .GAPI                 :  (EDTC-B)                (6in)                   Calibrated Gamma Ray
LITHCODE.NONE                 :  Broad Lithology based on interval
LITHFAC.NONE                 :  Lithofacies
NEU  .V/V                  :  (HGNS-H)                (6in)                   Thermal Neutron Porosity (Ratio Method) in Selected Lithology
PAY  .NONE                 :  Pay flag
PERM .MD                   :  Permeability
PETROFAC.NONE                 :  Petrophysical Facies
PHIE .V/V                  :  Free Fluid Volume using 3-ms Cutoff
PHIT .V/V                  :  Corrected NMR Porosity
RQ   .NONE                 :  Rock Quality
RQD  .NONE                 :  Rock Quality normalised
RQLITHFAC.NONE                 :  Lithofacies using Rock Quality from NMR data
RQPAY.NONE                 :  Pay flag using Rock Quality from NMR data
RQPETROFAC.NONE                 :  Petrophysical facies using Rock Quality from NMR data
RT   .OHMM                 :  (AIT-M)                 (3in)                   Array Induction Four Foot Resistivity A90
SW   .V/V                  :  Water Saturation
SW_RES.V/V                  :  Water Saturation_RES
~Parameter Information Block
#MNEM.UNIT            Value   Description
#---------- ----------------  -----------
ALPHA.                 0.98:  Biot's Constant
CALIB_SHMINPZS.                 6800:  Calibration Factor for processing zones
EXT_FACT.                1e-06:  Extension Factor
PAYSUMMARY.^SPECS/PAYSUM rdg-newwells (2):  Pay summary specification.
PR_FAC.                  0.9:  Poisson's ratio factor
PR_MAX.                  0.4:  Maximum Poisson's ratio
PR_MIN.                  0.1:  Minimum Poisson's ratio
TECT_FACT.                 1.05:  Techtonic Factor
YM_MAX.                    8:  Maximum Youngs' Modulus
YM_MIN.                    1:  Minimum Youngs' Modulus
PROJECT.          RDG_13Jul21:  
SET  .              V4MODEL:  
~Other Information Block
~Ascii Log Data
# ...
    3023.15880 
        0.0000         2.0000      0.0496584      0.0016882      0.0000000 
     0.0000000      0.0000000      0.0000000      0.0000000         5.9366 
        1.0000         2.6080        76.1651       128.5036       120.2889 
        3.0000        12.0000       0.393440         0.0000         0.0003 
        3.0000       0.001688       0.051347         2.8207         1.6285 
       13.0000         0.0000         4.0000         2.2329         0.9048 
        1.0000
    3023.31120 
        0.0000         2.0000      0.0756318      0.0004955      0.0000000 
     0.0000000      0.0000000      0.0000000      0.0000000         5.9178 
        1.0000         2.5854        76.6744       128.6773       120.5168 
        3.0000        12.0000       0.403270         0.0000         0.0006 
        3.0000       0.000496       0.076128         3.8808         2.2406 
       13.0000         0.0000         4.0000         2.0811         0.6590 
        1.0000
    3023.46360 
        0.0000         2.0000      0.1000107      0.0004176      0.0000000 
     0.0000000      0.0000000      0.0000000      0.0000000         5.9084 
        2.0000         2.5557        77.5299       134.8714       109.6110 
        3.0000        12.0000       0.432070         0.0000         0.0032 
        3.0000       0.000418       0.100428         5.0841         2.9353 
       12.0000         0.0000         3.0000         1.9873         0.6500 
        1.0000
    3023.61600 
        0.0000         2.0000      0.1169231      0.0003772      0.0000000 
     0.0000000      0.0000000      0.0000000      0.0000000         5.8707 
        2.0000         2.5286        81.2315       153.9141        92.7800 
        3.0000        12.0000       0.455240         0.0000         0.0041 
        3.0000       0.000377       0.117300         5.9217         3.4189 
       12.0000         0.0000         3.0000         1.8795         0.6500 
        1.0000
    3023.76840 
        0.0000         1.0000      0.1161985      0.0002621      0.0000000 
     0.0000000      0.0000000      0.0000000      0.0000000         5.8872 
        2.0000         2.5203        89.8225       185.5391        79.1602 
        3.0000         8.0000       0.461920         0.0000         0.0087 
        3.0000       0.000262       0.116461         5.8624         3.3847 
        8.0000         0.0000         3.0000         1.7902         0.9900 
        1.0000
    3023.92080 
        0.0000         1.0000      0.1077168      0.0003472      0.0000000 
     0.0000000      0.0000000      0.0000000      0.0000000         5.8707 
        2.0000         2.5184        96.8683       206.5985        75.3400 
        3.0000         8.0000       0.466680         0.0000         0.0078 
        3.0000       0.000347       0.108064         5.4554         3.1497 
        8.0000         0.0000         3.0000         1.7114         0.9900 
        1.0000
    3024.07320 
        0.0000         1.0000      0.0970348      0.0002539      0.0000000 
     0.0000000      0.0000000      0.0000000      0.0000000         5.8707 
        2.0000         2.5235        99.3314       216.9115        78.1870 
        3.0000         8.0000       0.444480         0.0000         0.0066 
        3.0000       0.000254       0.097289         4.9026         2.8305 
        8.0000         0.0000         3.0000         1.6451         0.9900 
        1.0000
    3024.22560 
        0.0000         1.0000      0.0856121      0.0000016      0.0000000 
     0.0000000      0.0000000      0.0000000      0.0000000         5.8612 
        2.0000         2.5205        99.0550       220.8914        77.1262 
        3.0000         8.0000       0.437100         0.0000         0.0054 
        3.0000       0.000002       0.085614         4.2810         2.4716 
        8.0000         0.0000         3.0000         1.5911         0.9900 
        1.0000
    3024.37800 
        0.0000         1.0000      0.0708105      0.0000079      0.0000000 
     0.0000000      0.0000000      0.0000000      0.0000000         5.8612 
        2.0000         2.5164        98.5535       219.8072        78.7557 
        3.0000         8.0000       0.421950         0.0000         0.0041 
        3.0000       0.000008       0.070819         3.5422         2.0451 
        8.0000         0.0000         3.0000         1.5546         0.9900 
        1.0000
    3024.53040 
        0.0000         1.0000      0.0610469      0.0001305      0.0000000 
     0.0000000      0.0000000      0.0000000      0.0000000         5.8518 
        2.0000         2.5082        98.5524       214.9154        75.0173 
        3.0000         8.0000       0.454380         0.0000         0.0032 
        3.0000       0.000131       0.061178         3.0785         1.7774 
        8.0000         0.0000         3.0000         1.5382         0.9900 
        1.0000
    3024.68280 
        0.0000         1.0000      0.0529691      0.0004417      0.0009694 
     0.0001863      0.0000000      0.0000000      0.0000000         5.8589 
        2.0000         2.5119        98.2802       208.0655        72.2965 
        3.0000         8.0000       0.468040         0.0000         0.0027 
        3.0000       0.001598       0.054567         3.5048         2.0235 
        8.0000         0.0000         3.0000         1.5407         0.9900 
        1.0000
    3024.83520 
        0.0000         1.0000      0.0436478      0.0007339      0.0040885 
     0.0006343      0.0000000      0.0000000      0.0000000         5.8801 
        2.0000         2.5205        97.6344       202.5420        71.5572 
        3.0000         8.0000       0.491120         0.0000         0.0023 
        3.0000       0.005457       0.049105         5.4166         3.1273 
        8.0000         0.0000         3.0000         1.5854         0.9900 
        1.0000
    3024.98760 
        0.0000         1.0000      0.0339663      0.0010424      0.0080514 
     0.0008961      0.0000000      0.0000000      0.0000000         5.8612 
        2.0000         2.5295        96.9274       200.0264        66.2825 
        3.0000         8.0000       0.485320         0.0000         0.0020 
        3.0000       0.009990       0.043956         7.6337         4.4073 
        8.0000         0.0000         3.0000         1.6279         1.0000 
        1.0000
    3025.14000 
        0.0000         1.0000      0.0286205      0.0016459      0.0090663 
     0.0000000      0.0000000      0.0000000      0.0000000         5.8518 
        2.0000         2.5370        96.1278       200.4202        61.6557 
        3.0000         8.0000       0.489100         0.0000         0.0016 
        3.0000       0.010712       0.039333         7.2001         4.1570 
        8.0000         0.0000         3.0000         1.6555         1.0000 
        1.0000
    3025.29240 
        0.0000         1.0000      0.0326371      0.0019566      0.0080774 
     0.0000000      0.0000000      0.0000000      0.0000000         5.8612 
        2.0000         2.5372        95.8505       202.2057        54.0534 
        3.0000         8.0000       0.481850         0.0000         0.0019 
        3.0000       0.010034       0.042671         6.8697         3.9662 
        8.0000         0.0000         3.0000         1.6840         1.0000 
        1.0000
    3025.44480 
        0.0000         1.0000      0.0358507      0.0021189      0.0053776 
     0.0000952      0.0000000      0.0000000      0.0000000         5.8707 
        2.0000         2.5319        96.6862       205.2392        56.0033 
        3.0000         8.0000       0.481250         0.0000         0.0019 
        3.0000       0.007592       0.043443         5.5381         3.1974 
        8.0000         0.0000         3.0000         1.7263         1.0000 
        1.0000
    3025.59720 
        0.0000         1.0000      0.0344371      0.0023062      0.0022472 
     0.0003434      0.0000000      0.0000000      0.0000000         5.8707 
        2.0000         2.5142        99.0064       212.2138        59.7214 
        3.0000         8.0000       0.493580         0.0000         0.0016 
        3.0000       0.004897       0.039334         3.8748         2.2371 
        8.0000         0.0000         3.0000         1.7731         1.0000 
        1.0000
