~Version Information Block
VERS .                  2.0:  CWLS LOG ASCII STANDARD - VERSION 2.0
WRAP .                  YES:  Multiple lines per depth step
~Well Information Block
#MNEM.UNIT        Data Type   Information
#---------- ----------------  -----------
STRT .M          2888.43720:  START DEPTH
STOP .M          3843.68040:  STOP DEPTH
STEP .M             0.15240:  STEP
NULL .              -999.25:  NULL VALUE
COMP .                     :  COMPANY
WELL .       RAAG-99-02-105:  WELL
FLD  .                     :  FIELD
LOC  .                     :  LOCATION
CTRY .                     :  COUNTRY
STAT .                     :  STATE
CNTY .                     :  COUNTY
SRVC .                     :  SERVICE COMPANY
DATE .                     :  DATE
API  .                     :  API NUMBER
UWI  .                     :  UNIQUE WELL ID
~Curve Information Block
#MNEM.UNIT         API CODE   Curve Description
#---------- ----------------  -----------------
DEPTH.M                    :  
BADHOLE.NONE                 :  Badhole
BAS  .NONE                 :  Basalt Flag, Basalt = 1 Felsic = 2
BIN1 .V/V                  :  Magnetic Resonance Bin Porosity 1
BIN2 .V/V                  :  Magnetic Resonance Bin Porosity 2
BIN3 .V/V                  :  Magnetic Resonance Bin Porosity 3
BIN4 .V/V                  :  Magnetic Resonance Bin Porosity 4
BIN5 .V/V                  :  Magnetic Resonance Bin Porosity 5
BIN6 .V/V                  :  Magnetic Resonance Bin Porosity 6
BIN7 .V/V                  :  Magnetic Resonance Bin Porosity 7
CAL  .IN                   :  (HDRS-H)                (1in)                   Caliper
CONDUCTFLG.NONE                 :  Conductivity Flag 0 = Low, 1 = High & 2 = Very High
DEN  .G/C3                 :  (HDRS-H)                (2in)                   Standard Resolution Formation Density
DTCO .US/F                 :  Compressional slowness
DTSM .US/F                 :  Fast Shear Slowness
GR   .GAPI                 :  (EDTC-B)                (6in)                   Calibrated Gamma Ray
LITHCODE.NONE                 :  Broad Lithology based on interval
LITHFAC.NONE                 :  Lithofacies
NEU  .V/V                  :  (HGNS-H)                (6in)                   Thermal Neutron Porosity (Ratio Method) in Selected Lithology
PAY  .NONE                 :  Pay flag
PERM .MD                   :  Permeability
PETROFAC.NONE                 :  Petrophysical Facies
PHIE .V/V                  :  Free Fluid Volume using 3-ms Cutoff
PHIT .V/V                  :  Corrected NMR Porosity
RQ   .NONE                 :  Rock Quality
RQD  .NONE                 :  Rock Quality normalised
RQLITHFAC.NONE                 :  Lithofacies using Rock Quality from NMR data
RQPAY.NONE                 :  Pay flag using Rock Quality from NMR data
RQPETROFAC.NONE                 :  Petrophysical facies using Rock Quality from NMR data
RT   .OHMM                 :  (AIT-M)                 (3in)                   Array Induction Four Foot Resistivity A90
SW   .V/V                  :  Water Saturation
SW_RES.V/V                  :  Water Saturation_RES
~Parameter Information Block
#MNEM.UNIT            Value   Description
#---------- ----------------  -----------
ALPHA.                 0.98:  Biot's Constant
CALIB_SHMINPZS.                 6800:  Calibration Factor for processing zones
EXT_FACT.                1e-06:  Extension Factor
PAYSUMMARY.^SPECS/PAYSUM rdg-newwells (2):  Pay summary specification.
PR_FAC.                  0.9:  Poisson's ratio factor
PR_MAX.                  0.4:  Maximum Poisson's ratio
PR_MIN.                  0.1:  Minimum Poisson's ratio
TECT_FACT.                 1.05:  Techtonic Factor
YM_MAX.                    8:  Maximum Youngs' Modulus
YM_MIN.                    1:  Minimum Youngs' Modulus
PROJECT.          RDG_13Jul21:  
SET  .              V4MODEL:  
~Other Information Block
~Ascii Log Data
# ...
    3450.64080 
        0.0000         1.0000      0.0149882      0.0000000      0.0000000 
     0.0000000      0.0000000      0.0000000      0.0000000         5.9861 
        0.0000         2.8918        53.8183       105.1907        65.0353 
        3.0000         9.0000       0.237340         0.0000         0.0000 
        4.0000       0.000000       0.014988         0.7495         0.3748 
        9.0000         0.0000         4.0000        53.5314         1.0000 
        1.0000
    3450.79320 
        0.0000         1.0000      0.0128937      0.0000000      0.0004863 
     0.0016645      0.0000000      0.0000000      0.0000000         5.9861 
        0.0000         2.9042        53.6017       104.2610        67.0630 
        3.0000         9.0000       0.232940         0.0000         0.0000 
        4.0000       0.002151       0.015045         2.6010         1.3005 
        9.0000         0.0000         4.0000        50.0095         1.0000 
        1.0000
    3450.94560 
        0.0000         1.0000      0.0038443      0.0000000      0.0010160 
     0.0034775      0.0000000      0.0000000      0.0000000         5.9508 
        0.0000         2.9260        53.6184       102.4027        63.5670 
        3.0000         9.0000       0.235700         0.0000         0.0000 
        4.0000       0.004494       0.008338         4.2794         2.1397 
        9.0000         0.0000         4.0000        46.2608         1.0000 
        1.0000
    3451.09800 
        0.0000         1.0000      0.0057507      0.0000000      0.0002170 
     0.0007428      0.0000000      0.0000000      0.0000000         5.9437 
        0.0000         2.9277        53.8516        99.5402        61.7854 
        3.0000         9.0000       0.232170         0.0000         0.0000 
        4.0000       0.000960       0.006711         1.1606         0.5803 
        9.0000         0.0000         4.0000        43.2252         1.0000 
        1.0000
    3451.25040 
        0.0000         1.0000      0.0019380      0.0021941      0.0000434 
     0.0001486      0.0000000      0.0000000      0.0000000         5.9838 
        0.0000         2.9120        53.9563        96.0680        61.5150 
        3.0000         9.0000       0.228040         0.0000         0.0000 
        4.0000       0.002386       0.004324         0.7104         0.3552 
        9.0000         0.0000         4.0000        40.7978         1.0000 
        1.0000
    3451.40280 
        0.0000         1.0000      0.0072584      0.0013520      0.0000000 
     0.0000000      0.0000000      0.0000000      0.0000000         5.9932 
        0.0000         2.8874        53.6246        93.5518        62.3405 
        3.0000         9.0000       0.226760         0.0000         0.0000 
        4.0000       0.001352       0.008611         0.6334         0.3167 
        9.0000         0.0000         4.0000        38.7664         1.0000 
        1.0000
    3451.55520 
        0.0000         1.0000      0.0075208      0.0010878      0.0008541 
     0.0000000      0.0000000      0.0026382      0.0013396         5.9791 
        0.0000         2.8740        53.2515        93.6433        63.6889 
        3.0000         8.0000       0.230690         0.0000         0.0000 
        3.0000       0.005920       0.013441         2.0315         1.1729 
        9.0000         0.0000         4.0000        36.2360         1.0000 
        1.0000
    3451.70760 
        0.0000         1.0000      0.0015077      0.0017338      0.0028723 
     0.0001775      0.0000000      0.0062881      0.0030658         5.9649 
        0.0000         2.8705        53.0893        96.0388        61.8099 
        3.0000         8.0000       0.231870         0.0000         0.0000 
        3.0000       0.014138       0.015645         4.5161         2.6074 
        9.0000         0.0000         4.0000        34.9297         1.0000 
        1.0000
    3451.86000 
        0.0000         1.0000      0.0009743      0.0003410      0.0058208 
     0.0008875      0.0000000      0.0050586      0.0019334         5.9932 
        0.0000         2.8718        52.8917        98.7135        65.8287 
        3.0000         8.0000       0.228580         0.0000         0.0000 
        3.0000       0.014041       0.015015         6.2078         3.5841 
        9.0000         0.0000         4.0000        34.6511         1.0000 
        1.0000
    3452.01240 
        0.0000         1.0000      0.0103373      0.0001565      0.0050666 
     0.0002636      0.0000000      0.0014179      0.0005313         5.9932 
        0.0000         2.8745        52.8012       100.1366        66.1953 
        3.0000         8.0000       0.220030         0.0000         0.0000 
        3.0000       0.007436       0.017773         4.3302         2.5001 
        9.0000         0.0000         4.0000        32.2435         1.0000 
        1.0000
    3452.16480 
        0.0000         1.0000      0.0103645      0.0000510      0.0062400 
     0.0020322      0.0000000      0.0002031      0.0000723         5.9838 
        0.0000         2.8942        52.9105       100.2376        68.7046 
        3.0000         9.0000       0.212200         0.0000         0.0001 
        4.0000       0.008599       0.018963         6.3728         3.1864 
        9.0000         0.0000         4.0000        26.8831         1.0000 
        1.0000
    3452.31720 
        0.0000         1.0000      0.0055904      0.0000068      0.0045559 
     0.0021216      0.0008523      0.0062392      0.0001436         5.9791 
        0.0000         2.9162        52.7773        99.6024        68.6200 
        3.0000         9.0000       0.207770         0.0000         0.0001 
        4.0000       0.013920       0.019510         7.5336         3.7668 
        9.0000         0.0000         4.0000        22.0193         1.0000 
        1.0000
    3452.46960 
        0.0000         1.0000      0.0059922      0.0000414      0.0005342 
     0.0002650      0.0017427      0.0127576      0.0002937         5.9366 
        0.0000         2.9233        52.3910        99.4770        65.2131 
        3.0000         9.0000       0.213770         0.0000         0.0001 
        4.0000       0.015635       0.021627         5.7957         2.8978 
        9.0000         0.0000         4.0000        18.3342         1.0000 
        1.0000
    3452.62200 
        0.0000         1.0000      0.0269900      0.0002070      0.0000000 
     0.0000000      0.0001908      0.0013964      0.0000322         5.9178 
        0.0000         2.9016        52.7564       101.3202        60.1371 
        3.0000         9.0000       0.212730         0.0000         0.0001 
        4.0000       0.001826       0.028816         1.9276         0.9638 
        9.0000         0.0000         4.0000        14.8995         1.0000 
        1.0000
    3452.77440 
        0.0000         1.0000      0.0323779      0.0053383      0.0001578 
     0.0000000      0.0000382      0.0002793      0.0000065         5.9084 
        0.0000         2.8645        55.0759       105.7935        60.1151 
        3.0000         8.0000       0.220180         0.0000         0.0002 
        3.0000       0.005820       0.038198         2.8886         1.6677 
        9.0000         0.0000         4.0000        11.7746         1.0000 
        1.0000
    3452.92680 
        0.0000         1.0000      0.0309686      0.0042944      0.0036523 
     0.0008894      0.0000000      0.0005745      0.0000290         5.9272 
        0.0000         2.8133        59.2712       113.0345        76.0325 
        3.0000         8.0000       0.230530         0.0000         0.0002 
        3.0000       0.009440       0.040408         5.6633         3.2697 
        9.0000         0.0000         4.0000         9.5781         1.0000 
        1.0000
    3453.07920 
        0.0000         2.0000      0.0292122      0.0017004      0.0054216 
     0.0010005      0.0000000      0.0005973      0.0000301         6.0309 
        0.0000         2.7632        64.0554       121.4962        93.1266 
        3.0000        13.0000       0.238910         0.0000         0.0002 
        4.0000       0.008750       0.037962         6.2363         3.1182 
       13.0000         0.0000         4.0000         8.3857         1.0000 
        1.0000
