~Version Information Block
VERS .                  2.0:  CWLS LOG ASCII STANDARD - VERSION 2.0
WRAP .                  YES:  Multiple lines per depth step
~Well Information Block
#MNEM.UNIT        Data Type   Information
#---------- ----------------  -----------
STRT .M          2888.43720:  START DEPTH
STOP .M          3843.68040:  STOP DEPTH
STEP .M             0.15240:  STEP
NULL .              -999.25:  NULL VALUE
COMP .                     :  COMPANY
WELL .       RAAG-99-02-105:  WELL
FLD  .                     :  FIELD
LOC  .                     :  LOCATION
CTRY .                     :  COUNTRY
STAT .                     :  STATE
CNTY .                     :  COUNTY
SRVC .                     :  SERVICE COMPANY
DATE .                     :  DATE
API  .                     :  API NUMBER
UWI  .                     :  UNIQUE WELL ID
~Curve Information Block
#MNEM.UNIT         API CODE   Curve Description
#---------- ----------------  -----------------
DEPTH.M                    :  
BADHOLE.NONE                 :  Badhole
BAS  .NONE                 :  Basalt Flag, Basalt = 1 Felsic = 2
BIN1 .V/V                  :  Magnetic Resonance Bin Porosity 1
BIN2 .V/V                  :  Magnetic Resonance Bin Porosity 2
BIN3 .V/V                  :  Magnetic Resonance Bin Porosity 3
BIN4 .V/V                  :  Magnetic Resonance Bin Porosity 4
BIN5 .V/V                  :  Magnetic Resonance Bin Porosity 5
BIN6 .V/V                  :  Magnetic Resonance Bin Porosity 6
BIN7 .V/V                  :  Magnetic Resonance Bin Porosity 7
CAL  .IN                   :  (HDRS-H)                (1in)                   Caliper
CONDUCTFLG.NONE                 :  Conductivity Flag 0 = Low, 1 = High & 2 = Very High
DEN  .G/C3                 :  (HDRS-H)                (2in)                   Standard Resolution Formation Density
DTCO .US/F                 :  Compressional slowness
DTSM .US/F                 :  Fast Shear Slowness
GR   .GAPI                 :  (EDTC-B)                (6in)                   Calibrated Gamma Ray
LITHCODE.NONE                 :  Broad Lithology based on interval
LITHFAC.NONE                 :  Lithofacies
NEU  .V/V                  :  (HGNS-H)                (6in)                   Thermal Neutron Porosity (Ratio Method) in Selected Lithology
PAY  .NONE                 :  Pay flag
PERM .MD                   :  Permeability
PETROFAC.NONE                 :  Petrophysical Facies
PHIE .V/V                  :  Free Fluid Volume using 3-ms Cutoff
PHIT .V/V                  :  Corrected NMR Porosity
RQ   .NONE                 :  Rock Quality
RQD  .NONE                 :  Rock Quality normalised
RQLITHFAC.NONE                 :  Lithofacies using Rock Quality from NMR data
RQPAY.NONE                 :  Pay flag using Rock Quality from NMR data
RQPETROFAC.NONE                 :  Petrophysical facies using Rock Quality from NMR data
RT   .OHMM                 :  (AIT-M)                 (3in)                   Array Induction Four Foot Resistivity A90
SW   .V/V                  :  Water Saturation
SW_RES.V/V                  :  Water Saturation_RES
~Parameter Information Block
#MNEM.UNIT            Value   Description
#---------- ----------------  -----------
ALPHA.                 0.98:  Biot's Constant
CALIB_SHMINPZS.                 6800:  Calibration Factor for processing zones
EXT_FACT.                1e-06:  Extension Factor
PAYSUMMARY.^SPECS/PAYSUM rdg-newwells (2):  Pay summary specification.
PR_FAC.                  0.9:  Poisson's ratio factor
PR_MAX.                  0.4:  Maximum Poisson's ratio
PR_MIN.                  0.1:  Minimum Poisson's ratio
TECT_FACT.                 1.05:  Techtonic Factor
YM_MAX.                    8:  Maximum Youngs' Modulus
YM_MIN.                    1:  Minimum Youngs' Modulus
PROJECT.          RDG_13Jul21:  
SET  .              V4MODEL:  
~Other Information Block
~Ascii Log Data
# ...
    3818.53440 
        0.0000         1.0000      0.0091511      0.0000932      0.0000000 
     0.0000000      0.0000000      0.0000000      0.0000000         2.8879 
        0.0000         2.4588        52.3342        97.7897      -999.2500 
        3.0000         6.0000    -999.250000         1.0000         0.0000 
        1.0000       0.000093       0.009244         0.4763         0.4763 
        9.0000         0.0000         4.0000        68.2366         1.0000 
        1.0000
    3818.68680 
        0.0000         1.0000      0.0128428      0.0006948      0.0000000 
     0.0000000      0.0000000      0.0008539      0.0036979         2.9049 
        0.0000         2.4593        51.9196        95.1446      -999.2500 
        3.0000         6.0000    -999.250000         1.0000         0.0001 
        1.0000       0.005247       0.018092         1.4071         1.4071 
        9.0000         0.0000         4.0000       104.9567         1.0000 
        1.0000
    3818.83920 
        0.0000         1.0000      0.0133272      0.0007713      0.0000000 
     0.0000000      0.0000000      0.0022429      0.0064595         2.8935 
        0.0000         2.4610        51.9729        94.4627      -999.2500 
        3.0000         6.0000    -999.250000         1.0000         0.0001 
        1.0000       0.009474       0.022804         2.1394         2.1394 
        9.0000         0.0000         4.0000        92.7234         1.0000 
        1.0000
    3818.99160 
        0.0000         1.0000      0.0103438      0.0002437      0.0000000 
     0.0000000      0.0000000      0.0040599      0.0066700         2.8879 
        0.0000         2.4561        52.5068        94.5245      -999.2500 
        3.0000         6.0000    -999.250000         1.0000         0.0001 
        1.0000       0.010974       0.021318         2.4509         2.4509 
        9.0000         0.0000         4.0000       107.5063         1.0000 
        1.0000
    3819.14400 
        0.0000         1.0000      0.0072392      0.0000000      0.0000000 
     0.0000000      0.0000000      0.0064089      0.0057333         2.8992 
        0.0000         2.4588        53.0545        94.7182      -999.2500 
        3.0000         6.0000    -999.250000         1.0000         0.0001 
        1.0000       0.012142       0.019381         2.8580         2.8580 
        9.0000         0.0000         4.0000       109.4187         1.0000 
        1.0000
    3819.29640 
        0.0000         1.0000      0.0061902      0.0010210      0.0002133 
     0.0000000      0.0022349      0.0047731      0.0031208         2.8992 
        0.0000         2.4609        53.0734        96.3021      -999.2500 
        3.0000         6.0000    -999.250000         1.0000         0.0000 
        1.0000       0.011363       0.017553         3.7266         3.7266 
        9.0000         0.0000         4.0000       102.5018         1.0000 
        1.0000
    3819.44880 
        0.0000         1.0000      0.0069093      0.0024389      0.0002939 
     0.0000000      0.0030965      0.0049292      0.0021221         2.8879 
        0.0000         2.4775        52.8093        98.3912      -999.2500 
        3.0000         6.0000    -999.250000         1.0000         0.0001 
        1.0000       0.012881       0.019789         4.5585         4.5585 
        9.0000         0.0000         4.0000        93.2050         1.0000 
        1.0000
    3819.60120 
        0.0000         1.0000      0.0100144      0.0034962      0.0001873 
     0.0000292      0.0023693      0.0068059      0.0033141         2.8964 
        0.0000         2.4934        52.5846        98.2964      -999.2500 
        3.0000         6.0000    -999.250000         1.0000         0.0009 
        1.0000       0.016202       0.026215         5.1362         5.1362 
        8.0000         0.0000         3.0000        86.1544         1.0000 
        1.0000
    3819.75360 
        0.0000         1.0000      0.0163163      0.0036247      0.0000241 
     0.0002663      0.0013747      0.0077468      0.0057097         2.8893 
        0.0000         2.5090        52.1942        96.0134      -999.2500 
        3.0000         6.0000    -999.250000         1.0000         0.0014 
        1.0000       0.018746       0.035062         5.5414         5.5414 
        8.0000         0.0000         3.0000        80.7664         1.0000 
        1.0000
    3819.90600 
        0.0000         1.0000      0.0268187      0.0024458      0.0001206 
     0.0010400      0.0029714      0.0025101      0.0067584         2.8879 
        0.0000      -999.2500        51.4930        94.1262      -999.2500 
        3.0000         9.0000    -999.250000         0.0000         0.0002 
        4.0000       0.015846       0.042664         6.1542         3.0771 
        9.0000         0.0000         4.0000        75.1639         1.0000 
        1.0000
    3820.05840 
        0.0000         1.0000      0.0406393      0.0011021      0.0007267 
     0.0043298      0.0015418      0.0024364      0.0047113         2.8935 
        0.0000      -999.2500        50.9188        93.9559      -999.2500 
        3.0000         9.0000    -999.250000         0.0000         0.0003 
        4.0000       0.014848       0.055486         9.1453         4.5727 
        9.0000         0.0000         4.0000        68.4566         0.8590 
        0.9260
    3820.21080 
        0.0000         1.0000      0.0404208      0.0060905      0.0024617 
     0.0056415      0.0012539      0.0010824      0.0018799         2.8964 
        0.0000      -999.2500        50.5410        92.8580      -999.2500 
        3.0000         9.0000    -999.250000         0.0000         0.0003 
        4.0000       0.018410       0.058830        11.6227         5.8113 
        9.0000         0.0000         4.0000        63.2636         0.8202 
        0.9085
    3820.36320 
        0.0000         1.0000      0.0363676      0.0115685      0.0026941 
     0.0069816      0.0009978      0.0001152      0.0002001         2.9049 
        0.0000      -999.2500        50.1930        90.4029      -999.2500 
        3.0000         9.0000    -999.250000         0.0000         0.0003 
        4.0000       0.022557       0.058925        13.3834         6.6917 
        9.0000         0.0000         4.0000        60.0042         0.8191 
        0.9313
    3820.51560 
        0.0000         1.0000      0.0320152      0.0156522      0.0020931 
     0.0075446      0.0015543      0.0000332      0.0000000         2.8822 
        0.0000      -999.2500        50.2314        88.9278      -999.2500 
        3.0000         9.0000    -999.250000         0.0000         0.0003 
        4.0000       0.026877       0.058893        14.4742         7.2371 
        9.0000         0.0000         4.0000        55.9094         0.8195 
        0.9654
    3820.66800 
        0.0000         1.0000      0.0242297      0.0204164      0.0046281 
     0.0037130      0.0055947      0.0001659      0.0000000         2.8964 
        0.0000      -999.2500        51.0047        90.1824      -999.2500 
        3.0000         9.0000    -999.250000         0.0000         0.0003 
        4.0000       0.034518       0.058748        15.1913         7.5956 
        9.0000         0.0000         4.0000        62.8176         0.8211 
        0.9130
    3820.82040 
     -999.2500      -999.2500      0.0172787      0.0239990      0.0086256 
     0.0041452      0.0047577      0.0001164      0.0000000      -999.2500 
     -999.2500      -999.2500        52.1592        94.2563      -999.2500 
     -999.2500      -999.2500    -999.250000      -999.2500      -999.2500 
     -999.2500       0.041644       0.058923      -999.2500      -999.2500 
     -999.2500      -999.2500      -999.2500        73.7672      -999.2500 
     -999.2500
    3820.97280 
     -999.2500      -999.2500      0.0144287      0.0248205      0.0120402 
     0.0041410      0.0034317      0.0003508      0.0000000      -999.2500 
     -999.2500      -999.2500        52.9230        99.1655      -999.2500 
     -999.2500      -999.2500    -999.250000      -999.2500      -999.2500 
     -999.2500       0.044784       0.059213      -999.2500      -999.2500 
     -999.2500      -999.2500      -999.2500        87.5504      -999.2500 
     -999.2500
