~Version Information Block
VERS .                  2.0:  CWLS LOG ASCII STANDARD - VERSION 2.0
WRAP .                  YES:  Multiple lines per depth step
~Well Information Block
#MNEM.UNIT        Data Type   Information
#---------- ----------------  -----------
STRT .M          2888.43720:  START DEPTH
STOP .M          3843.68040:  STOP DEPTH
STEP .M             0.15240:  STEP
NULL .              -999.25:  NULL VALUE
COMP .                     :  COMPANY
WELL .       RAAG-99-02-105:  WELL
FLD  .                     :  FIELD
LOC  .                     :  LOCATION
CTRY .                     :  COUNTRY
STAT .                     :  STATE
CNTY .                     :  COUNTY
SRVC .                     :  SERVICE COMPANY
DATE .                     :  DATE
API  .                     :  API NUMBER
UWI  .                     :  UNIQUE WELL ID
~Curve Information Block
#MNEM.UNIT         API CODE   Curve Description
#---------- ----------------  -----------------
DEPTH.M                    :  
BADHOLE.NONE                 :  Badhole
BAS  .NONE                 :  Basalt Flag, Basalt = 1 Felsic = 2
BIN1 .V/V                  :  Magnetic Resonance Bin Porosity 1
BIN2 .V/V                  :  Magnetic Resonance Bin Porosity 2
BIN3 .V/V                  :  Magnetic Resonance Bin Porosity 3
BIN4 .V/V                  :  Magnetic Resonance Bin Porosity 4
BIN5 .V/V                  :  Magnetic Resonance Bin Porosity 5
BIN6 .V/V                  :  Magnetic Resonance Bin Porosity 6
BIN7 .V/V                  :  Magnetic Resonance Bin Porosity 7
CAL  .IN                   :  (HDRS-H)                (1in)                   Caliper
CONDUCTFLG.NONE                 :  Conductivity Flag 0 = Low, 1 = High & 2 = Very High
DEN  .G/C3                 :  (HDRS-H)                (2in)                   Standard Resolution Formation Density
DTCO .US/F                 :  Compressional slowness
DTSM .US/F                 :  Fast Shear Slowness
GR   .GAPI                 :  (EDTC-B)                (6in)                   Calibrated Gamma Ray
LITHCODE.NONE                 :  Broad Lithology based on interval
LITHFAC.NONE                 :  Lithofacies
NEU  .V/V                  :  (HGNS-H)                (6in)                   Thermal Neutron Porosity (Ratio Method) in Selected Lithology
PAY  .NONE                 :  Pay flag
PERM .MD                   :  Permeability
PETROFAC.NONE                 :  Petrophysical Facies
PHIE .V/V                  :  Free Fluid Volume using 3-ms Cutoff
PHIT .V/V                  :  Corrected NMR Porosity
RQ   .NONE                 :  Rock Quality
RQD  .NONE                 :  Rock Quality normalised
RQLITHFAC.NONE                 :  Lithofacies using Rock Quality from NMR data
RQPAY.NONE                 :  Pay flag using Rock Quality from NMR data
RQPETROFAC.NONE                 :  Petrophysical facies using Rock Quality from NMR data
RT   .OHMM                 :  (AIT-M)                 (3in)                   Array Induction Four Foot Resistivity A90
SW   .V/V                  :  Water Saturation
SW_RES.V/V                  :  Water Saturation_RES
~Parameter Information Block
#MNEM.UNIT            Value   Description
#---------- ----------------  -----------
ALPHA.                 0.98:  Biot's Constant
CALIB_SHMINPZS.                 6800:  Calibration Factor for processing zones
EXT_FACT.                1e-06:  Extension Factor
PAYSUMMARY.^SPECS/PAYSUM rdg-newwells (2):  Pay summary specification.
PR_FAC.                  0.9:  Poisson's ratio factor
PR_MAX.                  0.4:  Maximum Poisson's ratio
PR_MIN.                  0.1:  Minimum Poisson's ratio
TECT_FACT.                 1.05:  Techtonic Factor
YM_MAX.                    8:  Maximum Youngs' Modulus
YM_MIN.                    1:  Minimum Youngs' Modulus
PROJECT.          RDG_13Jul21:  
SET  .              V4MODEL:  
~Other Information Block
~Ascii Log Data
# ...
    3391.05240 
        0.0000         2.0000      0.0296426      0.0322742      0.0240149 
     0.0170471      0.0058634      0.0039588      0.0023733         5.9178 
        0.0000         2.4118        65.8184       117.4253       243.1604 
        3.0000        10.0000       0.193300         1.0000         0.2512 
        1.0000       0.085532       0.115175        44.3360        44.3360 
       10.0000         1.0000         1.0000        89.0815         0.4722 
        0.4092
    3391.20480 
        0.0000         2.0000      0.0308864      0.0348581      0.0186367 
     0.0146066      0.0062845      0.0027025      0.0028884         5.9225 
        0.0000         2.4065        65.9601       118.0816       241.0177 
        3.0000        10.0000       0.190540         1.0000         0.2363 
        1.0000       0.079977       0.110863        39.1749        39.1749 
       10.0000         1.0000         1.0000        88.0766         0.4869 
        0.4275
    3391.35720 
        0.0000         2.0000      0.0400126      0.0335164      0.0128657 
     0.0121192      0.0063200      0.0035077      0.0018669         5.8895 
        0.0000         2.3989        66.2686       116.4781       233.9166 
        3.0000        10.0000       0.188900         1.0000         0.2341 
        1.0000       0.070196       0.110207        33.5735        33.5735 
       10.0000         1.0000         1.0000        87.4545         0.4892 
        0.4316
    3391.50960 
        0.0000         2.0000      0.0541333      0.0306465      0.0086814 
     0.0101796      0.0070210      0.0051726      0.0001649         5.8895 
        0.0000         2.3905        66.4728       113.3850       234.8302 
        3.0000        10.0000       0.191580         1.0000         0.2541 
        1.0000       0.061866       0.115997        30.0053        30.0053 
       10.0000         1.0000         1.0000        85.9703         0.4695 
        0.4136
    3391.66200 
        0.0000         2.0000      0.0662350      0.0308132      0.0071948 
     0.0087585      0.0113869      0.0034412      0.0000000         5.9296 
        0.0000         2.3866        66.4494       111.2192       233.0473 
        3.0000        10.0000       0.197240         1.0000         0.2969 
        1.0000       0.061595       0.127827        30.4142        30.4142 
       10.0000         1.0000         1.0000        84.2904         0.4341 
        0.3790
    3391.81440 
        0.0000         2.0000      0.0666080      0.0291220      0.0109612 
     0.0099762      0.0075012      0.0062928      0.0000282         5.8989 
        0.0000         2.3911        66.3263       111.3967       238.7368 
        3.0000        10.0000       0.199330         1.0000         0.3068 
        1.0000       0.063882       0.130489        32.0992        32.0992 
       10.0000         1.0000         1.0000        82.9755         0.4270 
        0.3742
    3391.96680 
        0.0000         2.0000      0.0612029      0.0284013      0.0142808 
     0.0128461      0.0059431      0.0063204      0.0006563         5.8518 
        0.0000         2.3989        66.3401       113.2843       237.3190 
        3.0000        10.0000       0.197200         1.0000         0.3037 
        1.0000       0.068448       0.129650        35.6826        35.6826 
       10.0000         1.0000         1.0000        80.7992         0.4292 
        0.3817
    3392.11920 
        0.0000         2.0000      0.0532737      0.0293496      0.0149469 
     0.0159722      0.0064844      0.0039810      0.0021012         5.8801 
        0.0000         2.4023        66.4583       115.5343       236.3656 
        3.0000        10.0000       0.198330         1.0000         0.2905 
        1.0000       0.072835       0.126106        38.7690        38.7690 
       10.0000         1.0000         1.0000        80.2580         0.4389 
        0.3937
    3392.27160 
        0.0000         2.0000      0.0458200      0.0306225      0.0132321 
     0.0177908      0.0080536      0.0016166      0.0033811         5.9084 
        0.0000         2.4035        66.5180       117.1366       240.2794 
        3.0000        10.0000       0.196770         1.0000         0.2701 
        1.0000       0.074697       0.120513        39.8008        39.8008 
       10.0000         1.0000         1.0000        80.1398         0.4552 
        0.4123
    3392.42400 
        0.0000         2.0000      0.0415871      0.0288323      0.0118882 
     0.0165698      0.0087362      0.0034540      0.0023163         5.8895 
        0.0000         2.3945        66.4860       117.6368       243.0658 
        3.0000        10.0000       0.198930         1.0000         0.2450 
        1.0000       0.071797       0.113381        38.0581        38.0581 
       10.0000         1.0000         1.0000        80.5877         0.4782 
        0.4370
    3392.57640 
        0.0000         2.0000      0.0381998      0.0262376      0.0182906 
     0.0108205      0.0085699      0.0069176      0.0006489         5.8895 
        0.0000         2.3922        66.4642       116.8971       243.3580 
        3.0000        10.0000       0.190640         1.0000         0.2323 
        1.0000       0.071485       0.109684        36.2345        36.2345 
       10.0000         1.0000         1.0000        80.4008         0.4911 
        0.4522
    3392.72880 
        0.0000         2.0000      0.0358144      0.0273852      0.0236096 
     0.0077819      0.0084679      0.0078229      0.0000928         5.8801 
        0.0000         2.3857        66.5490       115.3609       240.7294 
        3.0000        10.0000       0.188690         1.0000         0.2367 
        1.0000       0.075160       0.110973        36.6523        36.6523 
       10.0000         1.0000         1.0000        80.3803         0.4865 
        0.4470
    3392.88120 
        0.0000         2.0000      0.0316594      0.0301680      0.0247704 
     0.0080556      0.0086418      0.0070891      0.0004978         5.8989 
        0.0000         2.3869        66.7383       114.0410       235.8324 
        3.0000        10.0000       0.190460         1.0000         0.2363 
        1.0000       0.079223       0.110880        37.8961        37.8961 
       10.0000         1.0000         1.0000        80.4050         0.4868 
        0.4473
    3393.03360 
        0.0000         2.0000      0.0244245      0.0334321      0.0218278 
     0.0106031      0.0095731      0.0052306      0.0016755         5.8872 
        0.0000         2.3820        67.0067       113.4295       242.4843 
        3.0000        10.0000       0.202220         1.0000         0.2225 
        1.0000       0.082342       0.106765        39.0881        39.0881 
       10.0000         1.0000         1.0000        80.2271         0.5019 
        0.4651
    3393.18600 
        0.0000         2.0000      0.0142604      0.0369762      0.0179666 
     0.0127461      0.0120129      0.0023562      0.0033991         5.8612 
        0.0000         2.3818        67.2413       113.2455       252.6404 
        3.0000        10.0000       0.203800         1.0000         0.1994 
        1.0000       0.085457       0.099717        39.8888        39.8888 
       10.0000         1.0000         1.0000        80.6442         0.5302 
        0.4966
    3393.33840 
        0.0000         2.0000      0.0099836      0.0420952      0.0171354 
     0.0135561      0.0112599      0.0016162      0.0042255         5.8989 
        0.0000         2.3818        67.2514       113.2511       260.7959 
        3.0000        10.0000       0.208810         1.0000         0.1999 
        1.0000       0.089888       0.099870        40.4190        40.4190 
       10.0000         1.0000         1.0000        81.3706         0.5296 
        0.4937
    3393.49080 
        0.0000         2.0000      0.0129669      0.0438539      0.0184949 
     0.0132808      0.0086453      0.0010703      0.0048668         5.8989 
        0.0000         2.3879        66.9968       113.5129       262.2051 
        3.0000        10.0000       0.209180         1.0000         0.2106 
        1.0000       0.090212       0.103177        39.7918        39.7918 
       10.0000         1.0000         1.0000        82.5311         0.5159 
        0.4745
