~Version Information Block
VERS .                  2.0:  CWLS LOG ASCII STANDARD - VERSION 2.0
WRAP .                  YES:  Multiple lines per depth step
~Well Information Block
#MNEM.UNIT        Data Type   Information
#---------- ----------------  -----------
STRT .M          2888.43720:  START DEPTH
STOP .M          3843.68040:  STOP DEPTH
STEP .M             0.15240:  STEP
NULL .              -999.25:  NULL VALUE
COMP .                     :  COMPANY
WELL .       RAAG-99-02-105:  WELL
FLD  .                     :  FIELD
LOC  .                     :  LOCATION
CTRY .                     :  COUNTRY
STAT .                     :  STATE
CNTY .                     :  COUNTY
SRVC .                     :  SERVICE COMPANY
DATE .                     :  DATE
API  .                     :  API NUMBER
UWI  .                     :  UNIQUE WELL ID
~Curve Information Block
#MNEM.UNIT         API CODE   Curve Description
#---------- ----------------  -----------------
DEPTH.M                    :  
BADHOLE.NONE                 :  Badhole
BAS  .NONE                 :  Basalt Flag, Basalt = 1 Felsic = 2
BIN1 .V/V                  :  Magnetic Resonance Bin Porosity 1
BIN2 .V/V                  :  Magnetic Resonance Bin Porosity 2
BIN3 .V/V                  :  Magnetic Resonance Bin Porosity 3
BIN4 .V/V                  :  Magnetic Resonance Bin Porosity 4
BIN5 .V/V                  :  Magnetic Resonance Bin Porosity 5
BIN6 .V/V                  :  Magnetic Resonance Bin Porosity 6
BIN7 .V/V                  :  Magnetic Resonance Bin Porosity 7
CAL  .IN                   :  (HDRS-H)                (1in)                   Caliper
CONDUCTFLG.NONE                 :  Conductivity Flag 0 = Low, 1 = High & 2 = Very High
DEN  .G/C3                 :  (HDRS-H)                (2in)                   Standard Resolution Formation Density
DTCO .US/F                 :  Compressional slowness
DTSM .US/F                 :  Fast Shear Slowness
GR   .GAPI                 :  (EDTC-B)                (6in)                   Calibrated Gamma Ray
LITHCODE.NONE                 :  Broad Lithology based on interval
LITHFAC.NONE                 :  Lithofacies
NEU  .V/V                  :  (HGNS-H)                (6in)                   Thermal Neutron Porosity (Ratio Method) in Selected Lithology
PAY  .NONE                 :  Pay flag
PERM .MD                   :  Permeability
PETROFAC.NONE                 :  Petrophysical Facies
PHIE .V/V                  :  Free Fluid Volume using 3-ms Cutoff
PHIT .V/V                  :  Corrected NMR Porosity
RQ   .NONE                 :  Rock Quality
RQD  .NONE                 :  Rock Quality normalised
RQLITHFAC.NONE                 :  Lithofacies using Rock Quality from NMR data
RQPAY.NONE                 :  Pay flag using Rock Quality from NMR data
RQPETROFAC.NONE                 :  Petrophysical facies using Rock Quality from NMR data
RT   .OHMM                 :  (AIT-M)                 (3in)                   Array Induction Four Foot Resistivity A90
SW   .V/V                  :  Water Saturation
SW_RES.V/V                  :  Water Saturation_RES
~Parameter Information Block
#MNEM.UNIT            Value   Description
#---------- ----------------  -----------
ALPHA.                 0.98:  Biot's Constant
CALIB_SHMINPZS.                 6800:  Calibration Factor for processing zones
EXT_FACT.                1e-06:  Extension Factor
PAYSUMMARY.^SPECS/PAYSUM rdg-newwells (2):  Pay summary specification.
PR_FAC.                  0.9:  Poisson's ratio factor
PR_MAX.                  0.4:  Maximum Poisson's ratio
PR_MIN.                  0.1:  Minimum Poisson's ratio
TECT_FACT.                 1.05:  Techtonic Factor
YM_MAX.                    8:  Maximum Youngs' Modulus
YM_MIN.                    1:  Minimum Youngs' Modulus
PROJECT.          RDG_13Jul21:  
SET  .              V4MODEL:  
~Other Information Block
~Ascii Log Data
# ...
    3696.76680 
        0.0000         1.0000      0.0226907      0.0444137      0.0294097 
     0.0129042      0.0058006      0.0009097      0.0003962         6.0498 
        0.0000         2.5088        75.4158       126.8307        84.4505 
        3.0000         6.0000       0.313840         1.0000         0.1765 
        1.0000       0.093834       0.116523        44.3602        44.3602 
        6.0000         1.0000         1.0000        49.7035         0.4777 
        0.5241
    3696.91920 
        0.0000         2.0000      0.0232268      0.0461800      0.0231689 
     0.0133883      0.0053628      0.0002044      0.0002545         6.1158 
        0.0000         2.5252        73.9638       124.4364        90.8251 
        3.0000        11.0000       0.322580         1.0000         0.0374 
        2.0000       0.088559       0.111785        40.9914        28.9853 
       11.0000         1.0000         2.0000        48.2092         0.4836 
        0.5547
    3697.07160 
        0.0000         2.0000      0.0253378      0.0472406      0.0177909 
     0.0121998      0.0050868      0.0000542      0.0001935         6.1252 
        0.0000         2.5876        71.8092       121.1350        99.7366 
        3.0000        12.0000       0.324600         0.0000         0.0354 
        3.0000       0.082566       0.107904        36.6770        21.1755 
       11.0000         1.0000         2.0000        46.8974         0.4976 
        0.5826
    3697.22400 
        0.0000         2.0000      0.0292928      0.0472347      0.0152330 
     0.0089406      0.0052796      0.0001728      0.0007395         6.0969 
        0.0000         2.6652        69.7542       118.5755       100.8707 
        3.0000        12.0000       0.314670         0.0000         0.0349 
        3.0000       0.077600       0.106893        32.2855        18.6400 
       11.0000         1.0000         2.0000        46.7960         0.5014 
        0.5887
    3697.37640 
        0.0000         2.0000      0.0330326      0.0462131      0.0137193 
     0.0058853      0.0055535      0.0007271      0.0011024         6.0686 
        0.0000         2.6962        67.3443       116.8234        95.8136 
        3.0000        12.0000       0.305660         0.0000         0.0345 
        3.0000       0.073201       0.106233        28.6716        16.5536 
       11.0000         1.0000         2.0000        47.7475         0.5039 
        0.5864
    3697.52880 
        0.0000         2.0000      0.0356533      0.0429047      0.0140280 
     0.0039900      0.0058921      0.0023204      0.0008081         6.0309 
        0.0000         2.6719        64.4098       115.1912        92.3901 
        3.0000        12.0000       0.297730         0.0000         0.0342 
        3.0000       0.069943       0.105598        27.0826        15.6362 
       11.0000         1.0000         2.0000        49.0957         0.5063 
        0.5818
    3697.68120 
        0.0000         1.0000      0.0368244      0.0384396      0.0145860 
     0.0033675      0.0062100      0.0032168      0.0005646         5.9932 
        0.0000         2.6355        62.5049       112.5231        87.1195 
        3.0000         7.0000       0.290010         1.0000         0.1483 
        2.0000       0.066385       0.103211        26.3957        18.6646 
        7.0000         1.0000         2.0000        50.7081         0.5258 
        0.5857
    3697.83360 
        0.0000         1.0000      0.0364481      0.0334078      0.0146289 
     0.0040187      0.0064670      0.0026139      0.0007091         6.0026 
        0.0000         2.6301        62.5283       109.9440        84.2728 
        3.0000         7.0000       0.284590         1.0000         0.1383 
        2.0000       0.061845       0.098295        26.0353        18.4097 
        7.0000         1.0000         2.0000        52.2005         0.5465 
        0.6061
    3697.98600 
        0.0000         1.0000      0.0346591      0.0278585      0.0142015 
     0.0058328      0.0066684      0.0006419      0.0012079         5.9861 
        0.0000         2.6556        63.3282       108.7860        81.1655 
        3.0000         7.0000       0.290500         1.0000         0.1239 
        2.0000       0.056411       0.091070        25.9728        18.3656 
        7.0000         1.0000         2.0000        53.8207         0.5805 
        0.6443
    3698.13840 
        0.0000         1.0000      0.0323913      0.0229727      0.0158511 
     0.0082431      0.0045834      0.0002290      0.0008280         6.0215 
        0.0000         2.6771        63.9421       109.6814        78.0781 
        3.0000         7.0000       0.293120         1.0000         0.1124 
        2.0000       0.052707       0.085098        26.8693        18.9995 
        7.0000         1.0000         2.0000        54.6232         0.6125 
        0.6844
    3698.29080 
        0.0000         1.0000      0.0303639      0.0184732      0.0179605 
     0.0105061      0.0023816      0.0000503      0.0004343         5.9744 
        0.0000         2.6995        64.1447       112.2326        76.6933 
        3.0000         7.0000       0.299650         1.0000         0.1032 
        2.0000       0.049806       0.080169        27.9828        19.7868 
        7.0000         1.0000         2.0000        55.0862         0.6421 
        0.7234
    3698.44320 
        0.0000         1.0000      0.0295925      0.0152170      0.0208550 
     0.0118364      0.0009321      0.0000000      0.0004591         5.9932 
        0.0000         2.7080        63.9431       115.2177        72.5033 
        3.0000         7.0000       0.305530         1.0000         0.1008 
        2.0000       0.049300       0.078892        29.4776        20.8438 
        7.0000         1.0000         2.0000        56.0104         0.6503 
        0.7290
    3698.59560 
        0.0000         1.0000      0.0295936      0.0145500      0.0243808 
     0.0123489      0.0006148      0.0000341      0.0009893         5.9932 
        0.0000         2.7084        63.6740       117.2441        70.2798 
        3.0000         7.0000       0.306830         1.0000         0.1075 
        2.0000       0.052918       0.082513        31.8451        22.5179 
        7.0000         1.0000         2.0000        56.6600         0.6276 
        0.6930
    3698.74800 
        0.0000         1.0000      0.0283842      0.0183063      0.0279057 
     0.0130600      0.0013205      0.0001703      0.0017669         6.0403 
        0.0000         2.6837        63.8340       117.7236        71.2963 
        3.0000         7.0000       0.307070         1.0000         0.1236 
        2.0000       0.062530       0.090914        35.9039        25.3879 
        7.0000         1.0000         2.0000        57.2119         0.5813 
        0.6259
    3698.90040 
        0.0000         1.0000      0.0230309      0.0307631      0.0309597 
     0.0152514      0.0028458      0.0002188      0.0026937         6.0592 
        0.0000         2.6433        64.3181       117.1161        74.4902 
        3.0000         7.0000       0.305330         1.0000         0.1536 
        2.0000       0.082732       0.105762        43.1739        30.5285 
        6.0000         1.0000         1.0000        57.5938         0.5158 
        0.5363
    3699.05280 
        0.0000         1.0000      0.0169212      0.0433873      0.0331706 
     0.0182080      0.0033384      0.0001142      0.0031351         6.0781 
        0.0000         2.5922        64.7297       116.2042        78.0523 
        3.0000         6.0000       0.326890         1.0000         0.1803 
        1.0000       0.101354       0.118275        49.9847        49.9847 
        6.0000         1.0000         1.0000        58.3648         0.4721 
        0.4763
    3699.20520 
        0.0000         1.0000      0.0131491      0.0513220      0.0342923 
     0.0202913      0.0030492      0.0000219      0.0030210         6.1252 
        0.0000         2.5646        64.6759       115.7222        89.3921 
        3.0000         6.0000       0.339380         1.0000         0.1955 
        1.0000       0.111998       0.125148        53.9267        53.9267 
        6.0000         1.0000         1.0000        60.2793         0.4515 
        0.4430
