~Version Information Block
VERS .                  2.0:  CWLS LOG ASCII STANDARD - VERSION 2.0
WRAP .                  YES:  Multiple lines per depth step
~Well Information Block
#MNEM.UNIT        Data Type   Information
#---------- ----------------  -----------
STRT .M          2888.43720:  START DEPTH
STOP .M          3843.68040:  STOP DEPTH
STEP .M             0.15240:  STEP
NULL .              -999.25:  NULL VALUE
COMP .                     :  COMPANY
WELL .       RAAG-99-02-105:  WELL
FLD  .                     :  FIELD
LOC  .                     :  LOCATION
CTRY .                     :  COUNTRY
STAT .                     :  STATE
CNTY .                     :  COUNTY
SRVC .                     :  SERVICE COMPANY
DATE .                     :  DATE
API  .                     :  API NUMBER
UWI  .                     :  UNIQUE WELL ID
~Curve Information Block
#MNEM.UNIT         API CODE   Curve Description
#---------- ----------------  -----------------
DEPTH.M                    :  
BADHOLE.NONE                 :  Badhole
BAS  .NONE                 :  Basalt Flag, Basalt = 1 Felsic = 2
BIN1 .V/V                  :  Magnetic Resonance Bin Porosity 1
BIN2 .V/V                  :  Magnetic Resonance Bin Porosity 2
BIN3 .V/V                  :  Magnetic Resonance Bin Porosity 3
BIN4 .V/V                  :  Magnetic Resonance Bin Porosity 4
BIN5 .V/V                  :  Magnetic Resonance Bin Porosity 5
BIN6 .V/V                  :  Magnetic Resonance Bin Porosity 6
BIN7 .V/V                  :  Magnetic Resonance Bin Porosity 7
CAL  .IN                   :  (HDRS-H)                (1in)                   Caliper
CONDUCTFLG.NONE                 :  Conductivity Flag 0 = Low, 1 = High & 2 = Very High
DEN  .G/C3                 :  (HDRS-H)                (2in)                   Standard Resolution Formation Density
DTCO .US/F                 :  Compressional slowness
DTSM .US/F                 :  Fast Shear Slowness
GR   .GAPI                 :  (EDTC-B)                (6in)                   Calibrated Gamma Ray
LITHCODE.NONE                 :  Broad Lithology based on interval
LITHFAC.NONE                 :  Lithofacies
NEU  .V/V                  :  (HGNS-H)                (6in)                   Thermal Neutron Porosity (Ratio Method) in Selected Lithology
PAY  .NONE                 :  Pay flag
PERM .MD                   :  Permeability
PETROFAC.NONE                 :  Petrophysical Facies
PHIE .V/V                  :  Free Fluid Volume using 3-ms Cutoff
PHIT .V/V                  :  Corrected NMR Porosity
RQ   .NONE                 :  Rock Quality
RQD  .NONE                 :  Rock Quality normalised
RQLITHFAC.NONE                 :  Lithofacies using Rock Quality from NMR data
RQPAY.NONE                 :  Pay flag using Rock Quality from NMR data
RQPETROFAC.NONE                 :  Petrophysical facies using Rock Quality from NMR data
RT   .OHMM                 :  (AIT-M)                 (3in)                   Array Induction Four Foot Resistivity A90
SW   .V/V                  :  Water Saturation
SW_RES.V/V                  :  Water Saturation_RES
~Parameter Information Block
#MNEM.UNIT            Value   Description
#---------- ----------------  -----------
ALPHA.                 0.98:  Biot's Constant
CALIB_SHMINPZS.                 6800:  Calibration Factor for processing zones
EXT_FACT.                1e-06:  Extension Factor
PAYSUMMARY.^SPECS/PAYSUM rdg-newwells (2):  Pay summary specification.
PR_FAC.                  0.9:  Poisson's ratio factor
PR_MAX.                  0.4:  Maximum Poisson's ratio
PR_MIN.                  0.1:  Minimum Poisson's ratio
TECT_FACT.                 1.05:  Techtonic Factor
YM_MAX.                    8:  Maximum Youngs' Modulus
YM_MIN.                    1:  Minimum Youngs' Modulus
PROJECT.          RDG_13Jul21:  
SET  .              V4MODEL:  
~Other Information Block
~Ascii Log Data
# ...
    3574.99920 
        0.0000         1.0000      0.0352016      0.0005380      0.0084284 
     0.0045293      0.0000000      0.0000000      0.0000000         6.0121 
        0.0000         2.7083        62.2471       119.5725        41.3930 
        3.0000         7.0000       0.270020         1.0000         0.0023 
        2.0000       0.013496       0.048697        11.4540         8.0992 
        8.0000         0.0000         3.0000        21.0109         0.9524 
        1.0000
    3575.15160 
        0.0000         1.0000      0.0335741      0.0011344      0.0078531 
     0.0070340      0.0000009      0.0000000      0.0000000         6.0121 
        0.0000         2.7273        61.3660       118.7286        46.7825 
        3.0000         7.0000       0.257390         1.0000         0.0518 
        2.0000       0.016022       0.049597        13.6520         9.6534 
        7.0000         1.0000         2.0000        24.0707         0.9388 
        1.0000
    3575.30400 
        0.0000         1.0000      0.0332130      0.0021480      0.0087519 
     0.0076727      0.0000043      0.0000000      0.0000000         6.0498 
        0.0000         2.7360        60.9273       118.1207        48.2836 
        3.0000         7.0000       0.249060         1.0000         0.0551 
        2.0000       0.018577       0.051790        15.0167        10.6184 
        7.0000         1.0000         2.0000        27.1517         0.9072 
        1.0000
    3575.45640 
        0.0000         1.0000      0.0357099      0.0027835      0.0121898 
     0.0037020      0.0000027      0.0000000      0.0000000         6.0969 
        0.0000         2.7484        60.7244       117.8470        50.1644 
        3.0000         7.0000       0.242220         1.0000         0.0591 
        2.0000       0.018678       0.054388        13.3597         9.4467 
        7.0000         1.0000         2.0000        27.4803         0.8727 
        1.0000
    3575.60880 
        0.0000         1.0000      0.0363452      0.0030772      0.0107363 
     0.0029501      0.0000009      0.0000000      0.0000000         6.1063 
        0.0000         2.7538        60.3857       117.6446        49.8410 
        3.0000         8.0000       0.232680         0.0000         0.0026 
        3.0000       0.016765       0.053110        11.8251         6.8272 
        8.0000         0.0000         3.0000        27.8637         0.8893 
        1.0000
    3575.76120 
        0.0000         1.0000      0.0329080      0.0032116      0.0064599 
     0.0032159      0.0016658      0.0000581      0.0000000         6.0875 
        0.0000         2.7719        59.6268       116.8809        53.4894 
        3.0000         8.0000       0.227000         0.0000         0.0022 
        3.0000       0.014611       0.047519        10.3965         6.0024 
        8.0000         0.0000         3.0000        28.3734         0.9711 
        1.0000
    3575.91360 
        0.0000         1.0000      0.0253420      0.0031243      0.0019012 
     0.0028916      0.0047199      0.0003614      0.0000000         6.0922 
        0.0000         2.7890        58.6281       115.1249        57.6569 
        3.0000         8.0000       0.217090         0.0000         0.0016 
        3.0000       0.012998       0.038340         8.8647         5.1180 
        8.0000         0.0000         3.0000        29.4549         1.0000 
        1.0000
    3576.06600 
        0.0000         1.0000      0.0157454      0.0025082      0.0000728 
     0.0009627      0.0069410      0.0012262      0.0000000         6.0592 
        0.0000         2.8038        57.8926       112.3750        62.7059 
        3.0000         8.0000       0.212830         0.0000         0.0001 
        3.0000       0.011711       0.027456         6.8278         3.9420 
        9.0000         0.0000         4.0000        31.7339         1.0000 
        1.0000
    3576.21840 
        0.0000         1.0000      0.0075416      0.0012264      0.0021784 
     0.0001926      0.0040866      0.0011202      0.0000000         6.0309 
        0.0000         2.8196        57.6060       108.9511        63.6625 
        3.0000         8.0000       0.216300         0.0000         0.0000 
        3.0000       0.008804       0.016346         4.9100         2.8348 
        9.0000         0.0000         4.0000        35.0382         1.0000 
        1.0000
    3576.37080 
        0.0000         1.0000      0.0031550      0.0003998      0.0048453 
     0.0000000      0.0013492      0.0004375      0.0000000         5.9744 
        0.0000         2.8179        57.5973       105.6352        60.8497 
        3.0000         8.0000       0.221420         0.0000         0.0000 
        3.0000       0.007032       0.010187         4.0858         2.3589 
        9.0000         0.0000         4.0000        40.5428         1.0000 
        1.0000
    3576.52320 
        0.0000         1.0000      0.0016738      0.0001525      0.0074475 
     0.0001749      0.0000000      0.0000000      0.0000000         6.0403 
        0.0000         2.8149        57.9006       103.4795        60.8386 
        3.0000         8.0000       0.226790         0.0000         0.0000 
        3.0000       0.007775       0.009449         4.7577         2.7468 
        9.0000         0.0000         4.0000        45.6728         1.0000 
        1.0000
    3576.67560 
        0.0000         1.0000      0.0014301      0.0003995      0.0094057 
     0.0010704      0.0000656      0.0000000      0.0000000         6.0309 
        0.0000         2.8003        58.4772       102.9827        64.3337 
        3.0000         8.0000       0.226610         0.0000         0.0000 
        3.0000       0.010941       0.012371         6.9046         3.9864 
        9.0000         0.0000         4.0000        54.8366         1.0000 
        1.0000
    3576.82800 
        0.0000         1.0000      0.0000001      0.0008463      0.0101874 
     0.0036032      0.0003279      0.0000000      0.0000000         6.0403 
        0.0000         2.7953        58.7061       103.8198        66.8074 
        3.0000         8.0000       0.224700         0.0000         0.0004 
        3.0000       0.014965       0.014965        10.0817         5.8206 
        8.0000         0.0000         3.0000        67.3296         1.0000 
        1.0000
    3576.98040 
        0.0000         1.0000      0.0000001      0.0033471      0.0069099 
     0.0063942      0.0007060      0.0000000      0.0000000         6.0309 
        0.0000         2.7903        58.1030       105.2421        68.1727 
        3.0000         8.0000       0.217300         0.0000         0.0005 
        3.0000       0.017357       0.017357        11.6332         6.7164 
        8.0000         0.0000         3.0000        75.4429         1.0000 
        1.0000
    3577.13280 
        0.0000         1.0000      0.0000580      0.0089697      0.0051747 
     0.0050525      0.0005700      0.0000000      0.0000000         5.9838 
        0.0000         2.7977        56.9625       106.5399        63.7706 
        3.0000         8.0000       0.217320         0.0000         0.0006 
        3.0000       0.019767       0.019825        10.2962         5.9445 
        8.0000         0.0000         3.0000        72.9245         1.0000 
        1.0000
    3577.28520 
        0.0000         1.0000      0.0007631      0.0154301      0.0044705 
     0.0024478      0.0002517      0.0000000      0.0000000         5.9791 
        0.0000         2.8002        55.9463       107.4143        63.0037 
        3.0000         8.0000       0.218370         0.0000         0.0001 
        3.0000       0.022600       0.023363         8.4052         4.8528 
        9.0000         0.0000         4.0000        68.0250         1.0000 
        1.0000
    3577.43760 
        0.0000         1.0000      0.0032935      0.0193901      0.0039110 
     0.0008003      0.0000097      0.0001800      0.0000247         5.9838 
        0.0000         2.7970        55.6411       107.8854        59.8866 
        3.0000         8.0000       0.221090         0.0000         0.0001 
        3.0000       0.024316       0.027609         7.2518         4.1868 
        9.0000         0.0000         4.0000        58.7524         1.0000 
        1.0000
