~Version Information Block
VERS .                  2.0:  CWLS LOG ASCII STANDARD - VERSION 2.0
WRAP .                  YES:  Multiple lines per depth step
~Well Information Block
#MNEM.UNIT        Data Type   Information
#---------- ----------------  -----------
STRT .M          2888.43720:  START DEPTH
STOP .M          3843.68040:  STOP DEPTH
STEP .M             0.15240:  STEP
NULL .              -999.25:  NULL VALUE
COMP .                     :  COMPANY
WELL .       RAAG-99-02-105:  WELL
FLD  .                     :  FIELD
LOC  .                     :  LOCATION
CTRY .                     :  COUNTRY
STAT .                     :  STATE
CNTY .                     :  COUNTY
SRVC .                     :  SERVICE COMPANY
DATE .                     :  DATE
API  .                     :  API NUMBER
UWI  .                     :  UNIQUE WELL ID
~Curve Information Block
#MNEM.UNIT         API CODE   Curve Description
#---------- ----------------  -----------------
DEPTH.M                    :  
BADHOLE.NONE                 :  Badhole
BAS  .NONE                 :  Basalt Flag, Basalt = 1 Felsic = 2
BIN1 .V/V                  :  Magnetic Resonance Bin Porosity 1
BIN2 .V/V                  :  Magnetic Resonance Bin Porosity 2
BIN3 .V/V                  :  Magnetic Resonance Bin Porosity 3
BIN4 .V/V                  :  Magnetic Resonance Bin Porosity 4
BIN5 .V/V                  :  Magnetic Resonance Bin Porosity 5
BIN6 .V/V                  :  Magnetic Resonance Bin Porosity 6
BIN7 .V/V                  :  Magnetic Resonance Bin Porosity 7
CAL  .IN                   :  (HDRS-H)                (1in)                   Caliper
CONDUCTFLG.NONE                 :  Conductivity Flag 0 = Low, 1 = High & 2 = Very High
DEN  .G/C3                 :  (HDRS-H)                (2in)                   Standard Resolution Formation Density
DTCO .US/F                 :  Compressional slowness
DTSM .US/F                 :  Fast Shear Slowness
GR   .GAPI                 :  (EDTC-B)                (6in)                   Calibrated Gamma Ray
LITHCODE.NONE                 :  Broad Lithology based on interval
LITHFAC.NONE                 :  Lithofacies
NEU  .V/V                  :  (HGNS-H)                (6in)                   Thermal Neutron Porosity (Ratio Method) in Selected Lithology
PAY  .NONE                 :  Pay flag
PERM .MD                   :  Permeability
PETROFAC.NONE                 :  Petrophysical Facies
PHIE .V/V                  :  Free Fluid Volume using 3-ms Cutoff
PHIT .V/V                  :  Corrected NMR Porosity
RQ   .NONE                 :  Rock Quality
RQD  .NONE                 :  Rock Quality normalised
RQLITHFAC.NONE                 :  Lithofacies using Rock Quality from NMR data
RQPAY.NONE                 :  Pay flag using Rock Quality from NMR data
RQPETROFAC.NONE                 :  Petrophysical facies using Rock Quality from NMR data
RT   .OHMM                 :  (AIT-M)                 (3in)                   Array Induction Four Foot Resistivity A90
SW   .V/V                  :  Water Saturation
SW_RES.V/V                  :  Water Saturation_RES
~Parameter Information Block
#MNEM.UNIT            Value   Description
#---------- ----------------  -----------
ALPHA.                 0.98:  Biot's Constant
CALIB_SHMINPZS.                 6800:  Calibration Factor for processing zones
EXT_FACT.                1e-06:  Extension Factor
PAYSUMMARY.^SPECS/PAYSUM rdg-newwells (2):  Pay summary specification.
PR_FAC.                  0.9:  Poisson's ratio factor
PR_MAX.                  0.4:  Maximum Poisson's ratio
PR_MIN.                  0.1:  Minimum Poisson's ratio
TECT_FACT.                 1.05:  Techtonic Factor
YM_MAX.                    8:  Maximum Youngs' Modulus
YM_MIN.                    1:  Minimum Youngs' Modulus
PROJECT.          RDG_13Jul21:  
SET  .              V4MODEL:  
~Other Information Block
~Ascii Log Data
# ...
    3207.10560 
        0.0000         1.0000      0.0567829      0.0408492      0.0194088 
     0.0165984      0.0091114      0.0027078      0.0021810         6.0026 
        0.0000         2.6837        64.7283       153.0979        29.6725 
        3.0000         7.0000       0.345340         1.0000         0.2479 
        2.0000       0.090857       0.147639        45.7499        32.3501 
        6.0000         1.0000         1.0000        10.9704         0.3962 
        0.9288
    3207.25800 
        0.0000         1.0000      0.0670188      0.0436575      0.0192539 
     0.0140113      0.0098585      0.0013363      0.0021843         5.9555 
        0.0000         2.6214        72.3224       155.7592        29.4342 
        3.0000         7.0000       0.362050         1.0000         0.2716 
        2.0000       0.090302       0.157318        44.1805        31.2403 
        6.0000         1.0000         1.0000         9.9406         0.3768 
        0.9157
    3207.41040 
        0.0000         1.0000      0.0778655      0.0453268      0.0195400 
     0.0125330      0.0118963      0.0045844      0.0049231         5.8989 
        0.0000         2.6045        78.1011       157.8718        27.0229 
        3.0000         7.0000       0.381360         1.0000         0.3208 
        2.0000       0.098804       0.176667        46.2210        32.6832 
        6.0000         1.0000         1.0000         9.2847         0.3437 
        0.8437
    3207.56280 
        0.0000         1.0000      0.0841940      0.0459909      0.0223358 
     0.0146056      0.0127604      0.0093678      0.0060065         5.9084 
        0.0000         2.5896        81.5691       160.7663        27.0444 
        3.0000         6.0000       0.402470         1.0000         0.3703 
        1.0000       0.111067       0.195261        52.4822        52.4822 
        6.0000         1.0000         1.0000         9.3369         0.3176 
        0.7612
    3207.71520 
        0.0000         1.0000      0.0843477      0.0469701      0.0257332 
     0.0161358      0.0128595      0.0149755      0.0063455         5.9272 
        0.0000         2.5889        83.9826       165.3980        24.4846 
        3.0000         6.0000       0.427410         1.0000         0.4037 
        1.0000       0.123020       0.207368        58.0300        58.0300 
        6.0000         1.0000         1.0000         9.8179         0.3028 
        0.6989
    3207.86760 
        0.0000         1.0000      0.0791296      0.0479226      0.0278124 
     0.0165492      0.0125277      0.0182506      0.0065985         5.9555 
        0.0000         2.5853        85.7959       171.0556        23.9231 
        3.0000         6.0000       0.437850         1.0000         0.4077 
        1.0000       0.129661       0.208792        60.4293        60.4293 
        6.0000         1.0000         1.0000        10.6843         0.3012 
        0.6654
    3208.02000 
        0.0000         1.0000      0.0718016      0.0468443      0.0266428 
     0.0187904      0.0120241      0.0135910      0.0071719         5.9366 
        0.0000         2.5841        87.0018       175.0107        21.7290 
        3.0000         6.0000       0.456460         1.0000         0.3747 
        1.0000       0.125064       0.196868        59.7440        59.7440 
        6.0000         1.0000         1.0000        11.4242         0.3155 
        0.6825
    3208.17240 
        0.0000         1.0000      0.0692347      0.0423747      0.0225667 
     0.0186591      0.0107713      0.0113912      0.0099515         5.8989 
        0.0000         2.5854        87.5797       175.1281        20.0102 
        3.0000         6.0000       0.457780         1.0000         0.3426 
        1.0000       0.115714       0.184949        55.0111        55.0111 
        6.0000         1.0000         1.0000        12.2429         0.3315 
        0.7017
    3208.32480 
        0.0000         1.0000      0.0761912      0.0357759      0.0188930 
     0.0202834      0.0081925      0.0099019      0.0125328         5.8895 
        0.0000         2.5877        87.6391       172.7103        15.3370 
        3.0000         6.0000       0.451000         1.0000         0.3341 
        1.0000       0.105579       0.181773        51.7233        51.7233 
        6.0000         1.0000         1.0000        12.7705         0.3361 
        0.6991
    3208.47720 
        0.0000         1.0000      0.0879301      0.0272742      0.0157313 
     0.0214122      0.0054338      0.0114970      0.0129607         5.9084 
        0.0000         2.5912        87.0013       168.5537        14.7937 
        3.0000         6.0000       0.446320         1.0000         0.3354 
        1.0000       0.094309       0.182241        48.7077        48.7077 
        6.0000         1.0000         1.0000        13.1180         0.3354 
        0.6880
    3208.62960 
        0.0000         1.0000      0.0974178      0.0188181      0.0132517 
     0.0207238      0.0032199      0.0146192      0.0108881         5.8989 
        0.0000         2.6044        85.1230       163.4956        16.0155 
        3.0000         7.0000       0.448410         1.0000         0.3267 
        2.0000       0.081521       0.178938        44.7159        31.6189 
        6.0000         1.0000         1.0000        13.2897         0.3403 
        0.6961
    3208.78200 
        0.0000         1.0000      0.0953278      0.0140780      0.0116850 
     0.0178266      0.0018542      0.0137803      0.0075754         5.8895 
        0.0000         2.6283        81.9160       156.6989        17.0159 
        3.0000         7.0000       0.443030         1.0000         0.2835 
        2.0000       0.066799       0.162124        38.4238        27.1697 
        7.0000         1.0000         2.0000        13.0950         0.3679 
        0.7740
    3208.93440 
        0.0000         1.0000      0.0802923      0.0135526      0.0112687 
     0.0091256      0.0035637      0.0131921      0.0033735         5.9084 
        0.0000         2.6549        77.5104       150.7101        17.0164 
        3.0000         7.0000       0.431420         1.0000         0.2165 
        2.0000       0.054076       0.134367        29.0451        20.5380 
        7.0000         1.0000         2.0000        12.6480         0.4268 
        0.9502
    3209.08680 
        0.0000         1.0000      0.0676315      0.0171525      0.0097380 
     0.0028799      0.0040014      0.0115670      0.0024543         5.9461 
        0.0000         2.6843        72.8304       145.3161        15.9030 
        3.0000         7.0000       0.416640         1.0000         0.1741 
        2.0000       0.047793       0.115423        21.6511        15.3097 
        7.0000         1.0000         2.0000        12.1549         0.4813 
        1.0000
    3209.23920 
        0.0000         1.0000      0.0586308      0.0219470      0.0099807 
     0.0000998      0.0032132      0.0104162      0.0025325         5.9555 
        0.0000         2.7220        69.2068       139.2388        16.3155 
        3.0000         7.0000       0.394550         1.0000         0.1558 
        2.0000       0.048189       0.106820        18.7152        13.2337 
        7.0000         1.0000         2.0000        11.9184         0.5117 
        1.0000
    3209.39160 
        0.0000         1.0000      0.0539626      0.0265357      0.0125718 
     0.0002253      0.0025255      0.0088063      0.0030325         5.9932 
        0.0000         2.7596        66.9549       132.4658        18.1840 
        3.0000         8.0000       0.351040         0.0000         0.1576 
        3.0000       0.053697       0.107661        20.2341        11.6822 
        7.0000         1.0000         2.0000        11.5886         0.5086 
        1.0000
    3209.54400 
        0.0000         1.0000      0.0536854      0.0310488      0.0157726 
     0.0011266      0.0045456      0.0033589      0.0050879         6.0121 
        0.0000         2.7686        65.5857       126.1694        21.7240 
        3.0000         8.0000       0.331360         0.0000         0.1724 
        3.0000       0.060940       0.114623        23.7280        13.6993 
        7.0000         1.0000         2.0000        11.2350         0.4840 
        1.0000
