~Version Information Block
VERS .                  2.0:  CWLS LOG ASCII STANDARD - VERSION 2.0
WRAP .                  YES:  Multiple lines per depth step
~Well Information Block
#MNEM.UNIT        Data Type   Information
#---------- ----------------  -----------
STRT .M          2888.43720:  START DEPTH
STOP .M          3843.68040:  STOP DEPTH
STEP .M             0.15240:  STEP
NULL .              -999.25:  NULL VALUE
COMP .                     :  COMPANY
WELL .       RAAG-99-02-105:  WELL
FLD  .                     :  FIELD
LOC  .                     :  LOCATION
CTRY .                     :  COUNTRY
STAT .                     :  STATE
CNTY .                     :  COUNTY
SRVC .                     :  SERVICE COMPANY
DATE .                     :  DATE
API  .                     :  API NUMBER
UWI  .                     :  UNIQUE WELL ID
~Curve Information Block
#MNEM.UNIT         API CODE   Curve Description
#---------- ----------------  -----------------
DEPTH.M                    :  
BADHOLE.NONE                 :  Badhole
BAS  .NONE                 :  Basalt Flag, Basalt = 1 Felsic = 2
BIN1 .V/V                  :  Magnetic Resonance Bin Porosity 1
BIN2 .V/V                  :  Magnetic Resonance Bin Porosity 2
BIN3 .V/V                  :  Magnetic Resonance Bin Porosity 3
BIN4 .V/V                  :  Magnetic Resonance Bin Porosity 4
BIN5 .V/V                  :  Magnetic Resonance Bin Porosity 5
BIN6 .V/V                  :  Magnetic Resonance Bin Porosity 6
BIN7 .V/V                  :  Magnetic Resonance Bin Porosity 7
CAL  .IN                   :  (HDRS-H)                (1in)                   Caliper
CONDUCTFLG.NONE                 :  Conductivity Flag 0 = Low, 1 = High & 2 = Very High
DEN  .G/C3                 :  (HDRS-H)                (2in)                   Standard Resolution Formation Density
DTCO .US/F                 :  Compressional slowness
DTSM .US/F                 :  Fast Shear Slowness
GR   .GAPI                 :  (EDTC-B)                (6in)                   Calibrated Gamma Ray
LITHCODE.NONE                 :  Broad Lithology based on interval
LITHFAC.NONE                 :  Lithofacies
NEU  .V/V                  :  (HGNS-H)                (6in)                   Thermal Neutron Porosity (Ratio Method) in Selected Lithology
PAY  .NONE                 :  Pay flag
PERM .MD                   :  Permeability
PETROFAC.NONE                 :  Petrophysical Facies
PHIE .V/V                  :  Free Fluid Volume using 3-ms Cutoff
PHIT .V/V                  :  Corrected NMR Porosity
RQ   .NONE                 :  Rock Quality
RQD  .NONE                 :  Rock Quality normalised
RQLITHFAC.NONE                 :  Lithofacies using Rock Quality from NMR data
RQPAY.NONE                 :  Pay flag using Rock Quality from NMR data
RQPETROFAC.NONE                 :  Petrophysical facies using Rock Quality from NMR data
RT   .OHMM                 :  (AIT-M)                 (3in)                   Array Induction Four Foot Resistivity A90
SW   .V/V                  :  Water Saturation
SW_RES.V/V                  :  Water Saturation_RES
~Parameter Information Block
#MNEM.UNIT            Value   Description
#---------- ----------------  -----------
ALPHA.                 0.98:  Biot's Constant
CALIB_SHMINPZS.                 6800:  Calibration Factor for processing zones
EXT_FACT.                1e-06:  Extension Factor
PAYSUMMARY.^SPECS/PAYSUM rdg-newwells (2):  Pay summary specification.
PR_FAC.                  0.9:  Poisson's ratio factor
PR_MAX.                  0.4:  Maximum Poisson's ratio
PR_MIN.                  0.1:  Minimum Poisson's ratio
TECT_FACT.                 1.05:  Techtonic Factor
YM_MAX.                    8:  Maximum Youngs' Modulus
YM_MIN.                    1:  Minimum Youngs' Modulus
PROJECT.          RDG_13Jul21:  
SET  .              V4MODEL:  
~Other Information Block
~Ascii Log Data
# ...
    3269.28480 
        0.0000         1.0000      0.0722351      0.0126517      0.0024446 
     0.0000000      0.0000000      0.0000000      0.0000000         5.9649 
        1.0000         2.7438        71.8687       137.2418        20.9000 
        3.0000         8.0000       0.402560         0.0000         0.0006 
        3.0000       0.015096       0.087332         7.6089         4.3930 
        9.0000         0.0000         4.0000         2.4911         0.6500 
        1.0000
    3269.43720 
        0.0000         1.0000      0.0661445      0.0113727      0.0011940 
     0.0000000      0.0000000      0.0000000      0.0000000         5.9744 
        1.0000         2.7416        72.8866       132.4027        22.4415 
        3.0000         8.0000       0.400630         0.0000         0.0005 
        3.0000       0.012567       0.078711         6.2983         3.6363 
        9.0000         0.0000         4.0000         2.7531         0.6515 
        1.0000
    3269.58960 
        0.0000         1.0000      0.0625726      0.0061454      0.0004523 
     0.0000000      0.0000000      0.0000000      0.0000000         5.9744 
        1.0000         2.7333        73.1233       126.8321        24.4403 
        3.0000         8.0000       0.399590         0.0000         0.0004 
        3.0000       0.006598       0.069170         4.6292         2.6727 
        9.0000         0.0000         4.0000         3.1160         0.7216 
        1.0000
    3269.74200 
        0.0000         1.0000      0.0629168      0.0013277      0.0000000 
     0.0000000      0.0000000      0.0000000      0.0000000         5.9461 
        1.0000         2.7280        71.9877       122.1042        29.0897 
        3.0000         8.0000       0.380480         0.0000         0.0004 
        3.0000       0.001328       0.064245         3.4115         1.9696 
        9.0000         0.0000         4.0000         3.5931         0.7650 
        1.0000
    3269.89440 
        0.0000         1.0000      0.0655655      0.0003372      0.0000000 
     0.0000000      0.0000000      0.0000000      0.0000000         5.9579 
        0.0000         2.7461        70.0778       118.7219        31.0204 
        3.0000         7.0000       0.361650         1.0000         0.0004 
        2.0000       0.000337       0.065903         3.3458         2.3658 
        9.0000         0.0000         4.0000         4.3692         0.7498 
        1.0000
    3270.04680 
        0.0000         1.0000      0.0679139      0.0000359      0.0000000 
     0.0000000      0.0000000      0.0000000      0.0000000         5.9366 
        0.0000         2.7723        67.9150       116.8189        32.8234 
        3.0000         8.0000       0.353300         0.0000         0.0004 
        3.0000       0.000036       0.067950         3.4030         1.9647 
        9.0000         0.0000         4.0000         5.2945         0.7318 
        1.0000
    3270.19920 
        0.0000         1.0000      0.0689889      0.0000000      0.0000000 
     0.0000000      0.0000000      0.0000000      0.0000000         5.9744 
        0.0000         2.7875        65.8583       116.5678        40.8366 
        3.0000         8.0000       0.331610         0.0000         0.0004 
        3.0000       0.000000       0.068989         3.4495         1.9916 
        9.0000         0.0000         4.0000         6.3717         0.7231 
        1.0000
    3270.35160 
        0.0000         1.0000      0.0674605      0.0000529      0.0000017 
     0.0002427      0.0000000      0.0000000      0.0000000         5.9555 
        0.0000         2.8101        64.1843       117.2982        50.5782 
        3.0000         8.0000       0.321170         0.0000         0.0004 
        3.0000       0.000297       0.067758         3.6273         2.0942 
        9.0000         0.0000         4.0000         7.0981         0.7335 
        1.0000
    3270.50400 
        0.0000         1.0000      0.0616419      0.0002644      0.0000081 
     0.0012134      0.0000000      0.0000000      0.0000000         5.9366 
        0.0000         2.8298        62.9353       118.5757        57.6795 
        3.0000         8.0000       0.322750         0.0000         0.0004 
        3.0000       0.001486       0.063128         4.3532         2.5133 
        9.0000         0.0000         4.0000         7.0167         0.7757 
        1.0000
    3270.65640 
        0.0000         1.0000      0.0550209      0.0021530      0.0000049 
     0.0009525      0.0032485      0.0001901      0.0000000         5.9366 
        0.0000         2.8455        62.7848       121.8455        58.2466 
        3.0000         8.0000       0.341140         0.0000         0.0003 
        3.0000       0.006549       0.061570         6.1433         3.5468 
        9.0000         0.0000         4.0000         6.4789         0.7912 
        1.0000
    3270.80880 
        0.0000         1.0000      0.0530780      0.0052497      0.0000016 
     0.0004356      0.0036965      0.0027212      0.0000000         5.9296 
        0.0000         2.8432        64.7833       129.7556        54.7164 
        3.0000         8.0000       0.361470         0.0000         0.0004 
        3.0000       0.012105       0.065183         7.1747         4.1423 
        9.0000         0.0000         4.0000         6.1663         0.7563 
        1.0000
    3270.96120 
        0.0000         1.0000      0.0517360      0.0097402      0.0000000 
     0.0001208      0.0024018      0.0033947      0.0000000         5.9744 
        0.0000         2.8353        67.4518       137.9307        47.0429 
        3.0000         8.0000       0.376740         0.0000         0.0004 
        3.0000       0.015658       0.067394         7.1151         4.1079 
        9.0000         0.0000         4.0000         5.8086         0.7366 
        1.0000
    3271.11360 
        0.0000         1.0000      0.0483556      0.0147750      0.0000480 
     0.0000892      0.0008388      0.0015466      0.0000000         5.9838 
        0.0000         2.8365        68.3821       144.9233        35.2898 
        3.0000         8.0000       0.384850         0.0000         0.0004 
        3.0000       0.017298       0.065653         6.4580         3.7285 
        9.0000         0.0000         4.0000         5.9469         0.7520 
        1.0000
    3271.26600 
        0.0000         1.0000      0.0417355      0.0184695      0.0002400 
     0.0000441      0.0008986      0.0000473      0.0000000         6.0026 
        0.0000         2.8470        68.1568       148.5823        24.7146 
        3.0000         8.0000       0.389720         0.0000         0.0003 
        3.0000       0.019700       0.061435         6.5222         3.7656 
        9.0000         0.0000         4.0000         6.2159         0.7926 
        1.0000
    3271.41840 
        0.0000         1.0000      0.0445953      0.0230539      0.0014653 
     0.0000092      0.0025225      0.0012322      0.0000000         6.0074 
        0.0000         2.8466        68.1268       150.0030        23.2281 
        3.0000         8.0000       0.391480         0.0000         0.0043 
        3.0000       0.028283       0.072878         9.6121         5.5496 
        8.0000         0.0000         3.0000         6.6329         0.6924 
        1.0000
    3271.57080 
        0.0000         1.0000      0.0531353      0.0249976      0.0061848 
     0.0002202      0.0041244      0.0016920      0.0000000         6.0403 
        0.0000         2.8191        68.6242       150.4446        23.4231 
        3.0000         8.0000       0.398960         0.0000         0.0059 
        3.0000       0.037219       0.090354        14.5695         8.4117 
        8.0000         0.0000         3.0000         7.2964         0.6500 
        1.0000
    3271.72320 
        0.0000         1.0000      0.0628601      0.0248968      0.0108643 
     0.0006312      0.0048733      0.0019718      0.0000000         6.0498 
        0.0000         2.7819        69.5439       150.3132        24.6810 
        3.0000         8.0000       0.399910         0.0000         0.1543 
        3.0000       0.043237       0.106098        18.7877        10.8471 
        7.0000         1.0000         2.0000         8.1268         0.5145 
        1.0000
