~Version Information Block
VERS .                  2.0:  CWLS LOG ASCII STANDARD - VERSION 2.0
WRAP .                  YES:  Multiple lines per depth step
~Well Information Block
#MNEM.UNIT        Data Type   Information
#---------- ----------------  -----------
STRT .M          2888.43720:  START DEPTH
STOP .M          3843.68040:  STOP DEPTH
STEP .M             0.15240:  STEP
NULL .              -999.25:  NULL VALUE
COMP .                     :  COMPANY
WELL .       RAAG-99-02-105:  WELL
FLD  .                     :  FIELD
LOC  .                     :  LOCATION
CTRY .                     :  COUNTRY
STAT .                     :  STATE
CNTY .                     :  COUNTY
SRVC .                     :  SERVICE COMPANY
DATE .                     :  DATE
API  .                     :  API NUMBER
UWI  .                     :  UNIQUE WELL ID
~Curve Information Block
#MNEM.UNIT         API CODE   Curve Description
#---------- ----------------  -----------------
DEPTH.M                    :  
BADHOLE.NONE                 :  Badhole
BAS  .NONE                 :  Basalt Flag, Basalt = 1 Felsic = 2
BIN1 .V/V                  :  Magnetic Resonance Bin Porosity 1
BIN2 .V/V                  :  Magnetic Resonance Bin Porosity 2
BIN3 .V/V                  :  Magnetic Resonance Bin Porosity 3
BIN4 .V/V                  :  Magnetic Resonance Bin Porosity 4
BIN5 .V/V                  :  Magnetic Resonance Bin Porosity 5
BIN6 .V/V                  :  Magnetic Resonance Bin Porosity 6
BIN7 .V/V                  :  Magnetic Resonance Bin Porosity 7
CAL  .IN                   :  (HDRS-H)                (1in)                   Caliper
CONDUCTFLG.NONE                 :  Conductivity Flag 0 = Low, 1 = High & 2 = Very High
DEN  .G/C3                 :  (HDRS-H)                (2in)                   Standard Resolution Formation Density
DTCO .US/F                 :  Compressional slowness
DTSM .US/F                 :  Fast Shear Slowness
GR   .GAPI                 :  (EDTC-B)                (6in)                   Calibrated Gamma Ray
LITHCODE.NONE                 :  Broad Lithology based on interval
LITHFAC.NONE                 :  Lithofacies
NEU  .V/V                  :  (HGNS-H)                (6in)                   Thermal Neutron Porosity (Ratio Method) in Selected Lithology
PAY  .NONE                 :  Pay flag
PERM .MD                   :  Permeability
PETROFAC.NONE                 :  Petrophysical Facies
PHIE .V/V                  :  Free Fluid Volume using 3-ms Cutoff
PHIT .V/V                  :  Corrected NMR Porosity
RQ   .NONE                 :  Rock Quality
RQD  .NONE                 :  Rock Quality normalised
RQLITHFAC.NONE                 :  Lithofacies using Rock Quality from NMR data
RQPAY.NONE                 :  Pay flag using Rock Quality from NMR data
RQPETROFAC.NONE                 :  Petrophysical facies using Rock Quality from NMR data
RT   .OHMM                 :  (AIT-M)                 (3in)                   Array Induction Four Foot Resistivity A90
SW   .V/V                  :  Water Saturation
SW_RES.V/V                  :  Water Saturation_RES
~Parameter Information Block
#MNEM.UNIT            Value   Description
#---------- ----------------  -----------
ALPHA.                 0.98:  Biot's Constant
CALIB_SHMINPZS.                 6800:  Calibration Factor for processing zones
EXT_FACT.                1e-06:  Extension Factor
PAYSUMMARY.^SPECS/PAYSUM rdg-newwells (2):  Pay summary specification.
PR_FAC.                  0.9:  Poisson's ratio factor
PR_MAX.                  0.4:  Maximum Poisson's ratio
PR_MIN.                  0.1:  Minimum Poisson's ratio
TECT_FACT.                 1.05:  Techtonic Factor
YM_MAX.                    8:  Maximum Youngs' Modulus
YM_MIN.                    1:  Minimum Youngs' Modulus
PROJECT.          RDG_13Jul21:  
SET  .              V4MODEL:  
~Other Information Block
~Ascii Log Data
# ...
    3634.58760 
        0.0000         2.0000      0.0040485      0.0046769      0.0046020 
     0.0013993      0.0004274      0.0015730      0.0001383         6.0309 
        0.0000         2.7885        53.6903       100.0322        98.0303 
        3.0000        13.0000       0.144420         0.0000         0.0000 
        4.0000       0.012817       0.016865         6.0405         3.0202 
       13.0000         0.0000         4.0000        99.2503         1.0000 
        1.0000
    3634.74000 
        0.0000         2.0000      0.0128902      0.0056721      0.0078113 
     0.0004196      0.0000458      0.0015893      0.0001397         6.0215 
        0.0000         2.7835        53.6384       101.7445       105.7022 
        3.0000        13.0000       0.143920         0.0000         0.0001 
        4.0000       0.015678       0.028568         7.4035         3.7018 
       13.0000         0.0000         4.0000        93.7214         1.0000 
        1.0000
    3634.89240 
        0.0000         2.0000      0.0279234      0.0033606      0.0069130 
     0.0003102      0.0000092      0.0003179      0.0000280         5.9838 
        0.0000         2.7796        53.5888       104.1583       101.9538 
        3.0000        13.0000       0.143500         0.0000         0.0002 
        4.0000       0.010939       0.038862         6.6299         3.3150 
       13.0000         0.0000         4.0000        86.4689         1.0000 
        1.0000
    3635.04480 
        0.0000         2.0000      0.0370173      0.0011594      0.0040912 
     0.0001131      0.0000000      0.0000000      0.0000000         5.9838 
        0.0000         2.7759        53.6664       106.4768        98.7421 
        3.0000        13.0000       0.143410         0.0000         0.0002 
        4.0000       0.005364       0.042381         4.6507         2.3253 
       13.0000         0.0000         4.0000        81.4248         1.0000 
        1.0000
    3635.19720 
        0.0000         2.0000      0.0377574      0.0000463      0.0014159 
     0.0000000      0.0000000      0.0000000      0.0000000         5.9744 
        0.0000         2.7734        53.9903       107.1003        95.6786 
        3.0000        13.0000       0.148160         0.0000         0.0002 
        4.0000       0.001462       0.039220         2.7467         1.3734 
       13.0000         0.0000         4.0000        80.3648         1.0000 
        1.0000
    3635.34960 
        0.0000         2.0000      0.0299266      0.0000000      0.0000000 
     0.0000000      0.0000000      0.0000000      0.0000000         6.0121 
        0.0000         2.7641        54.4307       105.2463        95.1207 
        3.0000        13.0000       0.151570         0.0000         0.0001 
        4.0000       0.000000       0.029927         1.4964         0.7482 
       13.0000         0.0000         4.0000        84.0422         1.0000 
        1.0000
    3635.50200 
        0.0000         2.0000      0.0155056      0.0000000      0.0000000 
     0.0000000      0.0000000      0.0000000      0.0000000         6.0309 
        0.0000         2.7578        54.6237       101.8117        96.7676 
        3.0000        12.0000       0.154150         0.0000         0.0000 
        3.0000       0.000000       0.015506         0.7754         0.4477 
       13.0000         0.0000         4.0000        86.4007         1.0000 
        1.0000
    3635.65440 
        0.0000         2.0000      0.0064515      0.0009402      0.0000011 
     0.0012921      0.0005793      0.0000000      0.0000000         6.0026 
        0.0000         2.7525        54.4592        98.5342        97.2233 
        3.0000        12.0000       0.153520         0.0000         0.0000 
        3.0000       0.002813       0.009264         2.1510         1.2419 
       13.0000         0.0000         4.0000        90.2422         1.0000 
        1.0000
    3635.80680 
        0.0000         2.0000      0.0087054      0.0016239      0.0026356 
     0.0026846      0.0009733      0.0000000      0.0000000         6.0026 
        0.0000         2.7507        54.1540        97.1329       103.4505 
        3.0000        12.0000       0.152080         0.0000         0.0000 
        3.0000       0.007918       0.016623         5.6100         3.2390 
       13.0000         0.0000         4.0000        93.2044         1.0000 
        1.0000
    3635.95920 
        0.0000         2.0000      0.0124249      0.0012037      0.0064788 
     0.0042476      0.0006837      0.0000000      0.0000000         6.0215 
        0.0000         2.7543        54.1873        98.0066       106.9730 
        3.0000        12.0000       0.145960         0.0000         0.0004 
        3.0000       0.012614       0.025039         9.4072         5.4312 
       12.0000         0.0000         3.0000        94.6938         1.0000 
        1.0000
    3636.11160 
        0.0000         2.0000      0.0136313      0.0000998      0.0090661 
     0.0061598      0.0000000      0.0000000      0.0000000         6.0592 
        0.0000         2.7530        54.6673        99.9719       108.2979 
        3.0000        12.0000       0.146350         0.0000         0.0005 
        3.0000       0.015326       0.028957        12.3011         7.1020 
       12.0000         0.0000         3.0000        95.8836         1.0000 
        1.0000
    3636.26400 
        0.0000         2.0000      0.0142090      0.0000000      0.0068926 
     0.0087085      0.0000000      0.0000000      0.0000000         6.0026 
        0.0000         2.7536        55.2619       101.6316       109.2018 
        3.0000        12.0000       0.143610         0.0000         0.0005 
        3.0000       0.015601       0.029810        13.5546         7.8257 
       12.0000         0.0000         3.0000        97.7161         1.0000 
        1.0000
    3636.41640 
        0.0000         2.0000      0.0120607      0.0000000      0.0071983 
     0.0052396      0.0000000      0.0000000      0.0000000         5.9838 
        0.0000         2.7447        55.4900       102.8414       107.9646 
        3.0000        12.0000       0.145160         0.0000         0.0004 
        3.0000       0.012438       0.024499        10.1617         5.8668 
       12.0000         0.0000         3.0000       100.0751         1.0000 
        1.0000
    3636.56880 
        0.0000         2.0000      0.0068371      0.0000000      0.0054427 
     0.0052325      0.0000000      0.0000000      0.0000000         6.0003 
        0.0000         2.7394        55.4116       104.3176       107.9930 
        3.0000        12.0000       0.143060         0.0000         0.0002 
        3.0000       0.010675       0.017512         8.8400         5.1038 
       12.0000         0.0000         3.0000       103.1578         1.0000 
        1.0000
    3636.72120 
        0.0000         2.0000      0.0051390      0.0000000      0.0036776 
     0.0050811      0.0000000      0.0000000      0.0000000         5.9838 
        0.0000         2.7323        55.2676       105.8697       111.2807 
        3.0000        12.0000       0.146310         0.0000         0.0000 
        3.0000       0.008759       0.013898         7.5447         4.3559 
       13.0000         0.0000         4.0000       106.7968         1.0000 
        1.0000
    3636.87360 
        0.0000         2.0000      0.0075133      0.0002975      0.0023777 
     0.0032345      0.0000000      0.0000000      0.0000000         5.9932 
        0.0000         2.7307        55.1267       106.4784       111.0201 
        3.0000        12.0000       0.144540         0.0000         0.0000 
        3.0000       0.005910       0.013423         5.0963         2.9424 
       13.0000         0.0000         4.0000       110.9757         1.0000 
        1.0000
    3637.02600 
        0.0000         2.0000      0.0084531      0.0014874      0.0004406 
     0.0001966      0.0000000      0.0000000      0.0000000         5.9838 
        0.0000         2.7348        54.9734       105.1873       109.9907 
        3.0000        12.0000       0.145370         0.0000         0.0000 
        3.0000       0.002125       0.010578         1.1811         0.6819 
       13.0000         0.0000         4.0000       113.7380         1.0000 
        1.0000
