~Version Information Block
VERS .                  2.0:  CWLS LOG ASCII STANDARD - VERSION 2.0
WRAP .                  YES:  Multiple lines per depth step
~Well Information Block
#MNEM.UNIT        Data Type   Information
#---------- ----------------  -----------
STRT .M          2888.43720:  START DEPTH
STOP .M          3843.68040:  STOP DEPTH
STEP .M             0.15240:  STEP
NULL .              -999.25:  NULL VALUE
COMP .                     :  COMPANY
WELL .       RAAG-99-02-105:  WELL
FLD  .                     :  FIELD
LOC  .                     :  LOCATION
CTRY .                     :  COUNTRY
STAT .                     :  STATE
CNTY .                     :  COUNTY
SRVC .                     :  SERVICE COMPANY
DATE .                     :  DATE
API  .                     :  API NUMBER
UWI  .                     :  UNIQUE WELL ID
~Curve Information Block
#MNEM.UNIT         API CODE   Curve Description
#---------- ----------------  -----------------
DEPTH.M                    :  
BADHOLE.NONE                 :  Badhole
BAS  .NONE                 :  Basalt Flag, Basalt = 1 Felsic = 2
BIN1 .V/V                  :  Magnetic Resonance Bin Porosity 1
BIN2 .V/V                  :  Magnetic Resonance Bin Porosity 2
BIN3 .V/V                  :  Magnetic Resonance Bin Porosity 3
BIN4 .V/V                  :  Magnetic Resonance Bin Porosity 4
BIN5 .V/V                  :  Magnetic Resonance Bin Porosity 5
BIN6 .V/V                  :  Magnetic Resonance Bin Porosity 6
BIN7 .V/V                  :  Magnetic Resonance Bin Porosity 7
CAL  .IN                   :  (HDRS-H)                (1in)                   Caliper
CONDUCTFLG.NONE                 :  Conductivity Flag 0 = Low, 1 = High & 2 = Very High
DEN  .G/C3                 :  (HDRS-H)                (2in)                   Standard Resolution Formation Density
DTCO .US/F                 :  Compressional slowness
DTSM .US/F                 :  Fast Shear Slowness
GR   .GAPI                 :  (EDTC-B)                (6in)                   Calibrated Gamma Ray
LITHCODE.NONE                 :  Broad Lithology based on interval
LITHFAC.NONE                 :  Lithofacies
NEU  .V/V                  :  (HGNS-H)                (6in)                   Thermal Neutron Porosity (Ratio Method) in Selected Lithology
PAY  .NONE                 :  Pay flag
PERM .MD                   :  Permeability
PETROFAC.NONE                 :  Petrophysical Facies
PHIE .V/V                  :  Free Fluid Volume using 3-ms Cutoff
PHIT .V/V                  :  Corrected NMR Porosity
RQ   .NONE                 :  Rock Quality
RQD  .NONE                 :  Rock Quality normalised
RQLITHFAC.NONE                 :  Lithofacies using Rock Quality from NMR data
RQPAY.NONE                 :  Pay flag using Rock Quality from NMR data
RQPETROFAC.NONE                 :  Petrophysical facies using Rock Quality from NMR data
RT   .OHMM                 :  (AIT-M)                 (3in)                   Array Induction Four Foot Resistivity A90
SW   .V/V                  :  Water Saturation
SW_RES.V/V                  :  Water Saturation_RES
~Parameter Information Block
#MNEM.UNIT            Value   Description
#---------- ----------------  -----------
ALPHA.                 0.98:  Biot's Constant
CALIB_SHMINPZS.                 6800:  Calibration Factor for processing zones
EXT_FACT.                1e-06:  Extension Factor
PAYSUMMARY.^SPECS/PAYSUM rdg-newwells (2):  Pay summary specification.
PR_FAC.                  0.9:  Poisson's ratio factor
PR_MAX.                  0.4:  Maximum Poisson's ratio
PR_MIN.                  0.1:  Minimum Poisson's ratio
TECT_FACT.                 1.05:  Techtonic Factor
YM_MAX.                    8:  Maximum Youngs' Modulus
YM_MIN.                    1:  Minimum Youngs' Modulus
PROJECT.          RDG_13Jul21:  
SET  .              V4MODEL:  
~Other Information Block
~Ascii Log Data
# ...
    3756.35520 
        0.0000         1.0000      0.0314739      0.0213491      0.0249252 
     0.0251292      0.0085357      0.0042833      0.0057597         5.8707 
        0.0000         2.3942        76.9037       118.2514        88.7750 
        3.0000         6.0000       0.371940         1.0000         0.1873 
        1.0000       0.089982       0.121454        52.9102        52.9102 
        6.0000         1.0000         1.0000       171.4851         0.4623 
        0.2690
    3756.50760 
        0.0000         1.0000      0.0408536      0.0271684      0.0259856 
     0.0253395      0.0094736      0.0028461      0.0070546         5.8942 
        0.0000         2.4472        72.1296       116.0306        88.1198 
        3.0000         6.0000       0.375670         1.0000         0.2267 
        1.0000       0.097868       0.138721        55.6506        55.6506 
        6.0000         1.0000         1.0000       144.9563         0.4162 
        0.2562
    3756.66000 
        0.0000         1.0000      0.0470110      0.0378963      0.0273864 
     0.0258774      0.0115849      0.0012038      0.0085658         5.8612 
        0.0000         2.4454        67.9162       114.6606        88.4599 
        3.0000         6.0000       0.363760         1.0000         0.2770 
        1.0000       0.112515       0.159527        60.4077        60.4077 
        6.0000         1.0000         1.0000       150.3662         0.3726 
        0.2187
    3756.81240 
        0.0000         2.0000      0.0436658      0.0497823      0.0311566 
     0.0254440      0.0130169      0.0017028      0.0095222         5.8895 
        0.0000         2.4021        66.0806       116.7838        91.8659 
        3.0000        10.0000       0.348740         1.0000         0.4879 
        1.0000       0.130625       0.174289        65.5509        65.5509 
       10.0000         1.0000         1.0000       168.5434         0.3382 
        0.1891
    3756.96480 
        0.0000         2.0000      0.0352887      0.0570884      0.0354720 
     0.0256454      0.0134533      0.0034153      0.0086113         5.9178 
        0.0000         2.3842        66.7716       122.6988        96.1115 
        3.0000        10.0000       0.354190         1.0000         0.5091 
        1.0000       0.143686       0.178972        70.0684        70.0684 
       10.0000         1.0000         1.0000       177.7677         0.3311 
        0.1793
    3757.11720 
        0.0000         2.0000      0.0286273      0.0587957      0.0387931 
     0.0274455      0.0126697      0.0059436      0.0070589         5.9272 
        0.0000         2.3992        66.8666       133.3991       100.6865 
        3.0000        10.0000       0.375360         1.0000         0.5107 
        1.0000       0.150707       0.179332        74.0026        74.0026 
       10.0000         1.0000         1.0000       212.0958         0.3306 
        0.1638
    3757.26960 
        0.0000         2.0000      0.0278608      0.0560660      0.0405779 
     0.0302224      0.0106352      0.0096220      0.0052870         5.9461 
        0.0000         2.4359        63.5366       144.1844       105.3170 
        3.0000        11.0000       0.392650         1.0000         0.5150 
        2.0000       0.152411       0.180269        76.9719        54.4273 
       10.0000         1.0000         1.0000       257.4904         0.3292 
        0.1479
    3757.42200 
        0.0000         2.0000      0.0346002      0.0522412      0.0412828 
     0.0317687      0.0075118      0.0155175      0.0029134         5.9649 
        0.0000         2.4506        59.3949       144.3286       110.5828 
        3.0000        11.0000       0.395220         1.0000         0.5407 
        2.0000       0.151235       0.185833        78.1703        55.2747 
       10.0000         1.0000         1.0000       279.7112         0.3212 
        0.1377
    3757.57440 
        0.0000         2.0000      0.0412763      0.0500980      0.0415987 
     0.0342500      0.0051881      0.0172255      0.0051236         5.9272 
        0.0000         2.4309        57.1428       139.2496       111.8464 
        3.0000        11.0000       0.392310         1.0000         0.5830 
        2.0000       0.153484       0.194757        80.0855        56.6290 
       10.0000         1.0000         1.0000       304.6138         0.3093 
        0.1259
    3757.72680 
        0.0000         2.0000      0.0452846      0.0488192      0.0429854 
     0.0356272      0.0040727      0.0171814      0.0095227         5.9366 
        0.0000         2.3846        56.6408       137.4595       116.0627 
        3.0000        10.0000       0.401670         1.0000         0.6254 
        1.0000       0.158209       0.203490        81.9968        81.9968 
       10.0000         1.0000         1.0000       298.2916         0.2986 
        0.1217
    3757.87920 
        0.0000         2.0000      0.0459380      0.0496328      0.0455391 
     0.0363317      0.0043786      0.0160534      0.0137796         5.9649 
        0.0000         2.3250        57.4486       144.7982       112.8464 
        3.0000        10.0000       0.417600         1.0000         0.6661 
        1.0000       0.165715       0.211651        84.6998        84.6998 
       10.0000         1.0000         1.0000       271.3749         0.2893 
        0.1227
    3758.03160 
        0.0000         2.0000      0.0430660      0.0537559      0.0488297 
     0.0369334      0.0061998      0.0142546      0.0161847         5.9296 
        0.0000         2.2950        60.7496       155.7784       116.3533 
        3.0000        10.0000       0.448620         1.0000         0.7047 
        1.0000       0.176158       0.219222        88.7504        88.7504 
       10.0000         1.0000         1.0000       228.9789         0.2812 
        0.1290
    3758.18400 
        0.0000         2.0000      0.0370149      0.0623943      0.0519015 
     0.0381404      0.0095105      0.0119420      0.0156495         5.9296 
        0.0000         2.2966        66.6077       162.5870       118.5224 
        3.0000        10.0000       0.481770         1.0000         0.7428 
        1.0000       0.189538       0.226553        94.4648        94.4648 
       10.0000         1.0000         1.0000       189.1695         0.2739 
        0.1373
    3758.33640 
        0.0000         2.0000      0.0295505      0.0739413      0.0524480 
     0.0387636      0.0136943      0.0098144      0.0140293         5.9178 
        0.0000         2.3147        72.1400       163.6511       123.1401 
        3.0000        10.0000       0.479500         1.0000         0.7730 
        1.0000       0.202691       0.232241        99.0621        99.0621 
       10.0000         1.0000         1.0000       160.9680         0.2684 
        0.1452
    3758.48880 
        0.0000         2.0000      0.0222316      0.0789845      0.0536313 
     0.0408089      0.0160455      0.0073617      0.0120942         5.8895 
        0.0000         2.3242        76.2840       159.7715       122.2027 
        3.0000        10.0000       0.449680         1.0000         0.7672 
        1.0000       0.208926       0.231159       102.9414       102.9414 
       10.0000         1.0000         1.0000       124.3451         0.2695 
        0.1660
    3758.64120 
        0.0000         2.0000      0.0191108      0.0758148      0.0527311 
     0.0427910      0.0158183      0.0056484      0.0114225         5.9225 
        0.0000         2.3213        79.9557       155.3183       121.2232 
        3.0000        10.0000       0.436480         1.0000         0.7260 
        1.0000       0.204226       0.223339       102.8759       102.8759 
       10.0000         1.0000         1.0000       114.0840         0.2770 
        0.1793
    3758.79360 
        0.0000         2.0000      0.0211497      0.0668000      0.0502379 
     0.0445213      0.0136453      0.0055403      0.0117871         5.8914 
        0.0000         2.3217        84.2814       152.6013       118.4859 
        3.0000        10.0000       0.427150         1.0000         0.6764 
        1.0000       0.192532       0.213683       100.1095       100.1095 
       10.0000         1.0000         1.0000       115.5003         0.2871 
        0.1863
