~Version Information Block
VERS .                  2.0:  CWLS LOG ASCII STANDARD - VERSION 2.0
WRAP .                  YES:  Multiple lines per depth step
~Well Information Block
#MNEM.UNIT        Data Type   Information
#---------- ----------------  -----------
STRT .M          2888.43720:  START DEPTH
STOP .M          3843.68040:  STOP DEPTH
STEP .M             0.15240:  STEP
NULL .              -999.25:  NULL VALUE
COMP .                     :  COMPANY
WELL .       RAAG-99-02-105:  WELL
FLD  .                     :  FIELD
LOC  .                     :  LOCATION
CTRY .                     :  COUNTRY
STAT .                     :  STATE
CNTY .                     :  COUNTY
SRVC .                     :  SERVICE COMPANY
DATE .                     :  DATE
API  .                     :  API NUMBER
UWI  .                     :  UNIQUE WELL ID
~Curve Information Block
#MNEM.UNIT         API CODE   Curve Description
#---------- ----------------  -----------------
DEPTH.M                    :  
BADHOLE.NONE                 :  Badhole
BAS  .NONE                 :  Basalt Flag, Basalt = 1 Felsic = 2
BIN1 .V/V                  :  Magnetic Resonance Bin Porosity 1
BIN2 .V/V                  :  Magnetic Resonance Bin Porosity 2
BIN3 .V/V                  :  Magnetic Resonance Bin Porosity 3
BIN4 .V/V                  :  Magnetic Resonance Bin Porosity 4
BIN5 .V/V                  :  Magnetic Resonance Bin Porosity 5
BIN6 .V/V                  :  Magnetic Resonance Bin Porosity 6
BIN7 .V/V                  :  Magnetic Resonance Bin Porosity 7
CAL  .IN                   :  (HDRS-H)                (1in)                   Caliper
CONDUCTFLG.NONE                 :  Conductivity Flag 0 = Low, 1 = High & 2 = Very High
DEN  .G/C3                 :  (HDRS-H)                (2in)                   Standard Resolution Formation Density
DTCO .US/F                 :  Compressional slowness
DTSM .US/F                 :  Fast Shear Slowness
GR   .GAPI                 :  (EDTC-B)                (6in)                   Calibrated Gamma Ray
LITHCODE.NONE                 :  Broad Lithology based on interval
LITHFAC.NONE                 :  Lithofacies
NEU  .V/V                  :  (HGNS-H)                (6in)                   Thermal Neutron Porosity (Ratio Method) in Selected Lithology
PAY  .NONE                 :  Pay flag
PERM .MD                   :  Permeability
PETROFAC.NONE                 :  Petrophysical Facies
PHIE .V/V                  :  Free Fluid Volume using 3-ms Cutoff
PHIT .V/V                  :  Corrected NMR Porosity
RQ   .NONE                 :  Rock Quality
RQD  .NONE                 :  Rock Quality normalised
RQLITHFAC.NONE                 :  Lithofacies using Rock Quality from NMR data
RQPAY.NONE                 :  Pay flag using Rock Quality from NMR data
RQPETROFAC.NONE                 :  Petrophysical facies using Rock Quality from NMR data
RT   .OHMM                 :  (AIT-M)                 (3in)                   Array Induction Four Foot Resistivity A90
SW   .V/V                  :  Water Saturation
SW_RES.V/V                  :  Water Saturation_RES
~Parameter Information Block
#MNEM.UNIT            Value   Description
#---------- ----------------  -----------
ALPHA.                 0.98:  Biot's Constant
CALIB_SHMINPZS.                 6800:  Calibration Factor for processing zones
EXT_FACT.                1e-06:  Extension Factor
PAYSUMMARY.^SPECS/PAYSUM rdg-newwells (2):  Pay summary specification.
PR_FAC.                  0.9:  Poisson's ratio factor
PR_MAX.                  0.4:  Maximum Poisson's ratio
PR_MIN.                  0.1:  Minimum Poisson's ratio
TECT_FACT.                 1.05:  Techtonic Factor
YM_MAX.                    8:  Maximum Youngs' Modulus
YM_MIN.                    1:  Minimum Youngs' Modulus
PROJECT.          RDG_13Jul21:  
SET  .              V4MODEL:  
~Other Information Block
~Ascii Log Data
# ...
    2963.57040 
        0.0000         1.0000      0.0775148      0.0281532      0.0276369 
     0.0183402      0.0017548      0.0024859      0.0001335         5.9366 
        0.0000         2.4560        82.7740       137.6970        75.4227 
        3.0000         6.0000       0.401240         1.0000         0.2683 
        1.0000       0.078505       0.156016        46.2407        46.2407 
        6.0000         1.0000         1.0000         5.2270         0.3792 
        1.0000
    2963.72280 
        0.0000         2.0000      0.0758643      0.0256581      0.0216836 
     0.0188804      0.0017650      0.0012817      0.0000000         5.9649 
        1.0000         2.5023        84.4586       140.4876        97.0442 
        3.0000        12.0000       0.414530         0.0000         0.0568 
        3.0000       0.069269       0.145131        42.2589        24.3982 
       11.0000         1.0000         2.0000         3.9830         0.3920 
        1.0000
    2963.87520 
        0.0000         2.0000      0.0787101      0.0226810      0.0141252 
     0.0144455      0.0026876      0.0003023      0.0000000         5.9366 
        1.0000         2.5375        85.0857       143.3255       130.6662 
        3.0000        12.0000       0.397090         0.0000         0.0494 
        3.0000       0.054242       0.132952        33.0956        19.1077 
       11.0000         1.0000         2.0000         3.2035         0.4206 
        1.0000
    2964.02760 
        0.0000         2.0000      0.0860885      0.0191174      0.0078822 
     0.0065985      0.0035897      0.0000864      0.0000000         5.9555 
        1.0000         2.5492        84.9854       148.2249       165.8308 
        3.0000        12.0000       0.384440         0.0000         0.0438 
        3.0000       0.037274       0.123364        21.6355        12.4913 
       11.0000         1.0000         2.0000         2.7623         0.4468 
        1.0000
    2964.18000 
        0.0000         2.0000      0.0944214      0.0142830      0.0055798 
     0.0035095      0.0007347      0.0000187      0.0000000         5.9649 
        1.0000         2.5465        85.2767       156.5016       185.8783 
        3.0000        12.0000       0.387430         0.0000         0.0041 
        3.0000       0.024126       0.118548        14.8814         8.5918 
       12.0000         0.0000         3.0000         2.5808         0.6500 
        1.0000
    2964.33240 
        0.0000         2.0000      0.1037783      0.0095786      0.0057952 
     0.0033326      0.0001470      0.0000038      0.0000000         5.9461 
        1.0000         2.5498        86.4501       166.9332       193.7990 
        3.0000        12.0000       0.379280         0.0000         0.0043 
        3.0000       0.018857       0.122636        14.0037         8.0850 
       12.0000         0.0000         3.0000         2.5808         0.6500 
        1.0000
    2964.48480 
        0.0000         2.0000      0.1020630      0.0079546      0.0053398 
     0.0042220      0.0000000      0.0000000      0.0000000         5.9461 
        1.0000         2.5508        88.3340       176.2955       175.0109 
        3.0000        12.0000       0.360660         0.0000         0.0042 
        3.0000       0.017517       0.119580        14.1200         8.1522 
       12.0000         0.0000         3.0000         2.7873         0.6500 
        1.0000
    2964.63720 
        0.0000         2.0000      0.0947470      0.0084577      0.0033656 
     0.0054009      0.0000933      0.0000000      0.0000000         5.9084 
        1.0000         2.5500        91.9531       187.3406       150.9722 
        3.0000        12.0000       0.337500         0.0000         0.0038 
        3.0000       0.017318       0.112065        13.9052         8.0282 
       12.0000         0.0000         3.0000         3.2606         0.6500 
        1.0000
    2964.78960 
        0.0000         2.0000      0.0869104      0.0103505      0.0010220 
     0.0064572      0.0005870      0.0000000      0.0000000         5.9225 
        0.0000         2.5344        96.2425       198.3550       130.1047 
        3.0000        11.0000       0.331490         1.0000         0.0341 
        2.0000       0.018417       0.105327        13.8383         9.7851 
       11.0000         1.0000         2.0000         4.1849         0.5074 
        1.0000
    2964.94200 
        0.0000         2.0000      0.0832425      0.0131119      0.0014559 
     0.0073431      0.0020023      0.0000000      0.0000000         5.9366 
        0.0000         2.5136        99.8984       210.1775       118.0158 
        3.0000        11.0000       0.333050         1.0000         0.0350 
        2.0000       0.023913       0.107156        16.2025        11.4569 
       11.0000         1.0000         2.0000         5.7910         0.5004 
        1.0000
    2965.09440 
        0.0000         2.0000      0.0840451      0.0156614      0.0092120 
     0.0086727      0.0039538      0.0000862      0.0000000         5.9084 
        0.0000         2.4925       101.8974       221.5175       107.9504 
        3.0000        11.0000       0.327020         1.0000         0.0428 
        2.0000       0.037586       0.121631        23.9326        16.9229 
       11.0000         1.0000         2.0000         9.0741         0.4519 
        1.0000
    2965.24680 
        0.0000         2.0000      0.0815863      0.0186016      0.0213326 
     0.0101244      0.0042908      0.0017143      0.0003658         5.9084 
        0.0000         2.4774       101.7661       227.4444        90.0540 
        3.0000        11.0000       0.297240         1.0000         0.0524 
        2.0000       0.056429       0.138016        33.8490        23.9348 
       11.0000         1.0000         2.0000        14.9576         0.4082 
        0.8757
    2965.39920 
        0.0000         1.0000      0.0744957      0.0219489      0.0319660 
     0.0105862      0.0042036      0.0034076      0.0003892         5.9272 
        0.0000         2.4698        99.8744       224.1788        84.6673 
        3.0000         6.0000       0.290440         1.0000         0.2464 
        1.0000       0.072502       0.146997        41.4638        41.4638 
        6.0000         1.0000         1.0000        15.6828         0.3975 
        0.8029
    2965.55160 
        0.0000         1.0000      0.0643118      0.0250990      0.0374801 
     0.0101407      0.0047095      0.0043959      0.0000469         5.9084 
        0.0000         2.4647        97.2822       211.9831        83.2693 
        3.0000         6.0000       0.330260         1.0000         0.2444 
        1.0000       0.081872       0.146184        45.0132        45.0132 
        6.0000         1.0000         1.0000        14.1268         0.3993 
        0.8507
    2965.70400 
        0.0000         1.0000      0.0554818      0.0268271      0.0364616 
     0.0100649      0.0066530      0.0046155      0.0000000         5.8707 
        0.0000         2.4599        94.6085       195.0008        85.4432 
        3.0000         6.0000       0.375600         1.0000         0.2299 
        1.0000       0.084622       0.140104        45.4578        45.4578 
        6.0000         1.0000         1.0000         9.7712         0.4129 
        1.0000
    2965.85640 
        0.0000         1.0000      0.0575041      0.0257487      0.0284020 
     0.0114878      0.0065041      0.0055131      0.0000000         5.8895 
        0.0000         2.4665        90.9484       177.3312        87.0977 
        3.0000         6.0000       0.401090         1.0000         0.2184 
        1.0000       0.077656       0.135160        42.1104        42.1104 
        6.0000         1.0000         1.0000         5.8688         0.4248 
        1.0000
    2966.00880 
        0.0000         2.0000      0.0686164      0.0216896      0.0183932 
     0.0119964      0.0056426      0.0046474      0.0000000         5.9178 
        0.0000         2.4876        85.0353       164.8655       109.2042 
        3.0000        11.0000       0.387840         1.0000         0.0482 
        2.0000       0.062369       0.130986        35.5809        25.1595 
       11.0000         1.0000         2.0000         4.0812         0.4257 
        1.0000
