~Version Information Block
VERS .                  2.0:  CWLS LOG ASCII STANDARD - VERSION 2.0
WRAP .                  YES:  Multiple lines per depth step
~Well Information Block
#MNEM.UNIT        Data Type   Information
#---------- ----------------  -----------
STRT .M          2888.43720:  START DEPTH
STOP .M          3843.68040:  STOP DEPTH
STEP .M             0.15240:  STEP
NULL .              -999.25:  NULL VALUE
COMP .                     :  COMPANY
WELL .       RAAG-99-02-105:  WELL
FLD  .                     :  FIELD
LOC  .                     :  LOCATION
CTRY .                     :  COUNTRY
STAT .                     :  STATE
CNTY .                     :  COUNTY
SRVC .                     :  SERVICE COMPANY
DATE .                     :  DATE
API  .                     :  API NUMBER
UWI  .                     :  UNIQUE WELL ID
~Curve Information Block
#MNEM.UNIT         API CODE   Curve Description
#---------- ----------------  -----------------
DEPTH.M                    :  
BADHOLE.NONE                 :  Badhole
BAS  .NONE                 :  Basalt Flag, Basalt = 1 Felsic = 2
BIN1 .V/V                  :  Magnetic Resonance Bin Porosity 1
BIN2 .V/V                  :  Magnetic Resonance Bin Porosity 2
BIN3 .V/V                  :  Magnetic Resonance Bin Porosity 3
BIN4 .V/V                  :  Magnetic Resonance Bin Porosity 4
BIN5 .V/V                  :  Magnetic Resonance Bin Porosity 5
BIN6 .V/V                  :  Magnetic Resonance Bin Porosity 6
BIN7 .V/V                  :  Magnetic Resonance Bin Porosity 7
CAL  .IN                   :  (HDRS-H)                (1in)                   Caliper
CONDUCTFLG.NONE                 :  Conductivity Flag 0 = Low, 1 = High & 2 = Very High
DEN  .G/C3                 :  (HDRS-H)                (2in)                   Standard Resolution Formation Density
DTCO .US/F                 :  Compressional slowness
DTSM .US/F                 :  Fast Shear Slowness
GR   .GAPI                 :  (EDTC-B)                (6in)                   Calibrated Gamma Ray
LITHCODE.NONE                 :  Broad Lithology based on interval
LITHFAC.NONE                 :  Lithofacies
NEU  .V/V                  :  (HGNS-H)                (6in)                   Thermal Neutron Porosity (Ratio Method) in Selected Lithology
PAY  .NONE                 :  Pay flag
PERM .MD                   :  Permeability
PETROFAC.NONE                 :  Petrophysical Facies
PHIE .V/V                  :  Free Fluid Volume using 3-ms Cutoff
PHIT .V/V                  :  Corrected NMR Porosity
RQ   .NONE                 :  Rock Quality
RQD  .NONE                 :  Rock Quality normalised
RQLITHFAC.NONE                 :  Lithofacies using Rock Quality from NMR data
RQPAY.NONE                 :  Pay flag using Rock Quality from NMR data
RQPETROFAC.NONE                 :  Petrophysical facies using Rock Quality from NMR data
RT   .OHMM                 :  (AIT-M)                 (3in)                   Array Induction Four Foot Resistivity A90
SW   .V/V                  :  Water Saturation
SW_RES.V/V                  :  Water Saturation_RES
~Parameter Information Block
#MNEM.UNIT            Value   Description
#---------- ----------------  -----------
ALPHA.                 0.98:  Biot's Constant
CALIB_SHMINPZS.                 6800:  Calibration Factor for processing zones
EXT_FACT.                1e-06:  Extension Factor
PAYSUMMARY.^SPECS/PAYSUM rdg-newwells (2):  Pay summary specification.
PR_FAC.                  0.9:  Poisson's ratio factor
PR_MAX.                  0.4:  Maximum Poisson's ratio
PR_MIN.                  0.1:  Minimum Poisson's ratio
TECT_FACT.                 1.05:  Techtonic Factor
YM_MAX.                    8:  Maximum Youngs' Modulus
YM_MIN.                    1:  Minimum Youngs' Modulus
PROJECT.          RDG_13Jul21:  
SET  .              V4MODEL:  
~Other Information Block
~Ascii Log Data
# ...
    3328.87320 
        0.0000         1.0000      0.0590031      0.0240774      0.0000128 
     0.0000000      0.0000000      0.0000000      0.0000000         5.9932 
        0.0000         2.9165        62.6599       112.5101        52.0957 
        3.0000         9.0000       0.318500         0.0000         0.0005 
        4.0000       0.024090       0.083093         7.7734         3.8867 
        9.0000         0.0000         4.0000        11.7895         0.6500 
        1.0000
    3329.02560 
        0.0000         1.0000      0.0512441      0.0275196      0.0001794 
     0.0000000      0.0000000      0.0000000      0.0001198         6.0026 
        0.0000         2.8949        61.7273       110.6085        52.2710 
        3.0000         9.0000       0.328520         0.0000         0.0005 
        4.0000       0.027819       0.079063         8.1858         4.0929 
        9.0000         0.0000         4.0000        11.4678         0.6500 
        1.0000
    3329.17800 
        0.0000         1.0000      0.0450751      0.0288733      0.0007697 
     0.0000000      0.0000000      0.0000000      0.0005988         6.0121 
        0.0000         2.8749        61.0626       108.0748        55.5794 
        3.0000         8.0000       0.319250         0.0000         0.0005 
        3.0000       0.030242       0.075317         8.5501         4.9364 
        9.0000         0.0000         4.0000        11.6017         0.6746 
        1.0000
    3329.33040 
        0.0000         1.0000      0.0395861      0.0270587      0.0036270 
     0.0000000      0.0000136      0.0009868      0.0041084         6.0309 
        0.0000         2.8683        60.5935       106.2140        52.2259 
        3.0000         8.0000       0.312170         0.0000         0.0045 
        3.0000       0.035795       0.075380        10.2823         5.9365 
        8.0000         0.0000         3.0000        13.1726         0.6742 
        1.0000
    3329.48280 
        0.0000         1.0000      0.0336699      0.0250748      0.0045842 
     0.0000000      0.0006003      0.0064647      0.0021186         5.9744 
        0.0000         2.8677        60.2271       105.5308        53.9150 
        3.0000         8.0000       0.302120         0.0000         0.0042 
        3.0000       0.038843       0.072513        11.9604         6.9054 
        8.0000         0.0000         3.0000        15.9902         0.6952 
        1.0000
    3329.63520 
        0.0000         1.0000      0.0301328      0.0241170      0.0056373 
     0.0001024      0.0036320      0.0087094      0.0006489         5.9744 
        0.0000         2.8282        59.8154       105.9169        54.4129 
        3.0000         8.0000       0.303640         0.0000         0.0043 
        3.0000       0.042847       0.072980        14.6718         8.4708 
        8.0000         0.0000         3.0000        20.2961         0.6916 
        1.0000
    3329.78760 
        0.0000         1.0000      0.0309926      0.0255062      0.0068895 
     0.0007025      0.0086255      0.0056384      0.0011687         6.0026 
        0.0000         2.7618        59.3886       107.0741        62.2283 
        3.0000         8.0000       0.316100         0.0000         0.1020 
        3.0000       0.048531       0.079521        18.4708        10.6641 
        7.0000         1.0000         2.0000        27.7585         0.6462 
        1.0000
    3329.94000 
        0.0000         1.0000      0.0374790      0.0306888      0.0065508 
     0.0024884      0.0127419      0.0008108      0.0005974         6.0074 
        0.0000         2.6949        59.1889       108.8106        66.3180 
        3.0000         7.0000       0.341050         1.0000         0.1245 
        2.0000       0.053878       0.091355        22.3787        15.8241 
        7.0000         1.0000         2.0000        38.8852         0.5791 
        0.7862
    3330.09240 
        0.0000         1.0000      0.0459165      0.0346019      0.0058146 
     0.0055098      0.0072372      0.0001622      0.0025282         6.0215 
        0.0000         2.6758        59.1428       110.8611        66.7094 
        3.0000         7.0000       0.350330         1.0000         0.1453 
        2.0000       0.055854       0.101769        22.8585        16.1634 
        7.0000         1.0000         2.0000        51.1363         0.5317 
        0.6154
    3330.24480 
        0.0000         1.0000      0.0486015      0.0342167      0.0033145 
     0.0056625      0.0071231      0.0000185      0.0012044         6.0121 
        0.0000         2.6845        59.0056       112.6566        60.4752 
        3.0000         7.0000       0.354670         1.0000         0.1420 
        2.0000       0.051540       0.100141        21.3244        15.0786 
        7.0000         1.0000         2.0000        59.3443         0.5385 
        0.5806
    3330.39720 
        0.0000         1.0000      0.0447749      0.0297877      0.0026303 
     0.0044676      0.0069306      0.0000693      0.0000000         6.0074 
        0.0000         2.6985        58.7733       113.4433        57.3691 
        3.0000         7.0000       0.351420         1.0000         0.1192 
        2.0000       0.043886       0.088661        18.4213        13.0258 
        7.0000         1.0000         2.0000        61.0443         0.5930 
        0.6465
    3330.54960 
        0.0000         1.0000      0.0372221      0.0213121      0.0050914 
     0.0026223      0.0043039      0.0001017      0.0000000         6.0215 
        0.0000         2.7138        58.9825       112.7744        54.0920 
        3.0000         7.0000       0.353600         1.0000         0.0861 
        2.0000       0.033431       0.070653        14.4135        10.1919 
        7.0000         1.0000         2.0000        65.6891         0.7096 
        0.7821
    3330.70200 
        0.0000         1.0000      0.0322725      0.0085293      0.0097761 
     0.0000000      0.0000000      0.0000000      0.0000000         6.0403 
        0.0000         2.7203        60.2184       111.6448        52.1651 
        3.0000         7.0000       0.345410         1.0000         0.0024 
        2.0000       0.018305       0.050578         9.1852         6.4949 
        8.0000         0.0000         3.0000        77.5870         0.9243 
        1.0000
    3330.85440 
        0.0000         1.0000      0.0276662      0.0033715      0.0074369 
     0.0006791      0.0000000      0.0000000      0.0000000         6.0403 
        0.0000         2.7279        62.1375       111.8131        48.9031 
        3.0000         7.0000       0.333000         1.0000         0.0016 
        2.0000       0.011487       0.039154         7.1988         5.0903 
        8.0000         0.0000         3.0000       105.4894         1.0000 
        1.0000
    3331.00680 
        0.0000         1.0000      0.0287455      0.0023286      0.0084443 
     0.0026662      0.0000000      0.0000000      0.0000000         6.0026 
        0.0000         2.7245        65.2044       114.6020        45.2909 
        3.0000         7.0000       0.322150         1.0000         0.0018 
        2.0000       0.013439       0.042185         9.6359         6.8136 
        8.0000         0.0000         3.0000       146.9966         1.0000 
        0.8756
    3331.15920 
        0.0000         1.0000      0.0312211      0.0030112      0.0097282 
     0.0045699      0.0000000      0.0000000      0.0000000         5.9791 
        0.0000         2.7190        68.6499       118.9472        42.0525 
        3.0000         7.0000       0.326370         1.0000         0.0023 
        2.0000       0.017309       0.048530        12.5701         8.8884 
        8.0000         0.0000         3.0000       214.2650         0.9550 
        0.6304
    3331.31160 
        0.0000         1.0000      0.0307473      0.0037330      0.0097932 
     0.0060290      0.0000004      0.0000000      0.0000976         5.9744 
        0.0000         2.7054        71.4777       122.1288        40.2754 
        3.0000         7.0000       0.338930         1.0000         0.0530 
        2.0000       0.019653       0.050401        14.1989        10.0401 
        7.0000         1.0000         2.0000       293.6700         0.9269 
        0.5185
