~Version Information Block
VERS .                  2.0:  CWLS LOG ASCII STANDARD - VERSION 2.0
WRAP .                  YES:  Multiple lines per depth step
~Well Information Block
#MNEM.UNIT        Data Type   Information
#---------- ----------------  -----------
STRT .M          2888.43720:  START DEPTH
STOP .M          3843.68040:  STOP DEPTH
STEP .M             0.15240:  STEP
NULL .              -999.25:  NULL VALUE
COMP .                     :  COMPANY
WELL .       RAAG-99-02-105:  WELL
FLD  .                     :  FIELD
LOC  .                     :  LOCATION
CTRY .                     :  COUNTRY
STAT .                     :  STATE
CNTY .                     :  COUNTY
SRVC .                     :  SERVICE COMPANY
DATE .                     :  DATE
API  .                     :  API NUMBER
UWI  .                     :  UNIQUE WELL ID
~Curve Information Block
#MNEM.UNIT         API CODE   Curve Description
#---------- ----------------  -----------------
DEPTH.M                    :  
BADHOLE.NONE                 :  Badhole
BAS  .NONE                 :  Basalt Flag, Basalt = 1 Felsic = 2
BIN1 .V/V                  :  Magnetic Resonance Bin Porosity 1
BIN2 .V/V                  :  Magnetic Resonance Bin Porosity 2
BIN3 .V/V                  :  Magnetic Resonance Bin Porosity 3
BIN4 .V/V                  :  Magnetic Resonance Bin Porosity 4
BIN5 .V/V                  :  Magnetic Resonance Bin Porosity 5
BIN6 .V/V                  :  Magnetic Resonance Bin Porosity 6
BIN7 .V/V                  :  Magnetic Resonance Bin Porosity 7
CAL  .IN                   :  (HDRS-H)                (1in)                   Caliper
CONDUCTFLG.NONE                 :  Conductivity Flag 0 = Low, 1 = High & 2 = Very High
DEN  .G/C3                 :  (HDRS-H)                (2in)                   Standard Resolution Formation Density
DTCO .US/F                 :  Compressional slowness
DTSM .US/F                 :  Fast Shear Slowness
GR   .GAPI                 :  (EDTC-B)                (6in)                   Calibrated Gamma Ray
LITHCODE.NONE                 :  Broad Lithology based on interval
LITHFAC.NONE                 :  Lithofacies
NEU  .V/V                  :  (HGNS-H)                (6in)                   Thermal Neutron Porosity (Ratio Method) in Selected Lithology
PAY  .NONE                 :  Pay flag
PERM .MD                   :  Permeability
PETROFAC.NONE                 :  Petrophysical Facies
PHIE .V/V                  :  Free Fluid Volume using 3-ms Cutoff
PHIT .V/V                  :  Corrected NMR Porosity
RQ   .NONE                 :  Rock Quality
RQD  .NONE                 :  Rock Quality normalised
RQLITHFAC.NONE                 :  Lithofacies using Rock Quality from NMR data
RQPAY.NONE                 :  Pay flag using Rock Quality from NMR data
RQPETROFAC.NONE                 :  Petrophysical facies using Rock Quality from NMR data
RT   .OHMM                 :  (AIT-M)                 (3in)                   Array Induction Four Foot Resistivity A90
SW   .V/V                  :  Water Saturation
SW_RES.V/V                  :  Water Saturation_RES
~Parameter Information Block
#MNEM.UNIT            Value   Description
#---------- ----------------  -----------
ALPHA.                 0.98:  Biot's Constant
CALIB_SHMINPZS.                 6800:  Calibration Factor for processing zones
EXT_FACT.                1e-06:  Extension Factor
PAYSUMMARY.^SPECS/PAYSUM rdg-newwells (2):  Pay summary specification.
PR_FAC.                  0.9:  Poisson's ratio factor
PR_MAX.                  0.4:  Maximum Poisson's ratio
PR_MIN.                  0.1:  Minimum Poisson's ratio
TECT_FACT.                 1.05:  Techtonic Factor
YM_MAX.                    8:  Maximum Youngs' Modulus
YM_MIN.                    1:  Minimum Youngs' Modulus
PROJECT.          RDG_13Jul21:  
SET  .              V4MODEL:  
~Other Information Block
~Ascii Log Data
# ...
    2901.39120 
     -999.2500      -999.2500      0.0920128      0.0322258      0.0000920 
     0.0014712      0.0017832      0.0000000      0.0017068         6.0403 
     -999.2500         2.4167       103.9365       206.1075        57.6433 
     -999.2500      -999.2500       0.346690      -999.2500      -999.2500 
     -999.2500       0.037279       0.129292      -999.2500      -999.2500 
     -999.2500      -999.2500      -999.2500         3.1605      -999.2500 
     -999.2500
    2901.54360 
     -999.2500      -999.2500      0.1013016      0.0318042      0.0002302 
     0.0000000      0.0000000      0.0000000      0.0024518         6.0592 
     -999.2500         2.4149       103.6804       204.5410        62.8455 
     -999.2500      -999.2500       0.340300      -999.2500      -999.2500 
     -999.2500       0.034487       0.135789      -999.2500      -999.2500 
     -999.2500      -999.2500      -999.2500         3.1200      -999.2500 
     -999.2500
    2901.69600 
     -999.2500      -999.2500      0.1013000      0.0318050      0.0002310 
     0.0000000      0.0000000      0.0000000      0.0024510         6.0309 
     -999.2500         2.4118       103.3618       202.6164        61.0839 
     -999.2500      -999.2500       0.331570      -999.2500      -999.2500 
     -999.2500       0.034487       0.135787      -999.2500      -999.2500 
     -999.2500      -999.2500      -999.2500         3.0766      -999.2500 
     -999.2500
    2901.84840 
     -999.2500      -999.2500      0.0813864      0.0304266      0.0090430 
     0.0003360      0.0051136      0.0017456      0.0004902         6.0215 
     -999.2500         2.4138       102.9684       201.5491        61.6553 
     -999.2500      -999.2500       0.331600      -999.2500      -999.2500 
     -999.2500       0.047155       0.128541      -999.2500      -999.2500 
     -999.2500      -999.2500      -999.2500         3.0195      -999.2500 
     -999.2500
    2902.00080 
     -999.2500      -999.2500      0.0842350      0.0240316      0.0156410 
     0.0053808      0.0044012      0.0009838      0.0000000         6.0121 
     -999.2500         2.4149       102.6831       201.7212        58.4357 
     -999.2500      -999.2500       0.347150      -999.2500      -999.2500 
     -999.2500       0.050438       0.134673      -999.2500      -999.2500 
     -999.2500      -999.2500      -999.2500         2.9681      -999.2500 
     -999.2500
    2902.15320 
     -999.2500      -999.2500      0.1008122      0.0239412      0.0158950 
     0.0111932      0.0019632      0.0003410      0.0001868         6.0026 
     -999.2500         2.4210       102.5235       202.3715        61.4376 
     -999.2500      -999.2500       0.356190      -999.2500      -999.2500 
     -999.2500       0.053520       0.154333      -999.2500      -999.2500 
     -999.2500      -999.2500      -999.2500         2.9126      -999.2500 
     -999.2500
    2902.30560 
     -999.2500      -999.2500      0.1156356      0.0314142      0.0104456 
     0.0143494      0.0012890      0.0004600      0.0003736         6.0309 
     -999.2500         2.4273       102.6281       202.6901        59.1060 
     -999.2500      -999.2500       0.356540      -999.2500      -999.2500 
     -999.2500       0.058332       0.173967      -999.2500      -999.2500 
     -999.2500      -999.2500      -999.2500         2.8867      -999.2500 
     -999.2500
    2902.45800 
     -999.2500      -999.2500      0.1067740      0.0376470      0.0047040 
     0.0119430      0.0052570      0.0000000      0.0000000         6.0309 
     -999.2500         2.4264       103.0179       202.5689        63.1304 
     -999.2500      -999.2500       0.346860      -999.2500      -999.2500 
     -999.2500       0.059551       0.166324      -999.2500      -999.2500 
     -999.2500      -999.2500      -999.2500         2.8633      -999.2500 
     -999.2500
    2902.61040 
     -999.2500      -999.2500      0.1020772      0.0257910      0.0049160 
     0.0112286      0.0054306      0.0001176      0.0009448         6.0592 
     -999.2500         2.4230       103.4088       202.4637        64.7804 
     -999.2500      -999.2500       0.347870      -999.2500      -999.2500 
     -999.2500       0.048429       0.150506      -999.2500      -999.2500 
     -999.2500      -999.2500      -999.2500         2.8585      -999.2500 
     -999.2500
    2902.76280 
     -999.2500      -999.2500      0.0988822      0.0251622      0.0019954 
     0.0135508      0.0039314      0.0000588      0.0012992         6.0686 
     -999.2500         2.4172       103.5573       202.5843        69.4987 
     -999.2500      -999.2500       0.348400      -999.2500      -999.2500 
     -999.2500       0.045998       0.144881      -999.2500      -999.2500 
     -999.2500      -999.2500      -999.2500         2.9474      -999.2500 
     -999.2500
    2902.91520 
     -999.2500      -999.2500      0.0930830      0.0277522      0.0000078 
     0.0100216      0.0057394      0.0002580      0.0009292         6.0309 
     -999.2500         2.4089       103.4243       202.4393        67.8454 
     -999.2500      -999.2500       0.346190      -999.2500      -999.2500 
     -999.2500       0.044708       0.137791      -999.2500      -999.2500 
     -999.2500      -999.2500      -999.2500         3.0988      -999.2500 
     -999.2500
    2903.06760 
     -999.2500      -999.2500      0.0890362      0.0273056      0.0000000 
     0.0021430      0.0100186      0.0005644      0.0002048         6.0215 
     -999.2500         2.3997       103.2195       201.3634        65.8763 
     -999.2500      -999.2500       0.342280      -999.2500      -999.2500 
     -999.2500       0.040236       0.129272      -999.2500      -999.2500 
     -999.2500      -999.2500      -999.2500         3.3380      -999.2500 
     -999.2500
    2903.22000 
     -999.2500      -999.2500      0.0995610      0.0193200      0.0000000 
     0.0018070      0.0101170      0.0002420      0.0000000         6.0403 
     -999.2500         2.4017       102.9612       199.5181        65.1132 
     -999.2500      -999.2500       0.341550      -999.2500      -999.2500 
     -999.2500       0.031487       0.131047      -999.2500      -999.2500 
     -999.2500      -999.2500      -999.2500         3.6688      -999.2500 
     -999.2500
    2903.37240 
     -999.2500      -999.2500      0.1098010      0.0176944      0.0007736 
     0.0072622      0.0042714      0.0036100      0.0001784         6.0215 
     -999.2500         2.4061       102.5668       197.4420        65.4143 
     -999.2500      -999.2500       0.336230      -999.2500      -999.2500 
     -999.2500       0.033791       0.143591      -999.2500      -999.2500 
     -999.2500      -999.2500      -999.2500         4.0450      -999.2500 
     -999.2500
    2903.52480 
     -999.2500      -999.2500      0.0923174      0.0234098      0.0046102 
     0.0129994      0.0021584      0.0040290      0.0001546         6.0309 
     -999.2500         2.4113       102.3556       195.7063        61.9502 
     -999.2500      -999.2500       0.339110      -999.2500      -999.2500 
     -999.2500       0.047362       0.139679      -999.2500      -999.2500 
     -999.2500      -999.2500      -999.2500         4.3362      -999.2500 
     -999.2500
    2903.67720 
     -999.2500      -999.2500      0.0762122      0.0277958      0.0047258 
     0.0181310      0.0016828      0.0022482      0.0004206         6.0686 
     -999.2500         2.4016       102.3544       195.1414        57.9958 
     -999.2500      -999.2500       0.332940      -999.2500      -999.2500 
     -999.2500       0.055004       0.131216      -999.2500      -999.2500 
     -999.2500      -999.2500      -999.2500         4.3966      -999.2500 
     -999.2500
    2903.82960 
     -999.2500      -999.2500      0.0724226      0.0289024      0.0013188 
     0.0203446      0.0017426      0.0000000      0.0011042         6.0309 
     -999.2500         2.3902       102.5009       195.4262        55.9542 
     -999.2500      -999.2500       0.342020      -999.2500      -999.2500 
     -999.2500       0.053413       0.125835      -999.2500      -999.2500 
     -999.2500      -999.2500      -999.2500         4.2148      -999.2500 
     -999.2500
