~Version Information Block
VERS .                  2.0:  CWLS LOG ASCII STANDARD - VERSION 2.0
WRAP .                  YES:  Multiple lines per depth step
~Well Information Block
#MNEM.UNIT        Data Type   Information
#---------- ----------------  -----------
STRT .M          2888.43720:  START DEPTH
STOP .M          3843.68040:  STOP DEPTH
STEP .M             0.15240:  STEP
NULL .              -999.25:  NULL VALUE
COMP .                     :  COMPANY
WELL .       RAAG-99-02-105:  WELL
FLD  .                     :  FIELD
LOC  .                     :  LOCATION
CTRY .                     :  COUNTRY
STAT .                     :  STATE
CNTY .                     :  COUNTY
SRVC .                     :  SERVICE COMPANY
DATE .                     :  DATE
API  .                     :  API NUMBER
UWI  .                     :  UNIQUE WELL ID
~Curve Information Block
#MNEM.UNIT         API CODE   Curve Description
#---------- ----------------  -----------------
DEPTH.M                    :  
BADHOLE.NONE                 :  Badhole
BAS  .NONE                 :  Basalt Flag, Basalt = 1 Felsic = 2
BIN1 .V/V                  :  Magnetic Resonance Bin Porosity 1
BIN2 .V/V                  :  Magnetic Resonance Bin Porosity 2
BIN3 .V/V                  :  Magnetic Resonance Bin Porosity 3
BIN4 .V/V                  :  Magnetic Resonance Bin Porosity 4
BIN5 .V/V                  :  Magnetic Resonance Bin Porosity 5
BIN6 .V/V                  :  Magnetic Resonance Bin Porosity 6
BIN7 .V/V                  :  Magnetic Resonance Bin Porosity 7
CAL  .IN                   :  (HDRS-H)                (1in)                   Caliper
CONDUCTFLG.NONE                 :  Conductivity Flag 0 = Low, 1 = High & 2 = Very High
DEN  .G/C3                 :  (HDRS-H)                (2in)                   Standard Resolution Formation Density
DTCO .US/F                 :  Compressional slowness
DTSM .US/F                 :  Fast Shear Slowness
GR   .GAPI                 :  (EDTC-B)                (6in)                   Calibrated Gamma Ray
LITHCODE.NONE                 :  Broad Lithology based on interval
LITHFAC.NONE                 :  Lithofacies
NEU  .V/V                  :  (HGNS-H)                (6in)                   Thermal Neutron Porosity (Ratio Method) in Selected Lithology
PAY  .NONE                 :  Pay flag
PERM .MD                   :  Permeability
PETROFAC.NONE                 :  Petrophysical Facies
PHIE .V/V                  :  Free Fluid Volume using 3-ms Cutoff
PHIT .V/V                  :  Corrected NMR Porosity
RQ   .NONE                 :  Rock Quality
RQD  .NONE                 :  Rock Quality normalised
RQLITHFAC.NONE                 :  Lithofacies using Rock Quality from NMR data
RQPAY.NONE                 :  Pay flag using Rock Quality from NMR data
RQPETROFAC.NONE                 :  Petrophysical facies using Rock Quality from NMR data
RT   .OHMM                 :  (AIT-M)                 (3in)                   Array Induction Four Foot Resistivity A90
SW   .V/V                  :  Water Saturation
SW_RES.V/V                  :  Water Saturation_RES
~Parameter Information Block
#MNEM.UNIT            Value   Description
#---------- ----------------  -----------
ALPHA.                 0.98:  Biot's Constant
CALIB_SHMINPZS.                 6800:  Calibration Factor for processing zones
EXT_FACT.                1e-06:  Extension Factor
PAYSUMMARY.^SPECS/PAYSUM rdg-newwells (2):  Pay summary specification.
PR_FAC.                  0.9:  Poisson's ratio factor
PR_MAX.                  0.4:  Maximum Poisson's ratio
PR_MIN.                  0.1:  Minimum Poisson's ratio
TECT_FACT.                 1.05:  Techtonic Factor
YM_MAX.                    8:  Maximum Youngs' Modulus
YM_MIN.                    1:  Minimum Youngs' Modulus
PROJECT.          RDG_13Jul21:  
SET  .              V4MODEL:  
~Other Information Block
~Ascii Log Data
# ...
    3512.82000 
        0.0000         1.0000      0.0258098      0.0221155      0.0084386 
     0.0003574      0.0000000      0.0000000      0.0000000         6.0309 
        0.0000         2.6282        61.3416       113.2108        46.4936 
        3.0000         7.0000       0.269390         1.0000         0.0029 
        2.0000       0.030912       0.056721        11.1342         7.8731 
        8.0000         0.0000         3.0000        32.1403         0.8442 
        1.0000
    3512.97240 
        0.0000         1.0000      0.0208529      0.0168213      0.0041119 
     0.0034228      0.0003032      0.0000000      0.0000000         5.9461 
        0.0000         2.6577        60.4139       112.7919        50.2776 
        3.0000         7.0000       0.268800         1.0000         0.0021 
        2.0000       0.024659       0.045512        10.4788         7.4096 
        8.0000         0.0000         3.0000        31.2491         1.0000 
        1.0000
    3513.12480 
        0.0000         1.0000      0.0176900      0.0118411      0.0024026 
     0.0034224      0.0001992      0.0000179      0.0029771         5.9555 
        0.0000         2.6806        59.1088       111.3148        54.0372 
        3.0000         7.0000       0.263100         1.0000         0.0016 
        2.0000       0.020860       0.038548         8.5393         6.0382 
        8.0000         0.0000         3.0000        31.8238         1.0000 
        1.0000
    3513.27720 
        0.0000         1.0000      0.0133462      0.0078673      0.0014300 
     0.0029006      0.0000957      0.0003033      0.0056249         5.9744 
        0.0000         2.6995        58.0159       108.9903        63.0490 
        3.0000         7.0000       0.265250         1.0000         0.0001 
        2.0000       0.018222       0.031566         6.7102         4.7449 
        9.0000         0.0000         4.0000        33.6202         1.0000 
        1.0000
    3513.42960 
        0.0000         1.0000      0.0079048      0.0049357      0.0004896 
     0.0028239      0.0008490      0.0013391      0.0057933         5.9649 
        0.0000         2.7047        57.4823       106.7426        61.8774 
        3.0000         7.0000       0.250890         1.0000         0.0001 
        2.0000       0.016231       0.024135         5.9905         4.2359 
        9.0000         0.0000         4.0000        35.6907         1.0000 
        1.0000
    3513.58200 
        0.0000         1.0000      0.0045077      0.0024255      0.0000530 
     0.0025810      0.0037642      0.0038418      0.0024884         5.9366 
        0.0000         2.7134        57.4773       105.5710        62.9985 
        3.0000         7.0000       0.248970         1.0000         0.0001 
        2.0000       0.015154       0.019661         6.9831         4.9378 
        9.0000         0.0000         4.0000        37.5178         1.0000 
        1.0000
    3513.73440 
        0.0000         1.0000      0.0042670      0.0033626      0.0000106 
     0.0059055      0.0053493      0.0013821      0.0007183         5.9555 
        0.0000         2.7160        57.7765       105.6479        60.6317 
        3.0000         7.0000       0.241840         1.0000         0.0006 
        2.0000       0.016728       0.020995        10.4938         7.4202 
        8.0000         0.0000         3.0000        39.0418         1.0000 
        1.0000
    3513.88680 
        0.0000         1.0000      0.0060006      0.0062010      0.0000208 
     0.0049765      0.0068555      0.0003894      0.0001103         5.9555 
        0.0000         2.7120        58.2014       106.4253        61.6182 
        3.0000         7.0000       0.239010         1.0000         0.0008 
        2.0000       0.018554       0.024554        10.7703         7.6158 
        8.0000         0.0000         3.0000        40.7047         1.0000 
        1.0000
    3514.03920 
        0.0000         1.0000      0.0119303      0.0088611      0.0000237 
     0.0037950      0.0065572      0.0001237      0.0000000         5.9838 
        0.0000         2.6990        58.7339       107.2169        63.0877 
        3.0000         7.0000       0.246430         1.0000         0.0012 
        2.0000       0.019361       0.031291        10.1494         7.1767 
        8.0000         0.0000         3.0000        43.6867         1.0000 
        1.0000
    3514.19160 
        0.0000         1.0000      0.0198111      0.0108099      0.0000058 
     0.0039530      0.0041565      0.0000855      0.0000000         5.9932 
        0.0000         2.6798        59.3892       107.8873        62.6887 
        3.0000         7.0000       0.259350         1.0000         0.0016 
        2.0000       0.019011       0.038822         9.6285         6.8084 
        8.0000         0.0000         3.0000        47.7728         1.0000 
        1.0000
    3514.34400 
        0.0000         1.0000      0.0229320      0.0130613      0.0000000 
     0.0046331      0.0007830      0.0000155      0.0000000         5.9838 
        0.0000         2.6585        60.0202       108.6794        62.9935 
        3.0000         7.0000       0.268200         1.0000         0.0018 
        2.0000       0.018493       0.041425         8.8665         6.2695 
        8.0000         0.0000         3.0000        50.5505         1.0000 
        1.0000
    3514.49640 
        0.0000         1.0000      0.0249666      0.0200959      0.0001989 
     0.0022413      0.0066261      0.0003524      0.0000000         5.9649 
        0.0000         2.6447        60.4053       109.7610        58.1108 
        3.0000         7.0000       0.274540         1.0000         0.0027 
        2.0000       0.029515       0.054481        11.7095         8.2799 
        8.0000         0.0000         3.0000        50.1326         0.8715 
        1.0000
    3514.64880 
        0.0000         1.0000      0.0344309      0.0188962      0.0036691 
     0.0039520      0.0042415      0.0002291      0.0000000         5.9555 
        0.0000         2.6379        60.4088       110.9427        56.6213 
        3.0000         7.0000       0.271790         1.0000         0.0771 
        2.0000       0.030988       0.065419        14.2678        10.0889 
        7.0000         1.0000         2.0000        49.3100         0.7541 
        0.9554
    3514.80120 
        0.0000         1.0000      0.0465761      0.0168285      0.0091604 
     0.0037365      0.0010068      0.0000544      0.0000000         5.9178 
        0.0000         2.6463        60.1664       111.5998        56.5091 
        3.0000         7.0000       0.258080         1.0000         0.0980 
        2.0000       0.030787       0.077363        15.5477        10.9939 
        7.0000         1.0000         2.0000        49.3167         0.6605 
        0.8078
    3514.95360 
        0.0000         1.0000      0.0570404      0.0170175      0.0140429 
     0.0008838      0.0000000      0.0000000      0.0000000         5.9272 
        0.0000         2.6468        59.9851       111.1977        58.3176 
        3.0000         7.0000       0.253070         1.0000         0.1199 
        2.0000       0.031944       0.088985        15.5651        11.0062 
        7.0000         1.0000         2.0000        48.5170         0.5913 
        0.7081
    3515.10600 
        0.0000         1.0000      0.0618492      0.0183466      0.0143062 
     0.0000000      0.0000000      0.0000000      0.0000000         5.9461 
        0.0000         2.6355        59.9864       109.3206        54.0280 
        3.0000         7.0000       0.257570         1.0000         0.1307 
        2.0000       0.032653       0.094502        15.3455        10.8509 
        7.0000         1.0000         2.0000        46.8196         0.5638 
        0.6787
    3515.25840 
        0.0000         1.0000      0.0605066      0.0206822      0.0092418 
     0.0000000      0.0000000      0.0000000      0.0000000         5.8989 
        0.0000         2.6187        60.0268       106.2266        52.8962 
        3.0000         7.0000       0.270110         1.0000         0.0059 
        2.0000       0.029924       0.090431        12.7069         8.9852 
        8.0000         0.0000         3.0000        44.6431         0.6500 
        0.7263
