~Version Information Block
VERS .                  2.0:  CWLS LOG ASCII STANDARD - VERSION 2.0
WRAP .                  YES:  Multiple lines per depth step
~Well Information Block
#MNEM.UNIT        Data Type   Information
#---------- ----------------  -----------
STRT .M          2888.43720:  START DEPTH
STOP .M          3843.68040:  STOP DEPTH
STEP .M             0.15240:  STEP
NULL .              -999.25:  NULL VALUE
COMP .                     :  COMPANY
WELL .       RAAG-99-02-105:  WELL
FLD  .                     :  FIELD
LOC  .                     :  LOCATION
CTRY .                     :  COUNTRY
STAT .                     :  STATE
CNTY .                     :  COUNTY
SRVC .                     :  SERVICE COMPANY
DATE .                     :  DATE
API  .                     :  API NUMBER
UWI  .                     :  UNIQUE WELL ID
~Curve Information Block
#MNEM.UNIT         API CODE   Curve Description
#---------- ----------------  -----------------
DEPTH.M                    :  
BADHOLE.NONE                 :  Badhole
BAS  .NONE                 :  Basalt Flag, Basalt = 1 Felsic = 2
BIN1 .V/V                  :  Magnetic Resonance Bin Porosity 1
BIN2 .V/V                  :  Magnetic Resonance Bin Porosity 2
BIN3 .V/V                  :  Magnetic Resonance Bin Porosity 3
BIN4 .V/V                  :  Magnetic Resonance Bin Porosity 4
BIN5 .V/V                  :  Magnetic Resonance Bin Porosity 5
BIN6 .V/V                  :  Magnetic Resonance Bin Porosity 6
BIN7 .V/V                  :  Magnetic Resonance Bin Porosity 7
CAL  .IN                   :  (HDRS-H)                (1in)                   Caliper
CONDUCTFLG.NONE                 :  Conductivity Flag 0 = Low, 1 = High & 2 = Very High
DEN  .G/C3                 :  (HDRS-H)                (2in)                   Standard Resolution Formation Density
DTCO .US/F                 :  Compressional slowness
DTSM .US/F                 :  Fast Shear Slowness
GR   .GAPI                 :  (EDTC-B)                (6in)                   Calibrated Gamma Ray
LITHCODE.NONE                 :  Broad Lithology based on interval
LITHFAC.NONE                 :  Lithofacies
NEU  .V/V                  :  (HGNS-H)                (6in)                   Thermal Neutron Porosity (Ratio Method) in Selected Lithology
PAY  .NONE                 :  Pay flag
PERM .MD                   :  Permeability
PETROFAC.NONE                 :  Petrophysical Facies
PHIE .V/V                  :  Free Fluid Volume using 3-ms Cutoff
PHIT .V/V                  :  Corrected NMR Porosity
RQ   .NONE                 :  Rock Quality
RQD  .NONE                 :  Rock Quality normalised
RQLITHFAC.NONE                 :  Lithofacies using Rock Quality from NMR data
RQPAY.NONE                 :  Pay flag using Rock Quality from NMR data
RQPETROFAC.NONE                 :  Petrophysical facies using Rock Quality from NMR data
RT   .OHMM                 :  (AIT-M)                 (3in)                   Array Induction Four Foot Resistivity A90
SW   .V/V                  :  Water Saturation
SW_RES.V/V                  :  Water Saturation_RES
~Parameter Information Block
#MNEM.UNIT            Value   Description
#---------- ----------------  -----------
ALPHA.                 0.98:  Biot's Constant
CALIB_SHMINPZS.                 6800:  Calibration Factor for processing zones
EXT_FACT.                1e-06:  Extension Factor
PAYSUMMARY.^SPECS/PAYSUM rdg-newwells (2):  Pay summary specification.
PR_FAC.                  0.9:  Poisson's ratio factor
PR_MAX.                  0.4:  Maximum Poisson's ratio
PR_MIN.                  0.1:  Minimum Poisson's ratio
TECT_FACT.                 1.05:  Techtonic Factor
YM_MAX.                    8:  Maximum Youngs' Modulus
YM_MIN.                    1:  Minimum Youngs' Modulus
PROJECT.          RDG_13Jul21:  
SET  .              V4MODEL:  
~Other Information Block
~Ascii Log Data
# ...
    3085.33800 
        0.0000         1.0000      0.0125623      0.0000000      0.0000000 
     0.0000000      0.0000000      0.0000000      0.0000000         6.0781 
        0.0000         2.8886        52.5173        91.8357        34.2315 
        3.0000         9.0000       0.256730         0.0000         0.0000 
        4.0000       0.000000       0.012562         0.6282         0.3141 
        9.0000         0.0000         4.0000        24.5813         1.0000 
        1.0000
    3085.49040 
        0.0000         1.0000      0.0144772      0.0023956      0.0000000 
     0.0000000      0.0000000      0.0000022      0.0017030         6.0592 
        0.0000         2.8898        52.4756        96.5763        32.2140 
        3.0000         9.0000       0.249370         0.0000         0.0001 
        4.0000       0.004101       0.018578         1.3740         0.6870 
        9.0000         0.0000         4.0000        29.6832         1.0000 
        1.0000
    3085.64280 
        0.0000         1.0000      0.0131354      0.0064871      0.0000239 
     0.0000000      0.0000000      0.0000031      0.0034567         6.0427 
        0.0000         2.8719        54.3602       103.5194        33.6476 
        3.0000         8.0000       0.235860         0.0000         0.0001 
        3.0000       0.009971       0.023107         2.3151         1.3366 
        9.0000         0.0000         4.0000        36.1595         1.0000 
        1.0000
    3085.79520 
        0.0000         1.0000      0.0100896      0.0086253      0.0000422 
     0.0001611      0.0003635      0.0000020      0.0034499         5.9932 
        0.0000         2.8254        59.2589       114.8790        30.9105 
        3.0000         8.0000       0.231670         0.0000         0.0001 
        3.0000       0.012644       0.022734         2.9797         1.7203 
        9.0000         0.0000         4.0000        48.0891         1.0000 
        1.0000
    3085.94760 
        0.0000         1.0000      0.0090343      0.0083372      0.0000513 
     0.0005100      0.0009210      0.0000000      0.0017264         6.0121 
        0.0000         2.7832        67.6208       132.4436        30.1090 
        3.0000         8.0000       0.219750         0.0000         0.0001 
        3.0000       0.011546       0.020580         3.3852         1.9544 
        9.0000         0.0000         4.0000        62.7019         1.0000 
        1.0000
    3086.10000 
        0.0000         1.0000      0.0158058      0.0083254      0.0000729 
     0.0009390      0.0009699      0.0000000      0.0001848         5.9649 
        0.0000         2.7527        74.0270       146.8383        28.0693 
        3.0000         8.0000       0.213160         0.0000         0.0001 
        3.0000       0.010492       0.026297         4.0385         2.3316 
        9.0000         0.0000         4.0000        74.0127         1.0000 
        1.0000
    3086.25240 
        0.0000         1.0000      0.0298799      0.0094373      0.0014497 
     0.0018480      0.0001940      0.0000000      0.0000370         5.9744 
        0.0000         2.7551        77.3336       154.9283        29.2192 
        3.0000         8.0000       0.213820         0.0000         0.0002 
        3.0000       0.012966       0.042845         6.2193         3.5907 
        9.0000         0.0000         4.0000        72.0778         1.0000 
        1.0000
    3086.40480 
        0.0000         1.0000      0.0434631      0.0073599      0.0041117 
     0.0043073      0.0000000      0.0000000      0.0006941         6.0026 
        0.0000         2.7312        78.7656       158.5307        30.5857 
        3.0000         7.0000       0.228030         1.0000         0.0031 
        2.0000       0.016473       0.059936        10.4888         7.4167 
        8.0000         0.0000         3.0000        54.9859         0.8082 
        1.0000
    3086.55720 
        0.0000         1.0000      0.0522563      0.0060644      0.0075152 
     0.0072886      0.0000000      0.0000000      0.0010833         6.0309 
        0.0000         2.6726        79.0319       159.5880        44.1988 
        3.0000         7.0000       0.264780         1.0000         0.0924 
        2.0000       0.021952       0.074208        15.7318        11.1240 
        7.0000         1.0000         2.0000        40.6945         0.6826 
        0.9730
    3086.70960 
        0.0000         1.0000      0.0562635      0.0087471      0.0105827 
     0.0104488      0.0000056      0.0000000      0.0007784         6.0121 
        0.0000         2.5711        78.6537       159.2796        56.4517 
        3.0000         6.0000       0.330230         1.0000         0.1157 
        1.0000       0.030563       0.086826        21.4423        21.4423 
        7.0000         1.0000         2.0000        28.4492         0.6029 
        0.9946
    3086.86200 
        0.0000         1.0000      0.0597919      0.0178293      0.0117032 
     0.0141297      0.0000282      0.0000000      0.0000000         5.9932 
        0.0000         2.4936        78.1986       158.2951        59.8299 
        3.0000         6.0000       0.397090         1.0000         0.1489 
        1.0000       0.043690       0.103485        27.7240        27.7240 
        7.0000         1.0000         2.0000        21.8911         0.5247 
        0.9513
    3087.01440 
        0.0000         1.0000      0.0660965      0.0294770      0.0138044 
     0.0112347      0.0057157      0.0000000      0.0000000         5.9555 
        0.0000         2.4774        78.0303       156.2145        48.8181 
        3.0000         6.0000       0.423520         1.0000         0.1982 
        1.0000       0.060232       0.126330        32.1470        32.1470 
        6.0000         1.0000         1.0000        18.3944         0.4481 
        0.8501
    3087.16680 
        0.0000         1.0000      0.0702136      0.0324050      0.0170903 
     0.0088512      0.0057381      0.0032505      0.0020706         5.9366 
        0.0000         2.4975        77.7644       151.6047        38.9119 
        3.0000         6.0000       0.422870         1.0000         0.2288 
        1.0000       0.069406       0.139620        33.7221        33.7221 
        6.0000         1.0000         1.0000        15.4818         0.4141 
        0.8384
    3087.31920 
        0.0000         1.0000      0.0744952      0.0268026      0.0189035 
     0.0087077      0.0029098      0.0045655      0.0029083         5.9461 
        0.0000         2.5227        77.1495       145.4198        36.6452 
        3.0000         6.0000       0.424540         1.0000         0.2280 
        1.0000       0.064797       0.139293        32.5415        32.5415 
        6.0000         1.0000         1.0000        14.3827         0.4148 
        0.8719
    3087.47160 
        0.0000         1.0000      0.0767282      0.0176056      0.0178841 
     0.0106633      0.0000535      0.0026300      0.0016754         5.9649 
        0.0000         2.5397        76.5025       140.4852        34.6506 
        3.0000         6.0000       0.418190         1.0000         0.2003 
        1.0000       0.050512       0.127241        29.7400        29.7400 
        7.0000         1.0000         2.0000        14.3563         0.4456 
        0.9553
    3087.62400 
        0.0000         1.0000      0.0701341      0.0144965      0.0139700 
     0.0127074      0.0000000      0.0000000      0.0000000         5.9838 
        0.0000         2.5650        76.0283       136.9227        32.3283 
        3.0000         6.0000       0.418240         1.0000         0.1653 
        1.0000       0.041174       0.111308        27.4955        27.4955 
        7.0000         1.0000         2.0000        14.9161         0.4953 
        1.0000
    3087.77640 
        0.0000         1.0000      0.0567526      0.0123400      0.0162281 
     0.0112518      0.0000000      0.0000000      0.0000000         5.9861 
        0.0000         2.5743        76.1542       135.7301        32.8321 
        3.0000         6.0000       0.402150         1.0000         0.1348 
        1.0000       0.039820       0.096573        26.2944        26.2944 
        7.0000         1.0000         2.0000        15.9743         0.5542 
        1.0000
