~Version Information Block
VERS .                  2.0:  CWLS LOG ASCII STANDARD - VERSION 2.0
WRAP .                  YES:  Multiple lines per depth step
~Well Information Block
#MNEM.UNIT        Data Type   Information
#---------- ----------------  -----------
STRT .M          2888.43720:  START DEPTH
STOP .M          3843.68040:  STOP DEPTH
STEP .M             0.15240:  STEP
NULL .              -999.25:  NULL VALUE
COMP .                     :  COMPANY
WELL .       RAAG-99-02-105:  WELL
FLD  .                     :  FIELD
LOC  .                     :  LOCATION
CTRY .                     :  COUNTRY
STAT .                     :  STATE
CNTY .                     :  COUNTY
SRVC .                     :  SERVICE COMPANY
DATE .                     :  DATE
API  .                     :  API NUMBER
UWI  .                     :  UNIQUE WELL ID
~Curve Information Block
#MNEM.UNIT         API CODE   Curve Description
#---------- ----------------  -----------------
DEPTH.M                    :  
BADHOLE.NONE                 :  Badhole
BAS  .NONE                 :  Basalt Flag, Basalt = 1 Felsic = 2
BIN1 .V/V                  :  Magnetic Resonance Bin Porosity 1
BIN2 .V/V                  :  Magnetic Resonance Bin Porosity 2
BIN3 .V/V                  :  Magnetic Resonance Bin Porosity 3
BIN4 .V/V                  :  Magnetic Resonance Bin Porosity 4
BIN5 .V/V                  :  Magnetic Resonance Bin Porosity 5
BIN6 .V/V                  :  Magnetic Resonance Bin Porosity 6
BIN7 .V/V                  :  Magnetic Resonance Bin Porosity 7
CAL  .IN                   :  (HDRS-H)                (1in)                   Caliper
CONDUCTFLG.NONE                 :  Conductivity Flag 0 = Low, 1 = High & 2 = Very High
DEN  .G/C3                 :  (HDRS-H)                (2in)                   Standard Resolution Formation Density
DTCO .US/F                 :  Compressional slowness
DTSM .US/F                 :  Fast Shear Slowness
GR   .GAPI                 :  (EDTC-B)                (6in)                   Calibrated Gamma Ray
LITHCODE.NONE                 :  Broad Lithology based on interval
LITHFAC.NONE                 :  Lithofacies
NEU  .V/V                  :  (HGNS-H)                (6in)                   Thermal Neutron Porosity (Ratio Method) in Selected Lithology
PAY  .NONE                 :  Pay flag
PERM .MD                   :  Permeability
PETROFAC.NONE                 :  Petrophysical Facies
PHIE .V/V                  :  Free Fluid Volume using 3-ms Cutoff
PHIT .V/V                  :  Corrected NMR Porosity
RQ   .NONE                 :  Rock Quality
RQD  .NONE                 :  Rock Quality normalised
RQLITHFAC.NONE                 :  Lithofacies using Rock Quality from NMR data
RQPAY.NONE                 :  Pay flag using Rock Quality from NMR data
RQPETROFAC.NONE                 :  Petrophysical facies using Rock Quality from NMR data
RT   .OHMM                 :  (AIT-M)                 (3in)                   Array Induction Four Foot Resistivity A90
SW   .V/V                  :  Water Saturation
SW_RES.V/V                  :  Water Saturation_RES
~Parameter Information Block
#MNEM.UNIT            Value   Description
#---------- ----------------  -----------
ALPHA.                 0.98:  Biot's Constant
CALIB_SHMINPZS.                 6800:  Calibration Factor for processing zones
EXT_FACT.                1e-06:  Extension Factor
PAYSUMMARY.^SPECS/PAYSUM rdg-newwells (2):  Pay summary specification.
PR_FAC.                  0.9:  Poisson's ratio factor
PR_MAX.                  0.4:  Maximum Poisson's ratio
PR_MIN.                  0.1:  Minimum Poisson's ratio
TECT_FACT.                 1.05:  Techtonic Factor
YM_MAX.                    8:  Maximum Youngs' Modulus
YM_MIN.                    1:  Minimum Youngs' Modulus
PROJECT.          RDG_13Jul21:  
SET  .              V4MODEL:  
~Other Information Block
~Ascii Log Data
# ...
    3144.92640 
        0.0000         1.0000      0.0410535      0.0060918      0.0174528 
     0.0050049      0.0000000      0.0000988      0.0041178         5.9720 
        0.0000         2.6526        73.3273       137.2508        53.4218 
        3.0000         7.0000       0.347790         1.0000         0.0917 
        2.0000       0.032766       0.073821        19.1891        13.5687 
        7.0000         1.0000         2.0000        12.2823         0.6854 
        1.0000
    3145.07880 
        0.0000         1.0000      0.0456715      0.0099281      0.0172505 
     0.0069701      0.0000000      0.0001946      0.0025620         5.9579 
        0.0000         2.6482        74.1120       142.0210        41.3424 
        3.0000         7.0000       0.385280         1.0000         0.1077 
        2.0000       0.036905       0.082578        21.9042        15.4886 
        7.0000         1.0000         2.0000         9.6704         0.6273 
        1.0000
    3145.23120 
        0.0000         1.0000      0.0476242      0.0129265      0.0115565 
     0.0108788      0.0000086      0.0001452      0.0007628         5.9744 
        0.0000         2.6530        75.5403       143.7733        36.0795 
        3.0000         7.0000       0.393350         1.0000         0.1102 
        2.0000       0.036278       0.083904        22.9042        16.1957 
        7.0000         1.0000         2.0000         8.4020         0.6194 
        1.0000
    3145.38360 
        0.0000         1.0000      0.0475110      0.0136036      0.0052096 
     0.0127493      0.0000181      0.0000000      0.0000000         5.9366 
        0.0000         2.6655        76.4431       142.3893        35.2100 
        3.0000         7.0000       0.380030         1.0000         0.1012 
        2.0000       0.031581       0.079093        20.9822        14.8366 
        7.0000         1.0000         2.0000         8.2063         0.6490 
        1.0000
    3145.53600 
        0.0000         1.0000      0.0441513      0.0130392      0.0029889 
     0.0099193      0.0000046      0.0000000      0.0000000         5.9932 
        0.0000         2.6741        76.3091       140.1922        35.3822 
        3.0000         7.0000       0.369600         1.0000         0.0851 
        2.0000       0.025952       0.070103        16.5307        11.6890 
        7.0000         1.0000         2.0000         8.8883         0.7140 
        1.0000
    3145.68840 
        0.0000         1.0000      0.0419112      0.0121772      0.0046289 
     0.0054115      0.0000013      0.0000000      0.0000000         5.9744 
        0.0000         2.6802        75.3410       138.6608        36.5353 
        3.0000         7.0000       0.364500         1.0000         0.0035 
        2.0000       0.022219       0.064129        12.7206         8.9948 
        8.0000         0.0000         3.0000        10.0845         0.7661 
        1.0000
    3145.84080 
        0.0000         1.0000      0.0366368      0.0122749      0.0069355 
     0.0036950      0.0002998      0.0001831      0.0002093         5.9437 
        0.0000         2.6676        73.1869       137.2527        40.8419 
        3.0000         7.0000       0.355410         1.0000         0.0032 
        2.0000       0.023598       0.060233        12.3989         8.7674 
        8.0000         0.0000         3.0000        11.4923         0.8050 
        1.0000
    3145.99320 
        0.0000         1.0000      0.0350238      0.0129189      0.0110411 
     0.0039705      0.0007360      0.0004537      0.0013565         5.9461 
        0.0000         2.6763        70.5839       136.0190        45.4049 
        3.0000         7.0000       0.332830         1.0000         0.0772 
        2.0000       0.030477       0.065499        15.6435        11.0617 
        7.0000         1.0000         2.0000        13.4734         0.7534 
        1.0000
    3146.14560 
        0.0000         1.0000      0.0395908      0.0143563      0.0161902 
     0.0060461      0.0008729      0.0005411      0.0030078         6.0003 
        0.0000         2.6959        68.8978       135.4998        41.9932 
        3.0000         7.0000       0.323820         1.0000         0.1040 
        2.0000       0.041014       0.080604        21.5979        15.2721 
        7.0000         1.0000         2.0000        15.2015         0.6394 
        1.0000
    3146.29800 
        0.0000         1.0000      0.0486799      0.0174951      0.0197397 
     0.0103377      0.0000000      0.0000000      0.0035666         5.9791 
        0.0000         2.7036        69.1858       138.0885        38.3183 
        3.0000         7.0000       0.334200         1.0000         0.1413 
        2.0000       0.051139       0.099820        28.4712        20.1322 
        7.0000         1.0000         2.0000        16.6071         0.5399 
        1.0000
    3146.45040 
        0.0000         1.0000      0.0500799      0.0263000      0.0186520 
     0.0124300      0.0010331      0.0000000      0.0018128         5.9861 
        0.0000         2.6762        71.5509       145.5267        32.7331 
        3.0000         7.0000       0.364120         1.0000         0.1631 
        2.0000       0.060228       0.110310        32.1864        22.7592 
        7.0000         1.0000         2.0000        18.0072         0.4989 
        0.9771
    3146.60280 
        0.0000         1.0000      0.0487825      0.0329365      0.0205753 
     0.0123208      0.0024317      0.0013244      0.0005497         6.0639 
        0.0000         2.6270        74.9450       154.9922        29.8651 
        3.0000         7.0000       0.391530         1.0000         0.1817 
        2.0000       0.070138       0.118924        35.6037        25.1756 
        7.0000         1.0000         2.0000        19.6355         0.4701 
        0.8679
    3146.75520 
        0.0000         1.0000      0.0496974      0.0362960      0.0240817 
     0.0147497      0.0040047      0.0013244      0.0000000         6.0215 
        0.0000         2.6093        77.8366       157.4692        28.0402 
        3.0000         7.0000       0.400270         1.0000         0.2069 
        2.0000       0.080457       0.130157        41.7430        29.5168 
        7.0000         1.0000         2.0000        20.4827         0.4377 
        0.7764
    3146.90760 
        0.0000         1.0000      0.0527634      0.0361217      0.0279259 
     0.0192576      0.0046478      0.0000000      0.0000000         6.0026 
        0.0000         2.6003        79.5397       154.1674        29.7810 
        3.0000         7.0000       0.399530         1.0000         0.2314 
        2.0000       0.087953       0.140718        48.6643        34.4109 
        6.0000         1.0000         1.0000        20.5431         0.4115 
        0.7171
    3147.06000 
        0.0000         1.0000      0.0529486      0.0330083      0.0310447 
     0.0201861      0.0023425      0.0000000      0.0000000         6.0215 
        0.0000         2.6064        79.5898       150.2900        35.4777 
        3.0000         7.0000       0.386780         1.0000         0.2286 
        2.0000       0.086582       0.139532        49.4675        34.9788 
        6.0000         1.0000         1.0000        19.8712         0.4143 
        0.7353
    3147.21240 
        0.0000         1.0000      0.0519354      0.0318223      0.0327261 
     0.0174571      0.0018969      0.0000000      0.0000000         5.9461 
        0.0000         2.6171        78.8125       146.9091        38.9313 
        3.0000         7.0000       0.376660         1.0000         0.2200 
        2.0000       0.083902       0.135839        47.1921        33.3699 
        6.0000         1.0000         1.0000        18.4706         0.4231 
        0.7834
    3147.36480 
        0.0000         1.0000      0.0503653      0.0315321      0.0337394 
     0.0130285      0.0023153      0.0000000      0.0000000         5.9366 
        0.0000         2.6439        77.8519       143.7104        40.1473 
        3.0000         7.0000       0.360370         1.0000         0.2088 
        2.0000       0.080615       0.130981        43.4860        30.7493 
        6.0000         1.0000         1.0000        15.8304         0.4355 
        0.8776
